# 
# Header Description:
# 
# Version: v3.1.1.2 Platform: 13 Manufacturer: samsung Model: SM-A515F GNSS Hardware Model Name: S.LSI,K102
# 
# Raw,utcTimeMillis,TimeNanos,LeapSecond,TimeUncertaintyNanos,FullBiasNanos,BiasNanos,BiasUncertaintyNanos,DriftNanosPerSecond,DriftUncertaintyNanosPerSecond,HardwareClockDiscontinuityCount,Svid,TimeOffsetNanos,State,ReceivedSvTimeNanos,ReceivedSvTimeUncertaintyNanos,Cn0DbHz,PseudorangeRateMetersPerSecond,PseudorangeRateUncertaintyMetersPerSecond,AccumulatedDeltaRangeState,AccumulatedDeltaRangeMeters,AccumulatedDeltaRangeUncertaintyMeters,CarrierFrequencyHz,CarrierCycles,CarrierPhase,CarrierPhaseUncertainty,MultipathIndicator,SnrInDb,ConstellationType,AgcDb,BasebandCn0DbHz,FullInterSignalBiasNanos,FullInterSignalBiasUncertaintyNanos,SatelliteInterSignalBiasNanos,SatelliteInterSignalBiasUncertaintyNanos,CodeType,ChipsetElapsedRealtimeNanos,IsFullTracking,SvPositionEcefXMeters,SvPositionEcefYMeters,SvPositionEcefZMeters,SvVelocityEcefXMetersPerSecond,SvVelocityEcefYMetersPerSecond,SvVelocityEcefZMetersPerSecond,SvClockBiasMeters,SvClockDriftMetersPerSecond,KlobucharAlpha0,KlobucharAlpha1,KlobucharAlpha2,KlobucharAlpha3,KlobucharBeta0,KlobucharBeta1,KlobucharBeta2,KlobucharBeta3
# 
# UncalAccel,utcTimeMillis,elapsedRealtimeNanos,UncalAccelXMps2,UncalAccelYMps2,UncalAccelZMps2,BiasXMps2,BiasYMps2,BiasZMps2,CalibrationAccuracy
# 
# Accel,utcTimeMillis,elapsedRealtimeNanos,AccelXMps2,AccelYMps2,AccelZMps2,CalibrationAccuracy
# 
# UncalGyro,utcTimeMillis,elapsedRealtimeNanos,UncalGyroXRadPerSec,UncalGyroYRadPerSec,UncalGyroZRadPerSec,DriftXRadPerSec,DriftYRadPerSec,DriftZRadPerSec,CalibrationAccuracy
# 
# Gyro,utcTimeMillis,elapsedRealtimeNanos,GyroXRadPerSec,GyroYRadPerSec,GyroZRadPerSec,CalibrationAccuracy
# 
# UncalMag,utcTimeMillis,elapsedRealtimeNanos,UncalMagXMicroT,UncalMagYMicroT,UncalMagZMicroT,BiasXMicroT,BiasYMicroT,BiasZMicroT,CalibrationAccuracy
# 
# Mag,utcTimeMillis,elapsedRealtimeNanos,MagXMicroT,MagYMicroT,MagZMicroT,CalibrationAccuracy
# 
# Pressure,utcTimeMillis,elapsedRealtimeNanos,PressureHpa,CalibrationAccuracy
# 
# OrientationDeg,utcTimeMillis,elapsedRealtimeNanos,yawDeg,rollDeg,pitchDeg,CalibrationAccuracy
# 
# Fix,Provider,LatitudeDegrees,LongitudeDegrees,AltitudeMeters,SpeedMps,AccuracyMeters,BearingDegrees,UnixTimeMillis,SpeedAccuracyMps,BearingAccuracyDegrees,elapsedRealtimeNanos,VerticalAccuracyMeters,MockLocation,NumberOfUsedSignals,VerticalSpeedAccuracyMps,SolutionType
# 
# Nav,Svid,Type,Status,MessageId,Sub-messageId,Data(Bytes)
# 
# Status,UnixTimeMillis,SignalCount,SignalIndex,ConstellationType,Svid,CarrierFrequencyHz,Cn0DbHz,AzimuthDegrees,ElevationDegrees,UsedInFix,HasAlmanacData,HasEphemerisData,BasebandCn0DbHz
# 
# Agc,utcTimeMillis,TimeNanos,LeapSecond,TimeUncertaintyNanos,FullBiasNanos,BiasNanos,BiasUncertaintyNanos,DriftNanosPerSecond,DriftUncertaintyNanosPerSecond,HardwareClockDiscontinuityCount,AgcDb,CarrierFrequencyHz,ConstellationType
# 
# GameRotationVector,utcTimeMillis,elapsedRealtimeNanos,x,y,z,w
# 
Raw,1773869201999,7656642495,18,0.0,-1457904412343357440,0.0,10.096834182739258,62229.69140625,0.0,0,9,0.0,47,336419933481832,10,47.400001525878906,304.98712158203125,0.05562477186322212,17,-607.4187680029718,0.03933227618448436,1575420000,,,,0,43.70000076293945,1,3.9000000953674316,42.400001525878906,0.0,0.0,0.0,0.0,C,646123023886369,,18135388.538347233,493199.7265886981,19331156.010103315,-1626.2497126456083,1864.8888091617691,1463.295931460735,229577.47380948332,-0.00080291842459701,0.000000021420419216156006,0.000000007450580596923828,-0.00000011920928955078125,0.0,122880.0,0.0,-262144.0,196608.0
Raw,1773869201999,7656642495,18,0.0,-1457904412343357440,0.0,10.096834182739258,62229.69140625,0.0,0,7,0.0,47,336419923411161,10,42.29999923706055,-216.8705291748047,0.07187574356794357,17,436.2240093431028,0.0508233382768929,1575420000,,,,0,38.5,1,3.9000000953674316,37.29999923706055,0.0,0.0,0.0,0.0,C,646123023886369,,25947385.04235768,6419387.092049388,-996354.4592783357,116.78701987660475,322.72647944514745,3125.423691567767,-48682.22681595258,-0.0006929630835657008,0.000000021420419216156006,0.000000007450580596923828,-0.00000011920928955078125,0.0,122880.0,0.0,-262144.0,196608.0
Raw,1773869201999,7656642495,18,0.0,-1457904412343357440,0.0,10.096834182739258,62229.69140625,0.0,0,6,0.0,47,336419930039642,10,42.0,280.4566955566406,0.07304602116346359,17,-558.2336572402564,0.0516508415646851,1575420000,,,,0,36.900001525878906,1,3.9000000953674316,37.0,0.0,0.0,0.0,0.0,C,646123023886369,,18561475.549252793,-6719778.593610068,17910570.2849621,2120.7700175302202,756.6683045609007,-1905.6319039323662,-183681.06821817276,0.0003894311666954309,0.000000021420419216156006,0.000000007450580596923828,-0.00000011920928955078125,0.0,122880.0,0.0,-262144.0,196608.0
Raw,1773869201999,7656642495,18,0.0,-1457904412343357440,0.0,10.096834182739258,62229.69140625,0.0,0,4,0.0,47,336419929971849,12,37.29999923706055,684.0911254882812,0.0958506315946579,17,-1365.6837144711462,0.0677759816005826,1575420000,,,,0,33.29999923706055,1,3.9000000953674316,32.29999923706055,0.0,0.0,0.0,0.0,C,646123023886369,,10790502.084692389,10478213.119029475,21926844.78258431,-2047.9877301231909,1869.5018326181253,97.73817452997312,14822.883769015069,0.0006553817820531549,0.000000021420419216156006,0.000000007450580596923828,-0.00000011920928955078125,0.0,122880.0,0.0,-262144.0,196608.0
Raw,1773869201999,7656642495,18,0.0,-1457904412343357440,0.0,10.096834182739258,62229.69140625,0.0,0,3,0.0,47,336419924468749,13,36.400001525878906,870.126708984375,0.10142399370670319,17,-1737.7889684432594,0.07171690595000982,1575420000,,,,0,33.29999923706055,1,3.9000000953674316,31.399999618530273,0.0,0.0,0.0,0.0,C,646123023886369,,12028292.640433526,21360698.58319562,10169218.911571197,161.62279846212388,1311.3656502785934,-2879.6337514709107,160439.19429595172,-0.003994379861978814,0.000000021420419216156006,0.000000007450580596923828,-0.00000011920928955078125,0.0,122880.0,0.0,-262144.0,196608.0
Raw,1773869201999,7656642495,18,0.0,-1457904412343357440,0.0,10.096834182739258,62229.69140625,0.0,0,19,0.0,47,336419921371731,22,27.899999618530273,899.6036376953125,0.19069050252437592,20,-1796.2893748761562,0.1348372543349862,1575420000,,,,0,28.700000762939453,1,3.9000000953674316,22.899999618530273,0.0,0.0,0.0,0.0,C,646123023886369,,20290918.433429275,-16677824.739447515,417525.58181507926,260.2555679398317,223.93886960362343,-3203.0963207031514,208105.60332853705,-0.0007055079622659832,0.000000021420419216156006,0.000000007450580596923828,-0.00000011920928955078125,0.0,122880.0,0.0,-262144.0,196608.0
Raw,1773869201999,7656642495,18,0.0,-1457904412343357440,0.0,10.096834182739258,62229.69140625,0.0,0,11,0.0,47,336419922713176,21,28.100000381469727,-206.28054809570312,0.18740276992321014,20,415.5324748499843,0.1325124986127019,1575420000,,,,0,21.399999618530273,1,3.9000000953674316,23.100000381469727,0.0,0.0,0.0,0.0,C,646123023886369,,4299611.3625555495,-14555164.869295683,21849489.25222055,2626.1815187777556,851.4525955051013,43.525529733264975,-120783.34583102576,0.004017265091533773,0.000000021420419216156006,0.000000007450580596923828,-0.00000011920928955078125,0.0,122880.0,0.0,-262144.0,196608.0
Raw,1773869201999,7656642495,18,0.0,-1457904412343357440,0.0,10.096834182739258,62229.69140625,0.0,0,24,0.0,239,1601927706057,10,47.5,1096.4298095703125,0.05536332353949547,17,-2187.857621207222,0.03914740607477724,1603125000,,,,0,44.5,3,3.9000000953674316,42.5,0.0,0.0,0.0,0.0,C,646123023886369,,,,,,,,,,0.000000021420419216156006,0.000000007450580596923828,-0.00000011920928955078125,0.0,122880.0,0.0,-262144.0,196608.0
Raw,1773869201999,7656642495,18,0.0,-1457904412343357440,0.0,10.096834182739258,62229.69140625,0.0,0,32,0.0,815,336405925915987,10,43.900001525878906,196.99266052246094,0.06608467549085617,17,-391.47235795049346,0.0467284740395844,1561098000,,,,0,41.20000076293945,5,3.9000000953674316,38.900001525878906,0.0,0.0,0.0,0.0,C,646123023886369,,16707128.462099064,-5125918.117002091,21764276.79749423,-728.1955633283299,2372.542210679163,1121.1848069097493,-280668.72469225584,0.001311926287598908,0.000000021420419216156006,0.000000007450580596923828,-0.00000011920928955078125,0.0,122880.0,0.0,-262144.0,196608.0
Raw,1773869201999,7656642495,18,0.0,-1457904412343357440,0.0,10.096834182739258,62229.69140625,0.0,0,2,0.0,239,1601933980510,10,44.70000076293945,206.60107421875,0.06344815343618393,17,-413.34584053917206,0.04486418929472565,1599750000,,,,0,36.5,3,3.9000000953674316,39.70000076293945,0.0,0.0,0.0,0.0,C,646123023886369,,,,,,,,,,0.000000021420419216156006,0.000000007450580596923828,-0.00000011920928955078125,0.0,122880.0,0.0,-262144.0,196608.0
Raw,1773869201999,7656642495,18,0.0,-1457904412343357440,0.0,10.096834182739258,62229.69140625,0.0,0,17,0.0,239,1601933976266,10,42.5,404.9333190917969,0.07111111283302307,17,-806.3950208046881,0.05028266788423061,1604250000,,,,0,40.599998474121094,3,3.9000000953674316,37.5,0.0,0.0,0.0,0.0,C,646123023886369,,,,,,,,,,0.000000021420419216156006,0.000000007450580596923828,-0.00000011920928955078125,0.0,122880.0,0.0,-262144.0,196608.0
Raw,1773869201999,7656642495,18,0.0,-1457904412343357440,0.0,10.096834182739258,62229.69140625,0.0,0,1,0.0,239,1601931624866,13,35.70000076293945,752.3094482421875,0.10610191524028778,17,-1489.901062502846,0.07502466426640748,1602562600,,,,0,28.200000762939453,3,3.9000000953674316,30.700000762939453,0.0,0.0,0.0,0.0,C,646123023886369,,,,,,,,,,0.000000021420419216156006,0.000000007450580596923828,-0.00000011920928955078125,0.0,122880.0,0.0,-262144.0,196608.0
Raw,1773869201999,7656642495,18,0.0,-1457904412343357440,0.0,10.096834182739258,62229.69140625,0.0,0,12,0.0,239,1601920415592,18,31.100000381469727,-410.3580322265625,0.14679761230945587,20,837.2036574153753,0.10380059166401624,1601437400,,,,0,29.600000381469727,3,3.9000000953674316,26.100000381469727,0.0,0.0,0.0,0.0,C,646123023886369,,,,,,,,,,0.000000021420419216156006,0.000000007450580596923828,-0.00000011920928955078125,0.0,122880.0,0.0,-262144.0,196608.0
Raw,1773869201999,7656642495,18,0.0,-1457904412343357440,0.0,10.096834182739258,62229.69140625,0.0,0,10,0.0,239,1601922201799,21,28.700000762939453,631.494873046875,0.17803412675857544,20,-1247.3759982840565,0.1258879310309887,1598062500,,,,0,24.5,3,3.9000000953674316,23.700000762939453,0.0,0.0,0.0,0.0,C,646123023886369,,,,,,,,,,0.000000021420419216156006,0.000000007450580596923828,-0.00000011920928955078125,0.0,122880.0,0.0,-262144.0,196608.0
Raw,1773869201999,7656642495,18,0.0,-1457904412343357440,0.0,10.096834182739258,62229.69140625,0.0,0,30,0.0,815,336405922564670,23,27.399999618530273,576.3576049804688,0.19929847121238708,20,-1149.8549676307885,0.1409239489942789,1561098000,,,,0,22.200000762939453,5,3.9000000953674316,22.399999618530273,0.0,0.0,0.0,0.0,C,646123023886369,,20342705.77386853,-14612000.155577816,12314610.424499411,1399.2166240375068,-225.47043138798168,-2573.399260007703,122697.11444371482,0.0024048957566265017,0.000000021420419216156006,0.000000007450580596923828,-0.00000011920928955078125,0.0,122880.0,0.0,-262144.0,196608.0
Raw,1773869201999,7656642495,18,0.0,-1457904412343357440,0.0,10.096834182739258,62229.69140625,0.0,0,3,0.0,239,1601922418565,23,27.100000381469727,-234.1510772705078,0.20474600791931152,20,509.2557960046979,0.14477590219974518,1604812500,,,,0,21.0,3,3.9000000953674316,22.100000381469727,0.0,0.0,0.0,0.0,C,646123023886369,,,,,,,,,,0.000000021420419216156006,0.000000007450580596923828,-0.00000011920928955078125,0.0,122880.0,0.0,-262144.0,196608.0
Raw,1773869201999,7656642495,18,0.0,-1457904412343357440,0.0,10.096834182739258,62229.69140625,0.0,0,18,0.0,239,1601926936662,23,27.399999618530273,-247.27694702148438,0.19929847121238708,20,271.71988245157627,0.1409239489942789,1600312400,,,,0,19.200000762939453,3,3.9000000953674316,22.399999618530273,0.0,0.0,0.0,0.0,C,646123023886369,,,,,,,,,,0.000000021420419216156006,0.000000007450580596923828,-0.00000011920928955078125,0.0,122880.0,0.0,-262144.0,196608.0
Raw,1773869201999,7656642495,18,0.0,-1457904412343357440,0.0,10.096834182739258,62229.69140625,0.0,0,11,0.0,239,1601925917389,31,23.600000381469727,-15.32425594329834,0.28905072808265686,20,43.21721731184152,0.20438776982724666,1602000000,,,,0,20.899999618530273,3,3.9000000953674316,18.600000381469727,0.0,0.0,0.0,0.0,C,646123023886369,,,,,,,,,,0.000000021420419216156006,0.000000007450580596923828,-0.00000011920928955078125,0.0,122880.0,0.0,-262144.0,196608.0
Raw,1773869203000,8656643656,18,0.0,-1457904412343356416,0.0,10.096834182739258,62229.76171875,0.0,0,9,0.0,47,336420933481972,10,47.29999923706055,305.10675048828125,0.0558880940079689,17,-911.3335078985547,0.03951847127303481,1575420000,,,,0,43.400001525878906,1,3.9000000953674316,42.29999923706055,0.0,0.0,0.0,0.0,C,646124031065676,,18133762.27867415,495064.73028105684,19332619.099454843,-1626.2691683135695,1865.118048803984,1462.8823566083277,229577.47300654458,-0.0008029589371290058,0.000000021420419216156006,0.000000007450580596923828,-0.00000011920928955078125,0.0,122880.0,0.0,-262144.0,196608.0
Raw,1773869203000,8656643656,18,0.0,-1457904412343356416,0.0,10.096834182739258,62229.76171875,0.0,0,7,0.0,47,336420923413036,10,42.29999923706055,-216.78977966308594,0.07187574356794357,17,654.1873017518665,0.0508233382768929,1575420000,,,,0,37.20000076293945,1,3.9000000953674316,37.29999923706055,0.0,0.0,0.0,0.0,C,646124031065676,,25947501.651873168,6419709.760837159,-993229.0193582944,116.43157146359411,322.60989396506176,3125.4444172358003,-48682.22750877881,-0.0006926867717993446,0.000000021420419216156006,0.000000007450580596923828,-0.00000011920928955078125,0.0,122880.0,0.0,-262144.0,196608.0
Raw,1773869203000,8656643656,18,0.0,-1457904412343356416,0.0,10.096834182739258,62229.76171875,0.0,0,6,0.0,47,336420930039859,10,42.0,280.5914001464844,0.07304602116346359,17,-837.6176494875108,0.0516508415646851,1575420000,,,,0,38.20000076293945,1,3.9000000953674316,37.0,0.0,0.0,0.0,0.0,C,646124031065676,,18563596.2289267,-6719022.026940533,17908664.464143105,2120.588399430353,756.4647085565928,-1906.0089002205968,-183681.06782873112,0.000389451946830377,0.000000021420419216156006,0.000000007450580596923828,-0.00000011920928955078125,0.0,122880.0,0.0,-262144.0,196608.0
Raw,1773869203000,8656643656,18,0.0,-1457904412343356416,0.0,10.096834182739258,62229.76171875,0.0,0,4,0.0,47,336420929970718,12,37.29999923706055,684.2152709960938,0.0958506315946579,17,-2048.71057151939,0.0677759816005826,1575420000,,,,0,30.700000762939453,1,3.9000000953674316,32.29999923706055,0.0,0.0,0.0,0.0,C,646124031065676,,10788454.149934858,10480082.68488242,21926942.288199645,-2047.886408838894,1869.6340948224815,97.27327624811308,14822.884424370171,0.0006553299044753658,0.000000021420419216156006,0.000000007450580596923828,-0.00000011920928955078125,0.0,122880.0,0.0,-262144.0,196608.0
Raw,1773869203000,8656643656,18,0.0,-1457904412343356416,0.0,10.096834182739258,62229.76171875,0.0,0,3,0.0,47,336420924467019,13,36.29999923706055,870.1436157226562,0.10207311064004898,17,-2606.78296001564,0.07217589653357863,1575420000,,,,0,32.599998474121094,1,3.9000000953674316,31.299999237060547,0.0,0.0,0.0,0.0,C,646124031065676,,12028454.262313463,21362009.763847683,10166339.174373081,161.62151130599977,1311.0001873172675,-2879.850598246165,160439.19030162643,-0.003994284517830238,0.000000021420419216156006,0.000000007450580596923828,-0.00000011920928955078125,0.0,122880.0,0.0,-262144.0,196608.0
Raw,1773869203000,8656643656,18,0.0,-1457904412343356416,0.0,10.096834182739258,62229.76171875,0.0,0,19,0.0,47,336420921369888,20,29.0,899.1582641601562,0.1736111044883728,20,-2694.414347744838,0.1227604119837284,1575420000,,,,0,27.799999237060547,1,3.9000000953674316,24.0,0.0,0.0,0.0,0.0,C,646124031065676,,20291178.53568292,-16677600.680914227,414322.4868172695,259.94990332493194,224.179029683067,-3203.1054697930267,208105.60262304568,-0.0007054773159325123,0.000000021420419216156006,0.000000007450580596923828,-0.00000011920928955078125,0.0,122880.0,0.0,-262144.0,196608.0
Raw,1773869203000,8656643656,18,0.0,-1457904412343356416,0.0,10.096834182739258,62229.76171875,0.0,0,11,0.0,47,336420922715047,22,27.700000762939453,-207.12767028808594,0.19406546652317047,20,623.5650677650119,0.13722369137853382,1575420000,,,,0,16.399999618530273,1,3.9000000953674316,22.700000762939453,0.0,0.0,0.0,0.0,C,646124031065676,,4302237.576994812,-14554313.491278507,21849532.54655649,2626.237521950994,851.3002494559495,43.06297994539841,-120783.34181376381,0.004017243772977963,0.000000021420419216156006,0.000000007450580596923828,-0.00000011920928955078125,0.0,122880.0,0.0,-262144.0,196608.0
Raw,1773869203000,8656643656,18,0.0,-1457904412343356416,0.0,10.096834182739258,62229.76171875,0.0,0,24,0.0,239,1602927703560,10,47.599998474121094,1096.5179443359375,0.05510370805859566,17,-3283.569633632258,0.038963831968232984,1603125000,,,,0,44.79999923706055,3,3.9000000953674316,42.599998474121094,0.0,0.0,0.0,0.0,C,646124031065676,,,,,,,,,,0.000000021420419216156006,0.000000007450580596923828,-0.00000011920928955078125,0.0,122880.0,0.0,-262144.0,196608.0
Raw,1773869203000,8656643656,18,0.0,-1457904412343356416,0.0,10.096834182739258,62229.76171875,0.0,0,32,0.0,815,336406925916496,10,44.099998474121094,197.04380798339844,0.06541035324335098,17,-587.3504213796114,0.04625166077837348,1561098000,,,,0,39.400001525878906,5,3.9000000953674316,39.099998474121094,0.0,0.0,0.0,0.0,C,646124031065676,,16706400.330507107,-5123545.487147249,21765397.783399418,-728.066873574826,2372.7150753926626,1120.7858589066332,-280668.7233803242,0.001311935600824654,0.000000021420419216156006,0.000000007450580596923828,-0.00000011920928955078125,0.0,122880.0,0.0,-262144.0,196608.0
Raw,1773869203000,8656643656,18,0.0,-1457904412343356416,0.0,10.096834182739258,62229.76171875,0.0,0,2,0.0,239,1602933980982,10,44.400001525878906,206.66021728515625,0.06441804021596909,17,-618.9403590665315,0.045549996236711736,1599750000,,,,0,36.70000076293945,3,3.9000000953674316,39.400001525878906,0.0,0.0,0.0,0.0,C,646124031065676,,,,,,,,,,0.000000021420419216156006,0.000000007450580596923828,-0.00000011920928955078125,0.0,122880.0,0.0,-262144.0,196608.0
Raw,1773869203000,8656643656,18,0.0,-1457904412343356416,0.0,10.096834182739258,62229.76171875,0.0,0,17,0.0,239,1602933976073,10,42.599998474121094,405.1273498535156,0.07073336839675903,17,-1211.3042433553492,0.05001556479334831,1604250000,,,,0,40.70000076293945,3,3.9000000953674316,37.599998474121094,0.0,0.0,0.0,0.0,C,646124031065676,,,,,,,,,,0.000000021420419216156006,0.000000007450580596923828,-0.00000011920928955078125,0.0,122880.0,0.0,-262144.0,196608.0
Raw,1773869203000,8656643656,18,0.0,-1457904412343356416,0.0,10.096834182739258,62229.76171875,0.0,0,1,0.0,239,1602931623505,13,35.599998474121094,752.4758911132812,0.10679652541875839,20,-2244.9339899786864,0.07551582312360405,1602562600,,,,0,23.0,3,3.9000000953674316,30.600000381469727,0.0,0.0,0.0,0.0,C,646124031065676,,,,,,,,,,0.000000021420419216156006,0.000000007450580596923828,-0.00000011920928955078125,0.0,122880.0,0.0,-262144.0,196608.0
Raw,1773869203000,8656643656,18,0.0,-1457904412343356416,0.0,10.096834182739258,62229.76171875,0.0,0,12,0.0,239,1602920418116,17,31.600000381469727,-410.73223876953125,0.1413307636976242,20,1247.0111143632676,0.09993498301059008,1601437400,,,,0,31.899999618530273,3,3.9000000953674316,26.600000381469727,0.0,0.0,0.0,0.0,C,646124031065676,,,,,,,,,,0.000000021420419216156006,0.000000007450580596923828,-0.00000011920928955078125,0.0,122880.0,0.0,-262144.0,196608.0
Raw,1773869203000,8656643656,18,0.0,-1457904412343356416,0.0,10.096834182739258,62229.76171875,0.0,0,10,0.0,239,1602922200828,21,28.700000762939453,631.1931762695312,0.17803412675857544,20,-1885.510087906674,0.1258879310309887,1598062500,,,,0,23.200000762939453,3,3.9000000953674316,23.700000762939453,0.0,0.0,0.0,0.0,C,646124031065676,,,,,,,,,,0.000000021420419216156006,0.000000007450580596923828,-0.00000011920928955078125,0.0,122880.0,0.0,-262144.0,196608.0
Raw,1773869203000,8656643656,18,0.0,-1457904412343356416,0.0,10.096834182739258,62229.76171875,0.0,0,30,0.0,815,336406922563912,23,27.299999237060547,575.757568359375,0.20108991861343384,20,-1724.635289891914,0.14219068145155905,1561098000,,,,0,23.799999237060547,5,3.9000000953674316,22.299999237060547,0.0,0.0,0.0,0.0,C,646124031065676,,20344104.840596836,-14612225.6327664,12312036.914293142,1398.9189501561864,-225.48427999901935,-2573.625046150173,122697.11684861284,0.00240490393480286,0.000000021420419216156006,0.000000007450580596923828,-0.00000011920928955078125,0.0,122880.0,0.0,-262144.0,196608.0
Raw,1773869203000,8656643656,18,0.0,-1457904412343356416,0.0,10.096834182739258,62229.76171875,0.0,0,3,0.0,239,1602922420511,23,27.0,-234.86373901367188,0.20661157369613647,20,745.3600876710261,0.14609504376053808,1604812500,,,,0,20.0,3,3.9000000953674316,22.0,0.0,0.0,0.0,0.0,C,646124031065676,,,,,,,,,,0.000000021420419216156006,0.000000007450580596923828,-0.00000011920928955078125,0.0,122880.0,0.0,-262144.0,196608.0
Raw,1773869203000,8656643656,18,0.0,-1457904412343356416,0.0,10.096834182739258,62229.76171875,0.0,0,11,0.0,239,1602925918562,30,23.700000762939453,-15.40872859954834,0.28596755862236023,20,47.66922978745424,0.2022076607018709,1602000000,,,,0,17.100000381469727,3,3.9000000953674316,18.700000762939453,0.0,0.0,0.0,0.0,C,646124031065676,,,,,,,,,,0.000000021420419216156006,0.000000007450580596923828,-0.00000011920928955078125,0.0,122880.0,0.0,-262144.0,196608.0
Raw,1773869203000,8656643656,18,0.0,-1457904412343356416,0.0,10.096834182739258,62229.76171875,0.0,0,18,0.0,239,1602926938675,23,27.100000381469727,-247.7816162109375,0.20474600791931152,20,528.1423764160427,0.14477590219974518,1600312400,,,,0,16.799999237060547,3,3.9000000953674316,22.100000381469727,0.0,0.0,0.0,0.0,C,646124031065676,,,,,,,,,,0.000000021420419216156006,0.000000007450580596923828,-0.00000011920928955078125,0.0,122880.0,0.0,-262144.0,196608.0
Raw,1773869204000,9656644755,18,0.0,-1457904412343355136,0.0,10.096834182739258,62229.51171875,0.0,0,9,0.0,47,336421933482060,10,47.29999923706055,305.0745544433594,0.0558880940079689,17,-1215.2812772679026,0.03951847127303481,1575420000,,,,0,45.599998474121094,1,3.9000000953674316,42.29999923706055,0.0,0.0,0.0,0.0,C,646125019398714,,18132135.999659516,496929.9631025549,19334081.77513951,-1626.2885648702002,1865.3472612786616,1462.468749992798,229577.47220356532,-0.0008029993914533406,0.000000021420419216156006,0.000000007450580596923828,-0.00000011920928955078125,0.0,122880.0,0.0,-262144.0,196608.0
Raw,1773869204000,9656644755,18,0.0,-1457904412343355136,0.0,10.096834182739258,62229.51171875,0.0,0,7,0.0,47,336421923414842,10,42.29999923706055,-216.86268615722656,0.07187574356794357,17,872.1574005012517,0.0508233382768929,1575420000,,,,0,35.400001525878906,1,3.9000000953674316,37.29999923706055,0.0,0.0,0.0,0.0,C,646125019398714,,25947617.905924432,6420032.313040915,-990103.5589608495,116.07610877318304,322.49335644299856,3125.4650776145627,-48682.22820132868,-0.0006924104818608612,0.000000021420419216156006,0.000000007450580596923828,-0.00000011920928955078125,0.0,122880.0,0.0,-262144.0,196608.0
Raw,1773869204000,9656644755,18,0.0,-1457904412343355136,0.0,10.096834182739258,62229.51171875,0.0,0,6,0.0,47,336421930040010,10,42.099998474121094,280.578125,0.07265277206897736,17,-1117.057528606325,0.05137277512997389,1575420000,,,,0,37.599998474121094,1,3.9000000953674316,37.099998474121094,0.0,0.0,0.0,0.0,C,646125019398714,,18565716.72681111,-6718265.663909688,17906758.26647373,2120.4067185262966,756.2611270777554,-1906.3858561423879,-183681.06743926872,0.0003894726687576622,0.000000021420419216156006,0.000000007450580596923828,-0.00000011920928955078125,0.0,122880.0,0.0,-262144.0,196608.0
Raw,1773869204000,9656644755,18,0.0,-1457904412343355136,0.0,10.096834182739258,62229.51171875,0.0,0,4,0.0,47,336421929969542,12,37.29999923706055,684.0983276367188,0.0958506315946579,17,-2731.7118297989364,0.0677759816005826,1575420000,,,,0,33.0,1,3.9000000953674316,32.29999923706055,0.0,0.0,0.0,0.0,C,646125019398714,,10786406.316616308,10481952.382890953,21927039.328911487,-2047.7850361060655,1869.7663122035924,96.8083752029551,14822.885079673364,0.0006552780250785872,0.000000021420419216156006,0.000000007450580596923828,-0.00000011920928955078125,0.0,122880.0,0.0,-262144.0,196608.0
Raw,1773869204000,9656644755,18,0.0,-1457904412343355136,0.0,10.096834182739258,62229.51171875,0.0,0,3,0.0,47,336421924465218,13,36.400001525878906,870.1146240234375,0.10142399370670319,17,-3475.784282776236,0.07171690595000982,1575420000,,,,0,32.70000076293945,1,3.9000000953674316,31.399999618530273,0.0,0.0,0.0,0.0,C,646125019398714,,12028615.882867072,21363320.57893467,10163459.22056407,161.62016898645692,1310.6347048763728,-2880.067382975719,160439.18630739683,-0.003994189115474001,0.000000021420419216156006,0.000000007450580596923828,-0.00000011920928955078125,0.0,122880.0,0.0,-262144.0,196608.0
Raw,1773869204000,9656644755,18,0.0,-1457904412343355136,0.0,10.096834182739258,62229.51171875,0.0,0,19,0.0,47,336421921367992,20,29.299999237060547,899.326416015625,0.16935087740421295,20,-3592.6005371461506,0.11974800541251897,1575420000,,,,0,25.200000762939453,1,3.9000000953674316,24.299999237060547,0.0,0.0,0.0,0.0,C,646125019398714,,20291438.332274362,-16677376.38221286,411119.3828753755,259.64426982517733,224.4192302562516,-3203.1145484181625,208105.60191758504,-0.0007054466695990413,0.000000021420419216156006,0.000000007450580596923828,-0.00000011920928955078125,0.0,122880.0,0.0,-262144.0,196608.0
Raw,1773869204000,9656644755,18,0.0,-1457904412343355136,0.0,10.096834182739258,62229.51171875,0.0,0,11,0.0,47,336421922716832,23,27.399999618530273,-206.93043518066406,0.19929847121238708,20,831.6034279403393,0.1409239489942789,1575420000,,,,0,19.0,1,3.9000000953674316,22.399999618530273,0.0,0.0,0.0,0.0,C,646125019398714,,4304863.847179634,-14553462.265691571,21849575.37833752,2626.2934612207946,851.1478819623204,42.60042899123328,-120783.33779652351,0.004017222468974069,0.000000021420419216156006,0.000000007450580596923828,-0.00000011920928955078125,0.0,122880.0,0.0,-262144.0,196608.0
Raw,1773869204000,9656644755,18,0.0,-1457904412343355136,0.0,10.096834182739258,62229.51171875,0.0,0,24,0.0,239,1603927701007,10,47.70000076293945,1096.46630859375,0.054845910519361496,17,-4377.432051713287,0.03878154332824051,1603125000,,,,0,44.400001525878906,3,3.9000000953674316,42.70000076293945,0.0,0.0,0.0,0.0,C,646125019398714,,,,,,,,,,0.000000021420419216156006,0.000000007450580596923828,-0.00000011920928955078125,0.0,122880.0,0.0,-262144.0,196608.0
Raw,1773869204000,9656644755,18,0.0,-1457904412343355136,0.0,10.096834182739258,62229.51171875,0.0,0,32,0.0,815,336407925916941,10,44.099998474121094,196.98907470703125,0.06541035324335098,17,-783.2289051736589,0.04625166077837348,1561098000,,,,0,38.5,5,3.9000000953674316,39.099998474121094,0.0,0.0,0.0,0.0,C,646125019398714,,16705672.327668944,-5121172.684604277,21766518.370274484,-727.9381490542394,2372.887890427521,1120.3868905097588,-280668.7220683833,0.0013119449722580612,0.000000021420419216156006,0.000000007450580596923828,-0.00000011920928955078125,0.0,122880.0,0.0,-262144.0,196608.0
Raw,1773869204000,9656644755,18,0.0,-1457904412343355136,0.0,10.096834182739258,62229.51171875,0.0,0,2,0.0,239,1603933981389,10,44.099998474121094,206.63217163085938,0.06541035324335098,17,-825.2605947094853,0.04625166077837348,1599750000,,,,0,37.599998474121094,3,3.9000000953674316,39.099998474121094,0.0,0.0,0.0,0.0,C,646125019398714,,,,,,,,,,0.000000021420419216156006,0.000000007450580596923828,-0.00000011920928955078125,0.0,122880.0,0.0,-262144.0,196608.0
Raw,1773869204000,9656644755,18,0.0,-1457904412343355136,0.0,10.096834182739258,62229.51171875,0.0,0,17,0.0,239,1603933975834,10,42.599998474121094,405.16943359375,0.07073336839675903,17,-1611.6453257488902,0.05001556479334831,1604250000,,,,0,37.0,3,3.9000000953674316,37.599998474121094,0.0,0.0,0.0,0.0,C,646125019398714,,,,,,,,,,0.000000021420419216156006,0.000000007450580596923828,-0.00000011920928955078125,0.0,122880.0,0.0,-262144.0,196608.0
Raw,1773869204000,9656644755,18,0.0,-1457904412343355136,0.0,10.096834182739258,62229.51171875,0.0,0,12,0.0,239,1603920420572,12,38.0,-410.5440368652344,0.09182736277580261,22,1654.8050258618896,0.06493112821877002,1601437400,,,,0,33.79999923706055,3,3.9000000953674316,33.0,0.0,0.0,0.0,0.0,C,646125019398714,,,,,,,,,,0.000000021420419216156006,0.000000007450580596923828,-0.00000011920928955078125,0.0,122880.0,0.0,-262144.0,196608.0
Raw,1773869204000,9656644755,18,0.0,-1457904412343355136,0.0,10.096834182739258,62229.51171875,0.0,0,23,0.0,291,15709872,13,36.099998474121094,-206.37123107910156,0.1033901646733284,16,0.0,0.07310718544051051,1561098000,,,,0,0.0,5,3.9000000953674316,31.100000381469727,0.0,0.0,0.0,0.0,C,646125019398714,,,,,,,,,,0.000000021420419216156006,0.000000007450580596923828,-0.00000011920928955078125,0.0,122880.0,0.0,-262144.0,196608.0
Raw,1773869204000,9656644755,18,0.0,-1457904412343355136,0.0,10.096834182739258,62229.51171875,0.0,0,10,0.0,239,1603922199832,20,28.799999237060547,631.0610961914062,0.17654122412204742,20,-2512.637371497869,0.12483229957669972,1598062500,,,,0,23.5,3,3.9000000953674316,23.799999237060547,0.0,0.0,0.0,0.0,C,646125019398714,,,,,,,,,,0.000000021420419216156006,0.000000007450580596923828,-0.00000011920928955078125,0.0,122880.0,0.0,-262144.0,196608.0
Raw,1773869204000,9656644755,18,0.0,-1457904412343355136,0.0,10.096834182739258,62229.51171875,0.0,0,30,0.0,815,336407922563093,22,27.700000762939453,575.80419921875,0.19406546652317047,20,-2299.358220400929,0.13722369137853382,1561098000,,,,0,26.0,5,3.9000000953674316,22.700000762939453,0.0,0.0,0.0,0.0,C,646125019398714,,20345503.609556034,-14612451.123766776,12309463.178481534,1398.6212561539487,-225.49808231995968,-2573.8507850357196,122697.1192535189,0.0024049121129792184,0.000000021420419216156006,0.000000007450580596923828,-0.00000011920928955078125,0.0,122880.0,0.0,-262144.0,196608.0
Raw,1773869204000,9656644755,18,0.0,-1457904412343355136,0.0,10.096834182739258,62229.51171875,0.0,0,3,0.0,239,1603922422333,23,26.899999618530273,-234.25973510742188,0.20850275456905365,20,963.1383178805117,0.14743229775577782,1604812500,,,,0,17.700000762939453,3,3.9000000953674316,21.899999618530273,0.0,0.0,0.0,0.0,C,646125019398714,,,,,,,,,,0.000000021420419216156006,0.000000007450580596923828,-0.00000011920928955078125,0.0,122880.0,0.0,-262144.0,196608.0
Raw,1773869204000,9656644755,18,0.0,-1457904412343355136,0.0,10.096834182739258,62229.51171875,0.0,0,11,0.0,239,1603925919611,28,24.799999237060547,-14.685430526733398,0.25507602095603943,20,33.652332929217664,0.18036425441801546,1602000000,,,,0,25.700000762939453,3,3.9000000953674316,19.799999237060547,0.0,0.0,0.0,0.0,C,646125019398714,,,,,,,,,,0.000000021420419216156006,0.000000007450580596923828,-0.00000011920928955078125,0.0,122880.0,0.0,-262144.0,196608.0
Raw,1773869204000,9656644755,18,0.0,-1457904412343355136,0.0,10.096834182739258,62229.51171875,0.0,0,18,0.0,239,1603926940505,24,26.5,-247.44717407226562,0.21633315086364746,20,748.4965380851863,0.1529691709756851,1600312400,,,,0,19.899999618530273,3,3.9000000953674316,21.5,0.0,0.0,0.0,0.0,C,646125019398714,,,,,,,,,,0.000000021420419216156006,0.000000007450580596923828,-0.00000011920928955078125,0.0,122880.0,0.0,-262144.0,196608.0
Raw,1773869205000,10656645916,18,0.0,-1457904412343354112,0.0,10.096834182739258,62229.33984375,0.0,0,9,0.0,47,336422933482205,10,47.5,305.12213134765625,0.05536332353949547,17,-1519.257813057542,0.03914740607477724,1575420000,,,,0,45.0,1,3.9000000953674316,42.5,0.0,0.0,0.0,0.0,C,646126019749290,,18130509.701185178,498795.4252292346,19335544.03728497,-1626.3079023211274,1865.5764465983943,1462.0551115778853,229577.4714005456,-0.0008030398457776755,0.000000021420419216156006,0.000000007450580596923828,-0.00000011920928955078125,0.0,122880.0,0.0,-262144.0,196608.0
Raw,1773869205000,10656645916,18,0.0,-1457904412343354112,0.0,10.096834182739258,62229.33984375,0.0,0,6,0.0,47,336422930040235,10,42.099998474121094,280.696533203125,0.07265277206897736,17,-1396.5810279088619,0.05137277512997389,1575420000,,,,0,37.79999923706055,1,3.9000000953674316,37.099998474121094,0.0,0.0,0.0,0.0,C,646126019749290,,18567837.04314006,-6717509.504397202,17904851.69172745,2120.2249747975557,756.0575601082932,-1906.7627717427117,-183681.06704978563,0.00038949341978877783,0.000000021420419216156006,0.000000007450580596923828,-0.00000011920928955078125,0.0,122880.0,0.0,-262144.0,196608.0
Raw,1773869205000,10656645916,18,0.0,-1457904412343354112,0.0,10.096834182739258,62229.33984375,0.0,0,7,0.0,47,336422923416729,10,42.20000076293945,-216.84939575195312,0.07226268202066422,17,1090.1349124585686,0.051096942456811664,1575420000,,,,0,32.70000076293945,1,3.9000000953674316,37.20000076293945,0.0,0.0,0.0,0.0,C,646126019749290,,25947733.80451461,6420354.74875691,-986978.0776824686,115.7206317643043,322.37686686540854,3125.4856727078136,-48682.22889360235,-0.0006921342137502506,0.000000021420419216156006,0.000000007450580596923828,-0.00000011920928955078125,0.0,122880.0,0.0,-262144.0,196608.0
Raw,1773869205000,10656645916,18,0.0,-1457904412343354112,0.0,10.096834182739258,62229.33984375,0.0,0,4,0.0,47,336422929968413,12,37.29999923706055,684.1968994140625,0.0958506315946579,17,-3414.7563336292806,0.0677759816005826,1575420000,,,,0,30.700000762939453,1,3.9000000953674316,32.29999923706055,0.0,0.0,0.0,0.0,C,646126019749290,,10784358.584599929,10483822.213182107,21927135.90472597,-2047.6836119233944,1869.898484763894,96.3434713615502,14822.885734924708,0.0006552261402248405,0.000000021420419216156006,0.000000007450580596923828,-0.00000011920928955078125,0.0,122880.0,0.0,-262144.0,196608.0
Raw,1773869205000,10656645916,18,0.0,-1457904412343354112,0.0,10.096834182739258,62229.33984375,0.0,0,3,0.0,47,336422924463470,13,36.400001525878906,870.0931396484375,0.10142399370670319,17,-4344.759817535669,0.07171690595000982,1575420000,,,,0,30.399999618530273,1,3.9000000953674316,31.399999618530273,0.0,0.0,0.0,0.0,C,646126019749290,,12028777.502059424,21364631.02859953,10160579.049849078,161.61877150055182,1310.26920292466,-2880.28410568217,160439.18231326237,-0.003994093771325424,0.000000021420419216156006,0.000000007450580596923828,-0.00000011920928955078125,0.0,122880.0,0.0,-262144.0,196608.0
Raw,1773869205000,10656645916,18,0.0,-1457904412343354112,0.0,10.096834182739258,62229.33984375,0.0,0,19,0.0,47,336422921366195,20,29.299999237060547,899.06396484375,0.16935087740421295,20,-4490.6182565453055,0.11974800541251897,1575420000,,,,0,22.799999237060547,1,3.9000000953674316,24.299999237060547,0.0,0.0,0.0,0.0,C,646126019749290,,20291697.82327407,-16677151.84326894,407916.2695729941,259.3386674054567,224.6594713508868,-3203.123556579855,208105.60121215504,-0.000705415935954079,0.000000021420419216156006,0.000000007450580596923828,-0.00000011920928955078125,0.0,122880.0,0.0,-262144.0,196608.0
Raw,1773869205000,10656645916,18,0.0,-1457904412343354112,0.0,10.096834182739258,62229.33984375,0.0,0,11,0.0,47,336422922718728,23,27.100000381469727,-206.6939239501953,0.20474600791931152,20,1039.5000347246823,0.14477590219974518,1575420000,,,,0,20.399999618530273,1,3.9000000953674316,22.100000381469727,0.0,0.0,0.0,0.0,C,646126019749290,,4307490.1735633025,-14552611.192388691,21849617.74757084,2626.3493365940876,850.9954930059157,42.13787678938716,-120783.3337793041,0.004017201150418259,0.000000021420419216156006,0.000000007450580596923828,-0.00000011920928955078125,0.0,122880.0,0.0,-262144.0,196608.0
Raw,1773869205000,10656645916,18,0.0,-1457904412343354112,0.0,10.096834182739258,62229.33984375,0.0,0,24,0.0,239,1604927698503,10,47.79999923706055,1096.5404052734375,0.05458991974592209,17,-5475.290363452077,0.03860053225234151,1603125000,,,,0,44.20000076293945,3,3.9000000953674316,42.79999923706055,0.0,0.0,0.0,0.0,C,646126019749290,,,,,,,,,,0.000000021420419216156006,0.000000007450580596923828,-0.00000011920928955078125,0.0,122880.0,0.0,-262144.0,196608.0
Raw,1773869205000,10656645916,18,0.0,-1457904412343354112,0.0,10.096834182739258,62229.33984375,0.0,0,32,0.0,815,336408925917449,10,44.099998474121094,196.9783477783203,0.06541035324335098,17,-979.0864162358048,0.04625166077837348,1561098000,,,,0,34.099998474121094,5,3.9000000953674316,39.099998474121094,0.0,0.0,0.0,0.0,C,646126019749290,,16704944.453526877,-5118799.709121584,21767638.558241323,-727.8093897591472,2373.0606557983992,1119.9879016757798,-280668.72075643303,0.0013119542854838073,0.000000021420419216156006,0.000000007450580596923828,-0.00000011920928955078125,0.0,122880.0,0.0,-262144.0,196608.0
Raw,1773869205000,10656645916,18,0.0,-1457904412343354112,0.0,10.096834182739258,62229.33984375,0.0,0,2,0.0,239,1604933981852,10,43.900001525878906,206.64451599121094,0.06608467549085617,17,-1033.7168352777662,0.0467284740395844,1599750000,,,,0,40.599998474121094,3,3.9000000953674316,38.900001525878906,0.0,0.0,0.0,0.0,C,646126019749290,,,,,,,,,,0.000000021420419216156006,0.000000007450580596923828,-0.00000011920928955078125,0.0,122880.0,0.0,-262144.0,196608.0
Raw,1773869205000,10656645916,18,0.0,-1457904412343354112,0.0,10.096834182739258,62229.33984375,0.0,0,17,0.0,239,1604933975633,10,42.599998474121094,405.3497009277344,0.07073336839675903,17,-2018.7009591335955,0.05001556479334831,1604250000,,,,0,36.099998474121094,3,3.9000000953674316,37.599998474121094,0.0,0.0,0.0,0.0,C,646126019749290,,,,,,,,,,0.000000021420419216156006,0.000000007450580596923828,-0.00000011920928955078125,0.0,122880.0,0.0,-262144.0,196608.0
Raw,1773869205000,10656645916,18,0.0,-1457904412343354112,0.0,10.096834182739258,62229.33984375,0.0,0,12,0.0,239,1604920423092,12,38.0,-410.7351379394531,0.09182736277580261,17,2063.038744923979,0.06493112821877002,1601437400,,,,0,31.5,3,3.9000000953674316,33.0,0.0,0.0,0.0,0.0,C,646126019749290,,,,,,,,,,0.000000021420419216156006,0.000000007450580596923828,-0.00000011920928955078125,0.0,122880.0,0.0,-262144.0,196608.0
Raw,1773869205000,10656645916,18,0.0,-1457904412343354112,0.0,10.096834182739258,62229.33984375,0.0,0,23,0.0,291,15711736,12,37.29999923706055,-206.31497192382812,0.0958506315946579,22,207.38809920477797,0.0677759816005826,1561098000,,,,0,33.0,5,3.9000000953674316,32.29999923706055,0.0,0.0,0.0,0.0,C,646126019749290,,,,,,,,,,0.000000021420419216156006,0.000000007450580596923828,-0.00000011920928955078125,0.0,122880.0,0.0,-262144.0,196608.0
Raw,1773869205000,10656645916,18,0.0,-1457904412343354112,0.0,10.096834182739258,62229.33984375,0.0,0,10,0.0,239,1604922198902,20,28.799999237060547,631.8698120117188,0.17654122412204742,20,-3138.466513215244,0.12483229957669972,1598062500,,,,0,22.200000762939453,3,3.9000000953674316,23.799999237060547,0.0,0.0,0.0,0.0,C,646126019749290,,,,,,,,,,0.000000021420419216156006,0.000000007450580596923828,-0.00000011920928955078125,0.0,122880.0,0.0,-262144.0,196608.0
Raw,1773869205000,10656645916,18,0.0,-1457904412343354112,0.0,10.096834182739258,62229.33984375,0.0,0,30,0.0,815,336408922562346,22,28.0,575.8073120117188,0.18903592228889465,20,-2874.050142447144,0.1336673006504774,1561098000,,,,0,24.100000381469727,5,3.9000000953674316,23.0,0.0,0.0,0.0,0.0,C,646126019749290,,20346902.080912154,-14612676.628562469,12306889.216769498,1398.3235420018336,-225.51183834951433,-2574.076476690248,122697.12165843332,0.0024049202911555767,0.000000021420419216156006,0.000000007450580596923828,-0.00000011920928955078125,0.0,122880.0,0.0,-262144.0,196608.0
Raw,1773869205000,10656645916,18,0.0,-1457904412343354112,0.0,10.096834182739258,62229.33984375,0.0,0,11,0.0,239,1604925920796,25,26.200000762939453,-14.603642463684082,0.2224990874528885,20,41.68092538538622,0.15732910473793743,1602000000,,,,0,25.200000762939453,3,3.9000000953674316,21.200000762939453,0.0,0.0,0.0,0.0,C,646126019749290,,,,,,,,,,0.000000021420419216156006,0.000000007450580596923828,-0.00000011920928955078125,0.0,122880.0,0.0,-262144.0,196608.0
Raw,1773869205000,10656645916,18,0.0,-1457904412343354112,0.0,10.096834182739258,62229.33984375,0.0,0,3,0.0,239,1604922424369,24,26.799999237060547,-234.0357666015625,0.21042001247406006,20,1226.4280221363006,0.14878799082040786,1604812500,,,,0,20.600000381469727,3,3.9000000953674316,21.799999237060547,0.0,0.0,0.0,0.0,C,646126019749290,,,,,,,,,,0.000000021420419216156006,0.000000007450580596923828,-0.00000011920928955078125,0.0,122880.0,0.0,-262144.0,196608.0
Raw,1773869205000,10656645916,18,0.0,-1457904412343354112,0.0,10.096834182739258,62229.33984375,0.0,0,18,0.0,239,1604926942707,25,25.899999618530273,-247.337890625,0.2289324849843979,20,1061.2924908449058,0.16187816013246772,1600312400,,,,0,21.299999237060547,3,3.9000000953674316,20.899999618530273,0.0,0.0,0.0,0.0,C,646126019749290,,,,,,,,,,0.000000021420419216156006,0.000000007450580596923828,-0.00000011920928955078125,0.0,122880.0,0.0,-262144.0,196608.0
Raw,1773869206000,11656647077,18,0.0,-1457904412343352832,0.0,10.096834182739258,62229.140625,0.0,0,9,0.0,47,336423933482346,10,47.5,305.15496826171875,0.05536332353949547,17,-1823.2693164708326,0.03914740607477724,1575420000,,,,0,42.900001525878906,1,3.9000000953674316,42.5,0.0,0.0,0.0,0.0,C,646127019606097,,18128883.38340944,500661.1165202204,19337005.88577023,-1626.3271806687003,1865.8056047368004,1461.6414413976383,229577.47059748537,-0.0008030803292058408,0.000000021420419216156006,0.000000007450580596923828,-0.00000011920928955078125,0.0,122880.0,0.0,-262144.0,196608.0
Raw,1773869206000,11656647077,18,0.0,-1457904412343352832,0.0,10.096834182739258,62229.140625,0.0,0,6,0.0,47,336423930040463,10,42.099998474121094,280.70880126953125,0.07265277206897736,17,-1676.1440701509127,0.05137277512997389,1575420000,,,,0,37.400001525878906,1,3.9000000953674316,37.099998474121094,0.0,0.0,0.0,0.0,C,646127019606097,,18569957.177700207,-6716753.548442166,17902944.740079943,2120.043168261963,755.854007675086,-1907.1396469870012,-183681.06666028177,0.0003895141708198935,0.000000021420419216156006,0.000000007450580596923828,-0.00000011920928955078125,0.0,122880.0,0.0,-262144.0,196608.0
Raw,1773869206000,11656647077,18,0.0,-1457904412343352832,0.0,10.096834182739258,62229.140625,0.0,0,7,0.0,47,336423923418646,10,42.20000076293945,-216.87411499023438,0.07226268202066422,17,1308.1278759961715,0.051096942456811664,1575420000,,,,0,33.900001525878906,1,3.9000000953674316,37.20000076293945,0.0,0.0,0.0,0.0,C,646127019606097,,25947849.3476234,6420677.068016921,-983852.5757478391,115.365140467335,322.26042524216905,3125.506202515161,-48682.22958559975,-0.0006918579601915553,0.000000021420419216156006,0.000000007450580596923828,-0.00000011920928955078125,0.0,122880.0,0.0,-262144.0,196608.0
Raw,1773869206000,11656647077,18,0.0,-1457904412343352832,0.0,10.096834182739258,62229.140625,0.0,0,4,0.0,47,336423929967293,12,37.20000076293945,684.158935546875,0.09644688665866852,17,-4097.793449560762,0.0681975935563445,1575420000,,,,0,24.899999618530273,1,3.9000000953674316,32.20000076293945,0.0,0.0,0.0,0.0,C,646127019606097,,10782310.954014892,10485692.175640091,21927232.015636608,-2047.5821363027706,1870.0306124886115,95.87856475136631,14822.886390124171,0.0006551742571900832,0.000000021420419216156006,0.000000007450580596923828,-0.00000011920928955078125,0.0,122880.0,0.0,-262144.0,196608.0
Raw,1773869206000,11656647077,18,0.0,-1457904412343352832,0.0,10.096834182739258,62229.140625,0.0,0,3,0.0,47,336423924461726,13,36.400001525878906,870.1053466796875,0.10142399370670319,17,-5213.738372328342,0.07171690595000982,1575420000,,,,0,26.899999618530273,1,3.9000000953674316,31.399999618530273,0.0,0.0,0.0,0.0,C,646127019606097,,12028939.11982735,21365941.112758584,10157698.662431255,161.61731884555178,1309.9036814941119,-2880.5007663506103,160439.17831922325,-0.003993998368969187,0.000000021420419216156006,0.000000007450580596923828,-0.00000011920928955078125,0.0,122880.0,0.0,-262144.0,196608.0
Raw,1773869206000,11656647077,18,0.0,-1457904412343352832,0.0,10.096834182739258,62229.140625,0.0,0,19,0.0,47,336423921364337,20,29.200000762939453,899.6162719726562,0.1707533597946167,20,-5388.9514767514775,0.12073970071077346,1575420000,,,,0,24.0,1,3.9000000953674316,24.200000762939453,0.0,0.0,0.0,0.0,C,646127019606097,,20291957.00867171,-16676927.064077783,404713.1474931091,259.0330961260109,224.89975291973124,-3203.132494276584,208105.60050675576,-0.0007053852314129472,0.000000021420419216156006,0.000000007450580596923828,-0.00000011920928955078125,0.0,122880.0,0.0,-262144.0,196608.0
Raw,1773869206000,11656647077,18,0.0,-1457904412343352832,0.0,10.096834182739258,62229.140625,0.0,0,11,0.0,47,336423922720667,24,26.799999237060547,-207.08619689941406,0.21042001247406006,20,1247.6074137663236,0.14878799082040786,1575420000,,,,0,20.600000381469727,1,3.9000000953674316,21.799999237060547,0.0,0.0,0.0,0.0,C,646127019606097,,4310116.555903429,-14551760.271449188,21849659.65425228,2626.4051480629605,850.8430826088525,41.67532338104552,-120783.32976210582,0.00401717983186245,0.000000021420419216156006,0.000000007450580596923828,-0.00000011920928955078125,0.0,122880.0,0.0,-262144.0,196608.0
Raw,1773869206000,11656647077,18,0.0,-1457904412343352832,0.0,10.096834182739258,62229.140625,0.0,0,24,0.0,239,1605927696009,10,47.79999923706055,1096.520263671875,0.05458991974592209,17,-6570.143941512913,0.03860053225234151,1603125000,,,,0,43.099998474121094,3,3.9000000953674316,42.79999923706055,0.0,0.0,0.0,0.0,C,646127019606097,,,,,,,,,,0.000000021420419216156006,0.000000007450580596923828,-0.00000011920928955078125,0.0,122880.0,0.0,-262144.0,196608.0
Raw,1773869206000,11656647077,18,0.0,-1457904412343352832,0.0,10.096834182739258,62229.140625,0.0,0,2,0.0,239,1605933982327,10,43.79999923706055,206.66612243652344,0.06642576307058334,17,-1238.1666363613913,0.04696965706720948,1599750000,,,,0,42.5,3,3.9000000953674316,38.79999923706055,0.0,0.0,0.0,0.0,C,646127019606097,,,,,,,,,,0.000000021420419216156006,0.000000007450580596923828,-0.00000011920928955078125,0.0,122880.0,0.0,-262144.0,196608.0
Raw,1773869206000,11656647077,18,0.0,-1457904412343352832,0.0,10.096834182739258,62229.140625,0.0,0,32,0.0,815,336409925917951,10,43.900001525878906,197.0150146484375,0.06608467549085617,17,-1174.9648716995725,0.0467284740395844,1561098000,,,,0,32.29999923706055,5,3.9000000953674316,38.900001525878906,0.0,0.0,0.0,0.0,C,646127019606097,,16704216.708165918,-5116426.5609125225,21768758.34720221,-727.6805957073698,2373.23337148608,1119.5888924395413,-280668.71944447345,0.0013119635987095535,0.000000021420419216156006,0.000000007450580596923828,-0.00000011920928955078125,0.0,122880.0,0.0,-262144.0,196608.0
Raw,1773869206000,11656647077,18,0.0,-1457904412343352832,0.0,10.096834182739258,62229.140625,0.0,0,17,0.0,239,1605933975441,10,42.599998474121094,405.39410400390625,0.07073336839675903,17,-2423.6099705236265,0.05001556479334831,1604250000,,,,0,37.900001525878906,3,3.9000000953674316,37.599998474121094,0.0,0.0,0.0,0.0,C,646127019606097,,,,,,,,,,0.000000021420419216156006,0.000000007450580596923828,-0.00000011920928955078125,0.0,122880.0,0.0,-262144.0,196608.0
Raw,1773869206000,11656647077,18,0.0,-1457904412343352832,0.0,10.096834182739258,62229.140625,0.0,0,23,0.0,291,15713579,12,37.79999923706055,-206.38870239257812,0.09295062720775604,22,414.8678715043352,0.06572538849860429,1561098000,,,,0,34.29999923706055,5,3.9000000953674316,32.79999923706055,0.0,0.0,0.0,0.0,C,646127019606097,,,,,,,,,,0.000000021420419216156006,0.000000007450580596923828,-0.00000011920928955078125,0.0,122880.0,0.0,-262144.0,196608.0
Raw,1773869206000,11656647077,18,0.0,-1457904412343352832,0.0,10.096834182739258,62229.140625,0.0,0,12,0.0,239,1605920425651,12,37.900001525878906,-410.71722412109375,0.09238641709089279,17,2483.1480763120344,0.06532643552497029,1601437400,,,,0,32.099998474121094,3,3.9000000953674316,32.900001525878906,0.0,0.0,0.0,0.0,C,646127019606097,,,,,,,,,,0.000000021420419216156006,0.000000007450580596923828,-0.00000011920928955078125,0.0,122880.0,0.0,-262144.0,196608.0
Raw,1773869206000,11656647077,18,0.0,-1457904412343352832,0.0,10.096834182739258,62229.140625,0.0,0,10,0.0,239,1605922197950,20,28.799999237060547,631.8245849609375,0.17654122412204742,20,-3770.7341637226054,0.12483229957669972,1598062500,,,,0,22.5,3,3.9000000953674316,23.799999237060547,0.0,0.0,0.0,0.0,C,646127019606097,,,,,,,,,,0.000000021420419216156006,0.000000007450580596923828,-0.00000011920928955078125,0.0,122880.0,0.0,-262144.0,196608.0
Raw,1773869206000,11656647077,18,0.0,-1457904412343352832,0.0,10.096834182739258,62229.140625,0.0,0,30,0.0,815,336409922561586,21,28.100000381469727,576.4287109375,0.18740276992321014,20,-3449.1495049545774,0.1325124986127019,1561098000,,,,0,22.100000381469727,5,3.9000000953674316,23.100000381469727,0.0,0.0,0.0,0.0,C,646127019606097,,20348300.254526015,-14612902.14708824,12304315.029423075,1398.025807735783,-225.52554808340886,-2574.3021210904526,122697.12406335585,0.002404928469331935,0.000000021420419216156006,0.000000007450580596923828,-0.00000011920928955078125,0.0,122880.0,0.0,-262144.0,196608.0
Raw,1773869206000,11656647077,18,0.0,-1457904412343352832,0.0,10.096834182739258,62229.140625,0.0,0,11,0.0,239,1605925922088,23,27.100000381469727,-14.972210884094238,0.20474600791931152,20,82.0472803277371,0.14477590219974518,1602000000,,,,0,25.5,3,3.9000000953674316,22.100000381469727,0.0,0.0,0.0,0.0,C,646127019606097,,,,,,,,,,0.000000021420419216156006,0.000000007450580596923828,-0.00000011920928955078125,0.0,122880.0,0.0,-262144.0,196608.0
Raw,1773869206000,11656647077,18,0.0,-1457904412343352832,0.0,10.096834182739258,62229.140625,0.0,0,3,0.0,239,1605922426173,24,26.700000762939453,-235.38504028320312,0.21236379444599152,20,1420.3227358249715,0.15016243905276058,1604812500,,,,0,22.399999618530273,3,3.9000000953674316,21.700000762939453,0.0,0.0,0.0,0.0,C,646127019606097,,,,,,,,,,0.000000021420419216156006,0.000000007450580596923828,-0.00000011920928955078125,0.0,122880.0,0.0,-262144.0,196608.0
Raw,1773869206000,11656647077,18,0.0,-1457904412343352832,0.0,10.096834182739258,62229.140625,0.0,0,18,0.0,239,1605926944553,26,25.5,-247.40631103515625,0.23795360326766968,20,1267.6352309001086,0.16825699287056922,1600312400,,,,0,25.899999618530273,3,3.9000000953674316,20.5,0.0,0.0,0.0,0.0,C,646127019606097,,,,,,,,,,0.000000021420419216156006,0.000000007450580596923828,-0.00000011920928955078125,0.0,122880.0,0.0,-262144.0,196608.0
Raw,1773869207000,12656648176,18,0.0,-1457904412343351808,0.0,10.096834182739258,62228.984375,0.0,0,9,0.0,47,336424933482433,10,47.5,305.0697326660156,0.05536332353949547,17,-2127.246126672253,0.03914740607477724,1575420000,,,,0,40.70000076293945,1,3.9000000953674316,42.5,0.0,0.0,0.0,0.0,C,646128021818173,,18127257.04647273,502527.03685504757,19338467.32049047,-1626.34639991549,1866.0347356700236,1461.2277394815678,229577.4697943847,-0.0008031208126340061,0.000000021420419216156006,0.000000007450580596923828,-0.00000011920928955078125,0.0,122880.0,0.0,-262144.0,196608.0
Raw,1773869207000,12656648176,18,0.0,-1457904412343351808,0.0,10.096834182739258,62228.984375,0.0,0,6,0.0,47,336424930040629,10,42.099998474121094,280.6342468261719,0.07265277206897736,17,-1955.6810547243804,0.05137277512997389,1575420000,,,,0,37.900001525878906,1,3.9000000953674316,37.099998474121094,0.0,0.0,0.0,0.0,C,646128021818173,,18572077.130290974,-6715997.796079151,17901037.411695544,2119.861298936284,755.6504698037729,-1907.5164818429669,-183681.0662707572,0.00038953483453951776,0.000000021420419216156006,0.000000007450580596923828,-0.00000011920928955078125,0.0,122880.0,0.0,-262144.0,196608.0
Raw,1773869207000,12656648176,18,0.0,-1457904412343351808,0.0,10.096834182739258,62228.984375,0.0,0,7,0.0,47,336424923420473,10,42.099998474121094,-217.0154571533203,0.07265277206897736,17,1526.2097203526646,0.05137277512997389,1575420000,,,,0,38.29999923706055,1,3.9000000953674316,37.099998474121094,0.0,0.0,0.0,0.0,C,646128021818173,,25947964.535222728,6420999.27083003,-980727.0535972959,115.00963493718831,322.1440315911779,3125.526667034818,-48682.23027732087,-0.0006915817284607328,0.000000021420419216156006,0.000000007450580596923828,-0.00000011920928955078125,0.0,122880.0,0.0,-262144.0,196608.0
Raw,1773869207000,12656648176,18,0.0,-1457904412343351808,0.0,10.096834182739258,62228.984375,0.0,0,3,0.0,47,336424924459911,13,36.29999923706055,870.0037231445312,0.10207311064004898,17,-6082.660609962419,0.07217589653357863,1575420000,,,,0,29.399999618530273,1,3.9000000953674316,31.299999237060547,0.0,0.0,0.0,0.0,C,646128021818173,,12029100.736103596,21367250.83129411,10154818.058588697,161.6158110187895,1309.5381406262154,-2880.7173649605115,160439.1743252798,-0.00399390299571678,0.000000021420419216156006,0.000000007450580596923828,-0.00000011920928955078125,0.0,122880.0,0.0,-262144.0,196608.0
Raw,1773869207000,12656648176,18,0.0,-1457904412343351808,0.0,10.096834182739258,62228.984375,0.0,0,4,0.0,47,336424929966158,13,36.900001525878906,684.2671508789062,0.09826947748661041,22,-4780.910689609125,0.06948634753078221,1575420000,,,,0,27.399999618530273,1,3.9000000953674316,31.899999618530273,0.0,0.0,0.0,0.0,C,646128021818173,,10780263.424961792,10487562.270175183,21927327.66163835,-2047.4806092546685,1870.1626953648317,95.41365539337723,14822.887045271742,0.0006551223686983576,0.000000021420419216156006,0.000000007450580596923828,-0.00000011920928955078125,0.0,122880.0,0.0,-262144.0,196608.0
Raw,1773869207000,12656648176,18,0.0,-1457904412343351808,0.0,10.096834182739258,62228.984375,0.0,0,19,0.0,47,336424921362435,20,29.200000762939453,899.4562377929688,0.1707533597946167,20,-6287.2936313916,0.12073970071077346,1575420000,,,,0,24.100000381469727,1,3.9000000953674316,24.200000762939453,0.0,0.0,0.0,0.0,C,646128021818173,,20292215.888502743,-16676702.044595249,401510.016651701,258.72755599297574,225.14007495805598,-3203.1413615084343,208105.5998013873,-0.000705354439560324,0.000000021420419216156006,0.000000007450580596923828,-0.00000011920928955078125,0.0,122880.0,0.0,-262144.0,196608.0
Raw,1773869207000,12656648176,18,0.0,-1457904412343351808,0.0,10.096834182739258,62228.984375,0.0,0,11,0.0,47,336424922722525,24,26.600000381469727,-207.12060546875,0.21433469653129578,20,1455.797484530136,0.15155606391727924,1575420000,,,,0,23.200000762939453,1,3.9000000953674316,21.600000381469727,0.0,0.0,0.0,0.0,C,646128021818173,,4312742.993810481,-14550909.502999982,21849701.098375488,2626.460895616403,850.6906508017946,41.21276883330504,-120783.32574492919,0.00401715851330664,0.000000021420419216156006,0.000000007450580596923828,-0.00000011920928955078125,0.0,122880.0,0.0,-262144.0,196608.0
Raw,1773869207000,12656648176,18,0.0,-1457904412343351808,0.0,10.096834182739258,62228.984375,0.0,0,24,0.0,239,1606927693464,10,47.79999923706055,1096.3592529296875,0.05458991974592209,17,-7661.4306803215295,0.03860053225234151,1603125000,,,,0,40.0,3,3.9000000953674316,42.79999923706055,0.0,0.0,0.0,0.0,C,646128021818173,,,,,,,,,,0.000000021420419216156006,0.000000007450580596923828,-0.00000011920928955078125,0.0,122880.0,0.0,-262144.0,196608.0
Raw,1773869207000,12656648176,18,0.0,-1457904412343351808,0.0,10.096834182739258,62228.984375,0.0,0,2,0.0,239,1606933982730,10,43.70000076293945,206.58653259277344,0.06676948815584183,17,-1446.0605943296105,0.04721270507499575,1599750000,,,,0,44.29999923706055,3,3.9000000953674316,38.70000076293945,0.0,0.0,0.0,0.0,C,646128021818173,,,,,,,,,,0.000000021420419216156006,0.000000007450580596923828,-0.00000011920928955078125,0.0,122880.0,0.0,-262144.0,196608.0
Raw,1773869207000,12656648176,18,0.0,-1457904412343351808,0.0,10.096834182739258,62228.984375,0.0,0,17,0.0,239,1606933975181,10,42.599998474121094,405.4238586425781,0.07073336839675903,17,-2829.960506303236,0.05001556479334831,1604250000,,,,0,39.400001525878906,3,3.9000000953674316,37.599998474121094,0.0,0.0,0.0,0.0,C,646128021818173,,,,,,,,,,0.000000021420419216156006,0.000000007450580596923828,-0.00000011920928955078125,0.0,122880.0,0.0,-262144.0,196608.0
Raw,1773869207000,12656648176,18,0.0,-1457904412343351808,0.0,10.096834182739258,62228.984375,0.0,0,32,0.0,815,336410925918383,10,43.70000076293945,196.8299102783203,0.06676948815584183,17,-1370.7373805139214,0.04721270507499575,1561098000,,,,0,34.70000076293945,5,3.9000000953674316,38.70000076293945,0.0,0.0,0.0,0.0,C,646128021818173,,16703489.091667373,-5114053.240178657,21769877.73706512,-727.5517669160924,2373.406037472231,1119.1898628339006,-280668.71813250467,0.0013119729119352996,0.000000021420419216156006,0.000000007450580596923828,-0.00000011920928955078125,0.0,122880.0,0.0,-262144.0,196608.0
Raw,1773869207000,12656648176,18,0.0,-1457904412343351808,0.0,10.096834182739258,62228.984375,0.0,0,23,0.0,291,15715331,12,38.5,-206.39511108398438,0.08910670876502991,22,622.4295558228041,0.06300735376775264,1561098000,,,,0,35.0,5,3.9000000953674316,33.5,0.0,0.0,0.0,0.0,C,646128021818173,,,,,,,,,,0.000000021420419216156006,0.000000007450580596923828,-0.00000011920928955078125,0.0,122880.0,0.0,-262144.0,196608.0
Raw,1773869207000,12656648176,18,0.0,-1457904412343351808,0.0,10.096834182739258,62228.984375,0.0,0,12,0.0,239,1606920428126,12,37.79999923706055,-410.84979248046875,0.09295062720775604,17,2896.665364375338,0.06572538849860429,1601437400,,,,0,31.5,3,3.9000000953674316,32.79999923706055,0.0,0.0,0.0,0.0,C,646128021818173,,,,,,,,,,0.000000021420419216156006,0.000000007450580596923828,-0.00000011920928955078125,0.0,122880.0,0.0,-262144.0,196608.0
Raw,1773869207000,12656648176,18,0.0,-1457904412343351808,0.0,10.096834182739258,62228.984375,0.0,0,30,0.0,815,336410922560725,21,28.200000762939453,575.6134033203125,0.18579070270061493,20,-4023.8515641447157,0.1313726058796048,1561098000,,,,0,27.700000762939453,5,3.9000000953674316,23.200000762939453,0.0,0.0,0.0,0.0,C,646128021818173,,20349698.130254686,-14613127.679277683,12301740.616716076,1397.728053392641,-225.5392115173158,-2574.527718212373,122697.12646828633,0.002404936618404463,0.000000021420419216156006,0.000000007450580596923828,-0.00000011920928955078125,0.0,122880.0,0.0,-262144.0,196608.0
Raw,1773869207000,12656648176,18,0.0,-1457904412343351808,0.0,10.096834182739258,62228.984375,0.0,0,10,0.0,239,1606922196953,20,28.799999237060547,632.2975463867188,0.17654122412204742,20,-4398.147778296843,0.12483229957669972,1598062500,,,,0,19.399999618530273,3,3.9000000953674316,23.799999237060547,0.0,0.0,0.0,0.0,C,646128021818173,,,,,,,,,,0.000000021420419216156006,0.000000007450580596923828,-0.00000011920928955078125,0.0,122880.0,0.0,-262144.0,196608.0
Raw,1773869207000,12656648176,18,0.0,-1457904412343351808,0.0,10.096834182739258,62228.984375,0.0,0,11,0.0,239,1606925923237,23,27.399999618530273,-14.451425552368164,0.19929847121238708,20,98.07802478779922,0.1409239489942789,1602000000,,,,0,23.700000762939453,3,3.9000000953674316,22.399999618530273,0.0,0.0,0.0,0.0,C,646128021818173,,,,,,,,,,0.000000021420419216156006,0.000000007450580596923828,-0.00000011920928955078125,0.0,122880.0,0.0,-262144.0,196608.0
Raw,1773869207000,12656648176,18,0.0,-1457904412343351808,0.0,10.096834182739258,62228.984375,0.0,0,3,0.0,239,1606922428173,24,26.600000381469727,-234.34288024902344,0.21433469653129578,20,1691.471413379535,0.15155606391727924,1604812500,,,,0,21.5,3,3.9000000953674316,21.600000381469727,0.0,0.0,0.0,0.0,C,646128021818173,,,,,,,,,,0.000000021420419216156006,0.000000007450580596923828,-0.00000011920928955078125,0.0,122880.0,0.0,-262144.0,196608.0
