# 
# Header Description:
# 
# Version: v3.1.1.2 Platform: 13 Manufacturer: samsung Model: SM-A515F GNSS Hardware Model Name: S.LSI,K102
# 
# Raw,utcTimeMillis,TimeNanos,LeapSecond,TimeUncertaintyNanos,FullBiasNanos,BiasNanos,BiasUncertaintyNanos,DriftNanosPerSecond,DriftUncertaintyNanosPerSecond,HardwareClockDiscontinuityCount,Svid,TimeOffsetNanos,State,ReceivedSvTimeNanos,ReceivedSvTimeUncertaintyNanos,Cn0DbHz,PseudorangeRateMetersPerSecond,PseudorangeRateUncertaintyMetersPerSecond,AccumulatedDeltaRangeState,AccumulatedDeltaRangeMeters,AccumulatedDeltaRangeUncertaintyMeters,CarrierFrequencyHz,CarrierCycles,CarrierPhase,CarrierPhaseUncertainty,MultipathIndicator,SnrInDb,ConstellationType,AgcDb,BasebandCn0DbHz,FullInterSignalBiasNanos,FullInterSignalBiasUncertaintyNanos,SatelliteInterSignalBiasNanos,SatelliteInterSignalBiasUncertaintyNanos,CodeType,ChipsetElapsedRealtimeNanos,IsFullTracking,SvPositionEcefXMeters,SvPositionEcefYMeters,SvPositionEcefZMeters,SvVelocityEcefXMetersPerSecond,SvVelocityEcefYMetersPerSecond,SvVelocityEcefZMetersPerSecond,SvClockBiasMeters,SvClockDriftMetersPerSecond,KlobucharAlpha0,KlobucharAlpha1,KlobucharAlpha2,KlobucharAlpha3,KlobucharBeta0,KlobucharBeta1,KlobucharBeta2,KlobucharBeta3
# 
# UncalAccel,utcTimeMillis,elapsedRealtimeNanos,UncalAccelXMps2,UncalAccelYMps2,UncalAccelZMps2,BiasXMps2,BiasYMps2,BiasZMps2,CalibrationAccuracy
# 
# Accel,utcTimeMillis,elapsedRealtimeNanos,AccelXMps2,AccelYMps2,AccelZMps2,CalibrationAccuracy
# 
# UncalGyro,utcTimeMillis,elapsedRealtimeNanos,UncalGyroXRadPerSec,UncalGyroYRadPerSec,UncalGyroZRadPerSec,DriftXRadPerSec,DriftYRadPerSec,DriftZRadPerSec,CalibrationAccuracy
# 
# Gyro,utcTimeMillis,elapsedRealtimeNanos,GyroXRadPerSec,GyroYRadPerSec,GyroZRadPerSec,CalibrationAccuracy
# 
# UncalMag,utcTimeMillis,elapsedRealtimeNanos,UncalMagXMicroT,UncalMagYMicroT,UncalMagZMicroT,BiasXMicroT,BiasYMicroT,BiasZMicroT,CalibrationAccuracy
# 
# Mag,utcTimeMillis,elapsedRealtimeNanos,MagXMicroT,MagYMicroT,MagZMicroT,CalibrationAccuracy
# 
# Pressure,utcTimeMillis,elapsedRealtimeNanos,PressureHpa,CalibrationAccuracy
# 
# OrientationDeg,utcTimeMillis,elapsedRealtimeNanos,yawDeg,rollDeg,pitchDeg,CalibrationAccuracy
# 
# Fix,Provider,LatitudeDegrees,LongitudeDegrees,AltitudeMeters,SpeedMps,AccuracyMeters,BearingDegrees,UnixTimeMillis,SpeedAccuracyMps,BearingAccuracyDegrees,elapsedRealtimeNanos,VerticalAccuracyMeters,MockLocation,NumberOfUsedSignals,VerticalSpeedAccuracyMps,SolutionType
# 
# Nav,Svid,Type,Status,MessageId,Sub-messageId,Data(Bytes)
# 
# Status,UnixTimeMillis,SignalCount,SignalIndex,ConstellationType,Svid,CarrierFrequencyHz,Cn0DbHz,AzimuthDegrees,ElevationDegrees,UsedInFix,HasAlmanacData,HasEphemerisData,BasebandCn0DbHz
# 
# Agc,utcTimeMillis,TimeNanos,LeapSecond,TimeUncertaintyNanos,FullBiasNanos,BiasNanos,BiasUncertaintyNanos,DriftNanosPerSecond,DriftUncertaintyNanosPerSecond,HardwareClockDiscontinuityCount,AgcDb,CarrierFrequencyHz,ConstellationType
# 
# GameRotationVector,utcTimeMillis,elapsedRealtimeNanos,x,y,z,w
# 
Raw,1773869679999,11543545482,18,0.0,-1457904886456454400,0.0,10.109046936035156,62243.23828125,0.0,0,6,0.0,47,336897930087563,10,42.70000076293945,344.15179443359375,0.07035861909389496,17,-2058.7031725302513,0.04975057956129312,1575420000,,,,0,33.0,1,3.9000000953674316,37.70000076293945,0.0,0.0,0.0,0.0,C,646601031737985,,19553326.688608624,-6381060.425228355,16957358.003480528,2026.8905307183122,661.2261919093585,-2081.0977660840704,-183680.87983622556,0.0003984887443948537,0.000000021420419216156006,0.000000007450580596923828,-0.00000011920928955078125,0.0,122880.0,0.0,-262144.0,196608.0
Raw,1773869679999,11543545482,18,0.0,-1457904886456454400,0.0,10.109046936035156,62243.23828125,0.0,0,4,0.0,47,336897929398576,10,40.79999923706055,719.13916015625,0.07802503556013107,17,-4309.631124462205,0.05517150264456868,1575420000,,,,0,36.5,1,3.9000000953674316,35.79999923706055,0.0,0.0,0.0,0.0,C,646601031737985,,9824056.118812682,11386109.944448905,21920423.395717904,-1993.8403382262632,1927.4416951595172,-124.62291011087976,14823.19107310786,0.0006303289828792913,0.000000021420419216156006,0.000000007450580596923828,-0.00000011920928955078125,0.0,122880.0,0.0,-262144.0,196608.0
Raw,1773869679999,11543545482,18,0.0,-1457904886456454400,0.0,10.109046936035156,62243.23828125,0.0,0,3,0.0,47,336897923608654,11,39.900001525878906,893.2131958007812,0.08210112154483795,17,-5354.581153831648,0.058053703044354914,1575420000,,,,0,32.79999923706055,1,3.9000000953674316,34.900001525878906,0.0,0.0,0.0,0.0,C,646601031737985,,12104394.765012974,21945455.630728662,8769118.017130526,154.67452433382846,1134.7064351506187,-2976.1403255485066,160437.29590053932,-0.00394867968861945,0.000000021420419216156006,0.000000007450580596923828,-0.00000011920928955078125,0.0,122880.0,0.0,-262144.0,196608.0
Raw,1773869679999,11543545482,18,0.0,-1457904886456454400,0.0,10.109046936035156,62243.23828125,0.0,0,7,0.0,47,336897924279381,12,38.099998474121094,-186.96148681640625,0.09127336740493774,17,1126.6787993430917,0.06453939809203148,1575420000,,,,0,37.0,1,3.9000000953674316,33.099998474121094,0.0,0.0,0.0,0.0,C,646601031737985,,25962369.14092479,6561209.663968127,498785.54042891075,-54.525146506493925,272.53052244163666,3127.902297869383,-48682.526806895024,-0.0005629214210784994,0.000000021420419216156006,0.000000007450580596923828,-0.00000011920928955078125,0.0,122880.0,0.0,-262144.0,196608.0
Raw,1773869679999,11543545482,18,0.0,-1457904886456454400,0.0,10.109046936035156,62243.23828125,0.0,0,9,0.0,47,336897933503707,11,39.29999923706055,351.9968566894531,0.08499860018491745,17,-2106.0782912366267,0.060102510190755125,1575420000,,,,0,29.200000762939453,1,3.9000000953674316,34.29999923706055,0.0,0.0,0.0,0.0,C,646601031737985,,17356882.906113967,1410286.1232414013,19982806.310081005,-1628.8803917627165,1971.1474316141812,1262.1447253416527,229577.0854638964,-0.0008217980794142932,0.000000021420419216156006,0.000000007450580596923828,-0.00000011920928955078125,0.0,122880.0,0.0,-262144.0,196608.0
Raw,1773869679999,11543545482,18,0.0,-1457904886456454400,0.0,10.109046936035156,62243.23828125,0.0,0,11,0.0,47,336897923558706,16,33.0,-167.8654327392578,0.12755101919174194,17,1012.4144332416181,0.09019132567048072,1575420000,,,,0,26.700000762939453,1,3.9000000953674316,28.0,0.0,0.0,0.0,0.0,C,646601031737985,,5560158.524551483,-14165937.991716037,21817450.91516646,2645.598151193556,776.3993412897216,-177.53456064238284,-120781.42807202907,0.004006686765933409,0.000000021420419216156006,0.000000007450580596923828,-0.00000011920928955078125,0.0,122880.0,0.0,-262144.0,196608.0
Raw,1773869679999,11543545482,18,0.0,-1457904886456454400,0.0,10.109046936035156,62243.23828125,0.0,0,19,0.0,47,336897920464209,23,27.200000762939453,923.0505981445312,0.2029055953025818,20,-5528.660135264712,0.14347454643845556,1575420000,,,,0,24.0,1,3.9000000953674316,22.200000762939453,0.0,0.0,0.0,0.0,C,646601031737985,,20380989.076750048,-16542630.29294567,-1113318.3380464646,117.89440320420721,343.1891745742372,-3199.4386889741727,208105.27004147758,-0.0006880763685330749,0.000000021420419216156006,0.000000007450580596923828,-0.00000011920928955078125,0.0,122880.0,0.0,-262144.0,196608.0
Raw,1773869679999,11543545482,18,0.0,-1457904886456454400,0.0,10.109046936035156,62243.23828125,0.0,0,30,0.0,47,336897916623487,25,25.799999237060547,-346.82464599609375,0.23113907873630524,20,2081.4420883811836,0.16343844257444143,1575420000,,,,0,22.899999618530273,1,3.9000000953674316,20.799999237060547,0.0,0.0,0.0,0.0,C,646601031737985,,24363804.422179088,-2305312.6279919744,-10445650.6563654,1250.500635799679,591.4211456522995,2708.0765090568902,47049.67738771196,0.004097383869520854,0.000000021420419216156006,0.000000007450580596923828,-0.00000011920928955078125,0.0,122880.0,0.0,-262144.0,196608.0
Raw,1773869679999,11543545482,18,0.0,-1457904886456454400,0.0,10.109046936035156,62243.23828125,0.0,0,21,0.0,47,336897917652324,26,25.299999237060547,-264.2953186035156,0.24266545474529266,20,1578.0064844421868,0.17158874305039643,1575420000,,,,0,15.600000381469727,1,3.9000000953674316,20.299999237060547,0.0,0.0,0.0,0.0,C,646601031737985,,3757480.4795816625,-22400144.472923163,13747560.697943024,670.99861289585,1625.6249440685879,2470.053786375601,122799.74096586138,0.00084118296217639,0.000000021420419216156006,0.000000007450580596923828,-0.00000011920928955078125,0.0,122880.0,0.0,-262144.0,196608.0
Raw,1773869679999,11543545482,18,0.0,-1457904886456454400,0.0,10.109046936035156,62243.23828125,0.0,0,12,0.0,239,2079921607476,10,43.79999923706055,-398.7436218261719,0.06642576307058334,17,2403.3182866021816,0.04696965706720948,1601437400,,,,0,41.29999923706055,3,3.9000000953674316,38.79999923706055,0.0,0.0,0.0,0.0,C,646601031737985,,,,,,,,,,0.000000021420419216156006,0.000000007450580596923828,-0.00000011920928955078125,0.0,122880.0,0.0,-262144.0,196608.0
Raw,1773869679999,11543545482,18,0.0,-1457904886456454400,0.0,10.109046936035156,62243.23828125,0.0,0,23,0.0,815,336883916565308,10,41.900001525878906,-186.10678100585938,0.07344246655702591,17,1121.183233209682,0.051931168102473016,1561098000,,,,0,37.79999923706055,5,3.9000000953674316,36.900001525878906,0.0,0.0,0.0,0.0,C,646601031737985,,19566683.040101856,19892299.44657848,152150.68335124408,-140.38482910944836,114.81019500821388,3062.6861435029705,-143154.79964842126,0.0013604342530015856,0.000000021420419216156006,0.000000007450580596923828,-0.00000011920928955078125,0.0,122880.0,0.0,-262144.0,196608.0
Raw,1773869679999,11543545482,18,0.0,-1457904886456454400,0.0,10.109046936035156,62243.23828125,0.0,0,32,0.0,815,336883926125548,11,39.5,224.6785430908203,0.08401596546173096,17,-1343.170983511227,0.059407689177989956,1561098000,,,,0,35.099998474121094,5,3.9000000953674316,34.5,0.0,0.0,0.0,0.0,C,646601031737985,,16374364.051921895,-3973010.5872374238,22254272.07670897,-662.8821284104445,2449.3816629826315,928.2929455154894,-280668.0965335588,0.0013163352850824594,0.000000021420419216156006,0.000000007450580596923828,-0.00000011920928955078125,0.0,122880.0,0.0,-262144.0,196608.0
Raw,1773869679999,11543545482,18,0.0,-1457904886456454400,0.0,10.109046936035156,62243.23828125,0.0,0,17,0.0,239,2079933806179,11,39.70000076293945,492.82977294921875,0.08305026590824127,17,-2958.013751304912,0.0587248430237174,1604250000,,,,0,34.29999923706055,3,3.9000000953674316,34.70000076293945,0.0,0.0,0.0,0.0,C,646601031737985,,,,,,,,,,0.000000021420419216156006,0.000000007450580596923828,-0.00000011920928955078125,0.0,122880.0,0.0,-262144.0,196608.0
Raw,1773869679999,11543545482,18,0.0,-1457904886456454400,0.0,10.109046936035156,62243.23828125,0.0,0,1,0.0,239,2079930950523,11,39.099998474121094,777.6783447265625,0.08599857985973358,17,-4666.7073453806515,0.06080959581881761,1602562600,,,,0,30.200000762939453,3,3.9000000953674316,34.099998474121094,0.0,0.0,0.0,0.0,C,646601031737985,,,,,,,,,,0.000000021420419216156006,0.000000007450580596923828,-0.00000011920928955078125,0.0,122880.0,0.0,-262144.0,196608.0
Raw,1773869679999,11543545482,18,0.0,-1457904886456454400,0.0,10.109046936035156,62243.23828125,0.0,0,24,0.0,239,2079926473944,10,41.599998474121094,1132.60400390625,0.07465138286352158,17,-6778.604014753568,0.052785992822796106,1603125000,,,,0,32.099998474121094,3,3.9000000953674316,36.599998474121094,0.0,0.0,0.0,0.0,C,646601031737985,,,,,,,,,,0.000000021420419216156006,0.000000007450580596923828,-0.00000011920928955078125,0.0,122880.0,0.0,-262144.0,196608.0
Raw,1773869679999,11543545482,18,0.0,-1457904886456454400,0.0,10.109046936035156,62243.23828125,0.0,0,5,0.0,815,336883867489277,12,37.29999923706055,353.1601257324219,0.0958506315946579,16,0.0,0.0677759816005826,1561098000,,,,0,0.0,5,3.9000000953674316,32.29999923706055,0.0,0.0,0.0,0.0,C,646601031737985,,21940548.136332408,35995606.041711554,1934194.933790928,4.270664479179686,-0.3307746253631194,-110.4059198325471,-178910.38173624716,0.005719523847801611,0.000000021420419216156006,0.000000007450580596923828,-0.00000011920928955078125,0.0,122880.0,0.0,-262144.0,196608.0
Raw,1773869679999,11543545482,18,0.0,-1457904886456454400,0.0,10.109046936035156,62243.23828125,0.0,0,30,0.0,815,336883922152038,15,33.599998474121094,625.7977905273438,0.1222553625702858,17,-3749.4487684957858,0.08644676687344909,1561098000,,,,0,31.5,5,3.9000000953674316,28.600000381469727,0.0,0.0,0.0,0.0,C,646601031737985,,20977181.5643345,-14720510.805476828,11059598.35228047,1254.8264298515614,-226.76125571931632,-2675.866580541556,122698.26491202907,0.0024087728234007955,0.000000021420419216156006,0.000000007450580596923828,-0.00000011920928955078125,0.0,122880.0,0.0,-262144.0,196608.0
Raw,1773869679999,11543545482,18,0.0,-1457904886456454400,0.0,10.109046936035156,62243.23828125,0.0,0,3,0.0,239,2079923322405,18,31.0,-214.59425354003906,0.14792899787425995,20,1287.9811855934386,0.10460059439688921,1604812500,,,,0,29.200000762939453,3,3.9000000953674316,26.0,0.0,0.0,0.0,0.0,C,646601031737985,,,,,,,,,,0.000000021420419216156006,0.000000007450580596923828,-0.00000011920928955078125,0.0,122880.0,0.0,-262144.0,196608.0
Raw,1773869679999,11543545482,18,0.0,-1457904886456454400,0.0,10.109046936035156,62243.23828125,0.0,0,18,0.0,239,2079927829855,19,30.0,-187.0196075439453,0.1599999964237213,20,1132.7350875481789,0.11313599747121333,1600312400,,,,0,24.5,3,3.9000000953674316,25.0,0.0,0.0,0.0,0.0,C,646601031737985,,,,,,,,,,0.000000021420419216156006,0.000000007450580596923828,-0.00000011920928955078125,0.0,122880.0,0.0,-262144.0,196608.0
Raw,1773869679999,11543545482,18,0.0,-1457904886456454400,0.0,10.109046936035156,62243.23828125,0.0,0,2,0.0,239,2079934164201,19,30.0,247.72348022460938,0.1599999964237213,20,-1527.612926575559,0.11313599747121333,1599750000,,,,0,25.100000381469727,3,3.9000000953674316,25.0,0.0,0.0,0.0,0.0,C,646601031737985,,,,,,,,,,0.000000021420419216156006,0.000000007450580596923828,-0.00000011920928955078125,0.0,122880.0,0.0,-262144.0,196608.0
Raw,1773869679999,11543545482,18,0.0,-1457904886456454400,0.0,10.109046936035156,62243.23828125,0.0,0,11,0.0,239,2079926430368,23,27.0,57.24246597290039,0.20661157369613647,20,-161.45453660117346,0.14609504376053808,1602000000,,,,0,22.399999618530273,3,3.9000000953674316,22.0,0.0,0.0,0.0,0.0,C,646601031737985,,,,,,,,,,0.000000021420419216156006,0.000000007450580596923828,-0.00000011920928955078125,0.0,122880.0,0.0,-262144.0,196608.0
Raw,1773869679999,11543545482,18,0.0,-1457904886456454400,0.0,10.109046936035156,62243.23828125,0.0,0,25,0.0,291,19840217,24,26.799999237060547,211.04849243164062,0.21042001247406006,20,-1262.119232039171,0.14878799082040786,1561098000,,,,0,22.399999618530273,5,3.9000000953674316,21.799999237060547,0.0,0.0,0.0,0.0,C,646601031737985,,,,,,,,,,0.000000021420419216156006,0.000000007450580596923828,-0.00000011920928955078125,0.0,122880.0,0.0,-262144.0,196608.0
Raw,1773869679999,11543545482,18,0.0,-1457904886456454400,0.0,10.109046936035156,62243.23828125,0.0,0,10,0.0,239,2079921681681,52,18.399999618530273,704.7293701171875,0.5569169521331787,16,0.0,0.39379597685337064,1598062500,,,,0,16.600000381469727,3,3.9000000953674316,13.399999618530273,0.0,0.0,0.0,0.0,C,646601031737985,,,,,,,,,,0.000000021420419216156006,0.000000007450580596923828,-0.00000011920928955078125,0.0,122880.0,0.0,-262144.0,196608.0
Raw,1773869681000,12543546582,18,0.0,-1457904886456453376,0.0,10.109046936035156,62243.1484375,0.0,0,7,0.0,47,336898924281091,10,44.400001525878906,-186.92559814453125,0.06441804021596909,17,1314.7094423076196,0.045549996236711736,1575420000,,,,0,40.29999923706055,1,3.9000000953674316,39.400001525878906,0.0,0.0,0.0,0.0,C,646602046010330,,25962314.4352456,6561482.148320016,501913.44288923533,-54.8860261609743,272.43725760984137,3127.891914572251,-48682.52736968362,-0.0005626538404612802,0.000000021420419216156006,0.000000007450580596923828,-0.00000011920928955078125,0.0,122880.0,0.0,-262144.0,196608.0
Raw,1773869681000,12543546582,18,0.0,-1457904886456453376,0.0,10.109046936035156,62243.1484375,0.0,0,6,0.0,47,336898930087510,10,42.5,344.1977233886719,0.07111111283302307,17,-2401.777089493902,0.05028266788423061,1575420000,,,,0,35.599998474121094,1,3.9000000953674316,37.5,0.0,0.0,0.0,0.0,C,646602046010330,,19555353.473520964,-6380399.296704562,16955276.727401573,2026.6794988052152,661.0309291790522,-2081.4546051119287,-183680.8794377283,0.00039850585744716227,0.000000021420419216156006,0.000000007450580596923828,-0.00000011920928955078125,0.0,122880.0,0.0,-262144.0,196608.0
Raw,1773869681000,12543546582,18,0.0,-1457904886456453376,0.0,10.109046936035156,62243.1484375,0.0,0,4,0.0,47,336898929397283,10,40.70000076293945,719.0536499023438,0.07846274971961975,17,-5027.610846965195,0.05548101032674312,1575420000,,,,0,35.5,1,3.9000000953674316,35.70000076293945,0.0,0.0,0.0,0.0,C,646602046010330,,9822062.343528876,11388037.438537577,21920298.540414665,-1993.7153774719054,1927.551458540577,-125.08801892433137,14823.191703409575,0.0006302760775724892,0.000000021420419216156006,0.000000007450580596923828,-0.00000011920928955078125,0.0,122880.0,0.0,-262144.0,196608.0
Raw,1773869681000,12543546582,18,0.0,-1457904886456453376,0.0,10.109046936035156,62243.1484375,0.0,0,3,0.0,47,336898923606784,11,39.900001525878906,893.1937255859375,0.08210112154483795,17,-6246.690889543475,0.058053703044354914,1575420000,,,,0,31.600000381469727,1,3.9000000953674316,34.900001525878906,0.0,0.0,0.0,0.0,C,646602046010330,,12104549.425292475,21946590.148457166,8766141.788998755,154.64660377860736,1134.3332627988284,-2976.327058384702,160437.29195191493,-0.003948583878809586,0.000000021420419216156006,0.000000007450580596923828,-0.00000011920928955078125,0.0,122880.0,0.0,-262144.0,196608.0
Raw,1773869681000,12543546582,18,0.0,-1457904886456453376,0.0,10.109046936035156,62243.1484375,0.0,0,11,0.0,47,336898923560392,16,33.0,-168.06912231445312,0.12755101919174194,20,1181.5130486873968,0.09019132567048072,1575420000,,,,0,24.600000381469727,1,3.9000000953674316,28.0,0.0,0.0,0.0,0.0,C,646602046010330,,5562804.139689602,-14165161.671688503,21817273.149297945,2645.62319316342,776.238093414763,-177.9965764035654,-120781.42406534702,0.004006663832115009,0.000000021420419216156006,0.000000007450580596923828,-0.00000011920928955078125,0.0,122880.0,0.0,-262144.0,196608.0
Raw,1773869681000,12543546582,18,0.0,-1457904886456453376,0.0,10.109046936035156,62243.1484375,0.0,0,30,0.0,47,336898916625708,26,25.700000762939453,-347.16949462890625,0.23337766528129578,20,2429.561457765667,0.16502134712040423,1575420000,,,,0,25.299999237060547,1,3.9000000953674316,20.700000762939453,0.0,0.0,0.0,0.0,C,646602046010330,,24365054.77574441,-2304721.278454175,-10442942.463324403,1250.2009342605581,591.2753088633754,2708.2975335670562,47049.681485162466,0.004097498953342438,0.000000021420419216156006,0.000000007450580596923828,-0.00000011920928955078125,0.0,122880.0,0.0,-262144.0,196608.0
Raw,1773869681000,12543546582,18,0.0,-1457904886456453376,0.0,10.109046936035156,62243.1484375,0.0,0,9,0.0,47,336898933503655,12,38.5,351.5903015136719,0.08910670876502991,20,-2456.6933681020455,0.06300735376775264,1575420000,,,,0,26.799999237060547,1,3.9000000953674316,33.5,0.0,0.0,0.0,0.0,C,646602046010330,,17355254.02997607,1412257.3780054618,19984068.240868352,-1628.8720438877594,1971.3622959076386,1261.7169760023512,229577.08464207908,-0.0008218365255743265,0.000000021420419216156006,0.000000007450580596923828,-0.00000011920928955078125,0.0,122880.0,0.0,-262144.0,196608.0
Raw,1773869681000,12543546582,18,0.0,-1457904886456453376,0.0,10.109046936035156,62243.1484375,0.0,0,19,0.0,47,336898920462284,23,26.899999618530273,923.6734008789062,0.20850275456905365,20,-6450.967318190815,0.14743229775577782,1575420000,,,,0,20.600000381469727,1,3.9000000953674316,21.899999618530273,0.0,0.0,0.0,0.0,C,646602046010330,,20381106.82615333,-16542286.975196006,-1116517.7583269323,117.60486284887799,343.4476526504174,-3199.4141780180003,208105.26935342365,-0.0006880341097712517,0.000000021420419216156006,0.000000007450580596923828,-0.00000011920928955078125,0.0,122880.0,0.0,-262144.0,196608.0
Raw,1773869681000,12543546582,18,0.0,-1457904886456453376,0.0,10.109046936035156,62243.1484375,0.0,0,21,0.0,47,336898917654367,27,25.100000381469727,-263.4575500488281,0.2475186139345169,20,1842.6975140398426,0.1750204119130969,1575420000,,,,0,14.0,1,3.9000000953674316,20.100000381469727,0.0,0.0,0.0,0.0,C,646602046010330,,3758151.5680870563,-22398518.714606356,13750030.6103361,671.1756604378847,1625.8850380711383,2469.760899001616,122799.74180705071,0.0008411922899540514,0.000000021420419216156006,0.000000007450580596923828,-0.00000011920928955078125,0.0,122880.0,0.0,-262144.0,196608.0
Raw,1773869681000,12543546582,18,0.0,-1457904886456453376,0.0,10.109046936035156,62243.1484375,0.0,0,12,0.0,239,2080921609895,10,44.20000076293945,-398.67218017578125,0.0650770515203476,17,2799.6652371970995,0.04601598313003778,1601437400,,,,0,45.900001525878906,3,3.9000000953674316,39.20000076293945,0.0,0.0,0.0,0.0,C,646602046010330,,,,,,,,,,0.000000021420419216156006,0.000000007450580596923828,-0.00000011920928955078125,0.0,122880.0,0.0,-262144.0,196608.0
Raw,1773869681000,12543546582,18,0.0,-1457904886456453376,0.0,10.109046936035156,62243.1484375,0.0,0,23,0.0,815,336884916567028,10,42.099998474121094,-186.04286193847656,0.07265277206897736,17,1308.3362526534183,0.05137277512997389,1561098000,,,,0,38.0,5,3.9000000953674316,37.099998474121094,0.0,0.0,0.0,0.0,C,646602046010330,,19566542.535907,19892414.137599327,155213.37335707317,-140.6230828262562,114.57145773952699,3062.683323179812,-143154.7982879845,0.001360434602247551,0.000000021420419216156006,0.000000007450580596923828,-0.00000011920928955078125,0.0,122880.0,0.0,-262144.0,196608.0
Raw,1773869681000,12543546582,18,0.0,-1457904886456453376,0.0,10.109046936035156,62243.1484375,0.0,0,17,0.0,239,2080933805642,11,39.599998474121094,492.9073181152344,0.08353102952241898,17,-3447.638373574795,0.059064790975302456,1604250000,,,,0,37.099998474121094,3,3.9000000953674316,34.599998474121094,0.0,0.0,0.0,0.0,C,646602046010330,,,,,,,,,,0.000000021420419216156006,0.000000007450580596923828,-0.00000011920928955078125,0.0,122880.0,0.0,-262144.0,196608.0
Raw,1773869681000,12543546582,18,0.0,-1457904886456453376,0.0,10.109046936035156,62243.1484375,0.0,0,32,0.0,815,336884926125918,11,39.599998474121094,224.62840270996094,0.08353102952241898,17,-1566.7218945050554,0.059064790975302456,1561098000,,,,0,34.20000076293945,5,3.9000000953674316,34.599998474121094,0.0,0.0,0.0,0.0,C,646602046010330,,16373701.241679447,-3970561.130499488,22255200.166065395,-662.7378609746024,2449.529991366945,927.8850777453638,-280668.09521721856,0.001316344365477562,0.000000021420419216156006,0.000000007450580596923828,-0.00000011920928955078125,0.0,122880.0,0.0,-262144.0,196608.0
Raw,1773869681000,12543546582,18,0.0,-1457904886456453376,0.0,10.109046936035156,62243.1484375,0.0,0,24,0.0,239,2080926471215,10,41.099998474121094,1132.6424560546875,0.07673361152410507,17,-7925.549957240553,0.05425833670869469,1603125000,,,,0,36.099998474121094,3,3.9000000953674316,36.099998474121094,0.0,0.0,0.0,0.0,C,646602046010330,,,,,,,,,,0.000000021420419216156006,0.000000007450580596923828,-0.00000011920928955078125,0.0,122880.0,0.0,-262144.0,196608.0
Raw,1773869681000,12543546582,18,0.0,-1457904886456453376,0.0,10.109046936035156,62243.1484375,0.0,0,1,0.0,239,2080930949047,11,38.900001525878906,777.5125732421875,0.08701629191637039,17,-5438.061167838605,0.0615292200140655,1602562600,,,,0,29.5,3,3.9000000953674316,33.900001525878906,0.0,0.0,0.0,0.0,C,646602046010330,,,,,,,,,,0.000000021420419216156006,0.000000007450580596923828,-0.00000011920928955078125,0.0,122880.0,0.0,-262144.0,196608.0
Raw,1773869681000,12543546582,18,0.0,-1457904886456453376,0.0,10.109046936035156,62243.1484375,0.0,0,5,0.0,815,336884867489216,12,37.29999923706055,351.54193115234375,0.0958506315946579,16,0.0,0.0677759816005826,1561098000,,,,0,0.0,5,3.9000000953674316,32.29999923706055,0.0,0.0,0.0,0.0,C,646602046010330,,21940552.40712184,35995605.710865594,1934084.5227478745,4.270915012955811,-0.3309174244577662,-110.41617965361108,-178910.37601672602,0.0057195190456695855,0.000000021420419216156006,0.000000007450580596923828,-0.00000011920928955078125,0.0,122880.0,0.0,-262144.0,196608.0
Raw,1773869681000,12543546582,18,0.0,-1457904886456453376,0.0,10.109046936035156,62243.1484375,0.0,0,30,0.0,815,336884922151060,14,34.5,625.8492431640625,0.11490950733423233,17,-4374.182742512407,0.08125251263603568,1561098000,,,,0,34.0,5,3.9000000953674316,29.5,0.0,0.0,0.0,0.0,C,646602046010330,,20978436.23650055,-14720737.562217977,11056922.386937745,1254.5203539613144,-226.75266215566768,-2676.0693309691765,122698.26732080356,0.0024087808706099167,0.000000021420419216156006,0.000000007450580596923828,-0.00000011920928955078125,0.0,122880.0,0.0,-262144.0,196608.0
Raw,1773869681000,12543546582,18,0.0,-1457904886456453376,0.0,10.109046936035156,62243.1484375,0.0,0,3,0.0,239,2080923324235,18,31.0,-215.14385986328125,0.14792899787425995,20,1507.6200585192128,0.10460059439688921,1604812500,,,,0,25.899999618530273,3,3.9000000953674316,26.0,0.0,0.0,0.0,0.0,C,646602046010330,,,,,,,,,,0.000000021420419216156006,0.000000007450580596923828,-0.00000011920928955078125,0.0,122880.0,0.0,-262144.0,196608.0
Raw,1773869681000,12543546582,18,0.0,-1457904886456453376,0.0,10.109046936035156,62243.1484375,0.0,0,18,0.0,239,2080927831541,19,30.0,-187.00048828125,0.1599999964237213,20,1309.5916081344767,0.11313599747121333,1600312400,,,,0,26.600000381469727,3,3.9000000953674316,25.0,0.0,0.0,0.0,0.0,C,646602046010330,,,,,,,,,,0.000000021420419216156006,0.000000007450580596923828,-0.00000011920928955078125,0.0,122880.0,0.0,-262144.0,196608.0
Raw,1773869681000,12543546582,18,0.0,-1457904886456453376,0.0,10.109046936035156,62243.1484375,0.0,0,2,0.0,239,2080934164351,19,29.700000762939453,248.1331024169922,0.16391023993492126,20,-1811.6273539798276,0.11590093065798282,1599750000,,,,0,22.0,3,3.9000000953674316,24.700000762939453,0.0,0.0,0.0,0.0,C,646602046010330,,,,,,,,,,0.000000021420419216156006,0.000000007450580596923828,-0.00000011920928955078125,0.0,122880.0,0.0,-262144.0,196608.0
Raw,1773869681000,12543546582,18,0.0,-1457904886456453376,0.0,10.109046936035156,62243.1484375,0.0,0,11,0.0,239,2080926431184,23,27.0,57.651493072509766,0.20661157369613647,20,-245.58199016246363,0.14609504376053808,1602000000,,,,0,22.899999618530273,3,3.9000000953674316,22.0,0.0,0.0,0.0,0.0,C,646602046010330,,,,,,,,,,0.000000021420419216156006,0.000000007450580596923828,-0.00000011920928955078125,0.0,122880.0,0.0,-262144.0,196608.0
Raw,1773869681000,12543546582,18,0.0,-1457904886456453376,0.0,10.109046936035156,62243.1484375,0.0,0,25,0.0,291,19840632,24,26.799999237060547,211.2674102783203,0.21042001247406006,20,-1472.6667958857433,0.14878799082040786,1561098000,,,,0,21.0,5,3.9000000953674316,21.799999237060547,0.0,0.0,0.0,0.0,C,646602046010330,,,,,,,,,,0.000000021420419216156006,0.000000007450580596923828,-0.00000011920928955078125,0.0,122880.0,0.0,-262144.0,196608.0
Raw,1773869681000,12543546582,18,0.0,-1457904886456453376,0.0,10.109046936035156,62243.1484375,0.0,0,10,0.0,239,2080921680378,47,19.200000762939453,704.9869384765625,0.4959333539009094,16,0.0,0.350674474543333,1598062500,,,,0,18.799999237060547,3,3.9000000953674316,14.199999809265137,0.0,0.0,0.0,0.0,C,646602046010330,,,,,,,,,,0.000000021420419216156006,0.000000007450580596923828,-0.00000011920928955078125,0.0,122880.0,0.0,-262144.0,196608.0
Raw,1773869682000,13543547743,18,0.0,-1457904886456452352,0.0,10.109046936035156,62242.9609375,0.0,0,7,0.0,47,336899924282884,10,45.099998474121094,-186.9302520751953,0.06218867376446724,17,1502.7610182403005,0.043973611218854784,1575420000,,,,0,38.5,1,3.9000000953674316,40.099998474121094,0.0,0.0,0.0,0.0,C,646603034669252,,25962259.368677348,6561754.539454276,505041.3351934621,-55.246914241296025,272.3440422988824,3127.881466447358,-48682.52793220468,-0.0005623862743959762,0.000000021420419216156006,0.000000007450580596923828,-0.00000011920928955078125,0.0,122880.0,0.0,-262144.0,196608.0
Raw,1773869682000,13543547743,18,0.0,-1457904886456452352,0.0,10.109046936035156,62242.9609375,0.0,0,4,0.0,47,336899929396058,10,40.70000076293945,719.10302734375,0.07846274971961975,17,-5745.585652350041,0.05548101032674312,1575420000,,,,0,34.29999923706055,1,3.9000000953674316,35.70000076293945,0.0,0.0,0.0,0.0,C,646603034669252,,9820068.693093745,11389965.042495972,21920173.219995636,-1993.5903693419782,1927.661172675288,-125.5531258538625,14823.192333658428,0.0006302231686277082,0.000000021420419216156006,0.000000007450580596923828,-0.00000011920928955078125,0.0,122880.0,0.0,-262144.0,196608.0
Raw,1773869682000,13543547743,18,0.0,-1457904886456452352,0.0,10.109046936035156,62242.9609375,0.0,0,3,0.0,47,336899923604940,11,39.79999923706055,893.1529541015625,0.08257365971803665,17,-7138.742454091611,0.05838783478662371,1575420000,,,,0,33.70000076293945,1,3.9000000953674316,34.79999923706055,0.0,0.0,0.0,0.0,C,646603034669252,,12104704.057627428,21947724.293037143,8763165.37408906,154.61862705937858,1133.960077717906,-2976.5137273056657,160437.2880033862,-0.003948488098103553,0.000000021420419216156006,0.000000007450580596923828,-0.00000011920928955078125,0.0,122880.0,0.0,-262144.0,196608.0
Raw,1773869682000,13543547743,18,0.0,-1457904886456452352,0.0,10.109046936035156,62242.9609375,0.0,0,9,0.0,47,336899933503646,12,37.599998474121094,352.0936279296875,0.09409463405609131,22,-2807.540040663036,0.06653431574106215,1575420000,,,,0,31.799999237060547,1,3.9000000953674316,32.599998474121094,0.0,0.0,0.0,0.0,C,646603034669252,,17353625.16214457,1414228.8477020767,19985329.74394687,-1628.8636388973448,1971.5771272476336,1261.2891991565816,229577.08382022337,-0.0008218750008381903,0.000000021420419216156006,0.000000007450580596923828,-0.00000011920928955078125,0.0,122880.0,0.0,-262144.0,196608.0
Raw,1773869682000,13543547743,18,0.0,-1457904886456452352,0.0,10.109046936035156,62242.9609375,0.0,0,11,0.0,47,336899923562090,16,32.900001525878906,-167.8334197998047,0.12846700847148895,20,1350.5227103507495,0.09083902169018983,1575420000,,,,0,24.5,1,3.9000000953674316,27.899999618530273,0.0,0.0,0.0,0.0,C,646603034669252,,5565449.779868631,-14164385.512907706,21817094.921412464,2645.6481695887455,776.0768297913794,-178.45858872031465,-120781.42005868784,0.0040066408982966095,0.000000021420419216156006,0.000000007450580596923828,-0.00000011920928955078125,0.0,122880.0,0.0,-262144.0,196608.0
Raw,1773869682000,13543547743,18,0.0,-1457904886456452352,0.0,10.109046936035156,62242.9609375,0.0,0,30,0.0,47,336899916628010,24,26.5,-346.35870361328125,0.21633315086364746,20,2777.2616918621934,0.1529691709756851,1575420000,,,,0,24.899999618530273,1,3.9000000953674316,21.5,0.0,0.0,0.0,0.0,C,646603034669252,,24366304.8296891,-2304130.074688539,-10440234.049068047,1249.901193390233,591.1295062419597,2708.518500025754,47049.6855827284,0.004097614029888064,0.000000021420419216156006,0.000000007450580596923828,-0.00000011920928955078125,0.0,122880.0,0.0,-262144.0,196608.0
Raw,1773869682000,13543547743,18,0.0,-1457904886456452352,0.0,10.109046936035156,62242.9609375,0.0,0,19,0.0,47,336899920460324,24,26.700000762939453,923.5603637695312,0.21236379444599152,20,-7373.356294779631,0.15016243905276058,1575420000,,,,0,24.299999237060547,1,3.9000000953674316,21.700000762939453,0.0,0.0,0.0,0.0,C,646603034669252,,20381224.286030956,-16541943.39896266,-1119717.1539493601,117.31535880683742,343.7061667629464,-3199.3895967550757,208105.268665412,-0.0006879918510094285,0.000000021420419216156006,0.000000007450580596923828,-0.00000011920928955078125,0.0,122880.0,0.0,-262144.0,196608.0
Raw,1773869682000,13543547743,18,0.0,-1457904886456452352,0.0,10.109046936035156,62242.9609375,0.0,0,21,0.0,47,336899917656426,28,24.799999237060547,-263.0146484375,0.25507602095603943,20,2107.0255374027765,0.18036425441801546,1575420000,,,,0,16.0,1,3.9000000953674316,19.799999237060547,0.0,0.0,0.0,0.0,C,646603034669252,,3758822.8336648336,-22396892.696194954,13752500.229854465,671.3527352118115,1626.1450801201768,2469.4679591034924,122799.74264824938,0.0008412016177317128,0.000000021420419216156006,0.000000007450580596923828,-0.00000011920928955078125,0.0,122880.0,0.0,-262144.0,196608.0
Raw,1773869682000,13543547743,18,0.0,-1457904886456452352,0.0,10.109046936035156,62242.9609375,0.0,0,12,0.0,239,2081921612406,10,44.79999923706055,-398.83380126953125,0.063129723072052,17,3205.466590931115,0.04463902718424797,1601437400,,,,0,45.099998474121094,3,3.9000000953674316,39.79999923706055,0.0,0.0,0.0,0.0,C,646603034669252,,,,,,,,,,0.000000021420419216156006,0.000000007450580596923828,-0.00000011920928955078125,0.0,122880.0,0.0,-262144.0,196608.0
Raw,1773869682000,13543547743,18,0.0,-1457904886456452352,0.0,10.109046936035156,62242.9609375,0.0,0,23,0.0,815,336885916568805,10,42.5,-186.18801879882812,0.07111111283302307,17,1495.6004623486078,0.05028266788423061,1561098000,,,,0,39.599998474121094,5,3.9000000953674316,37.5,0.0,0.0,0.0,0.0,C,646603034669252,,19566401.79343349,19892528.589905642,158276.06068904418,-140.86136953502015,114.33275371786392,3062.6804466486615,-143154.79692754734,0.001360434922389686,0.000000021420419216156006,0.000000007450580596923828,-0.00000011920928955078125,0.0,122880.0,0.0,-262144.0,196608.0
Raw,1773869682000,13543547743,18,0.0,-1457904886456452352,0.0,10.109046936035156,62242.9609375,0.0,0,17,0.0,239,2081933805148,11,39.79999923706055,493.0900573730469,0.08257365971803665,17,-3942.6898413026356,0.05838783478662371,1604250000,,,,0,36.70000076293945,3,3.9000000953674316,34.79999923706055,0.0,0.0,0.0,0.0,C,646603034669252,,,,,,,,,,0.000000021420419216156006,0.000000007450580596923828,-0.00000011920928955078125,0.0,122880.0,0.0,-262144.0,196608.0
Raw,1773869682000,13543547743,18,0.0,-1457904886456452352,0.0,10.109046936035156,62242.9609375,0.0,0,32,0.0,815,336885926126355,11,39.599998474121094,224.65167236328125,0.08353102952241898,17,-1790.2524485947215,0.059064790975302456,1561098000,,,,0,31.899999618530273,5,3.9000000953674316,34.599998474121094,0.0,0.0,0.0,0.0,C,646603034669252,,16373038.575675247,-3968111.52529555,22256127.8476076,-662.5935631889629,2449.678266836583,927.477193065783,-280668.093900869,0.0013163535040803254,0.000000021420419216156006,0.000000007450580596923828,-0.00000011920928955078125,0.0,122880.0,0.0,-262144.0,196608.0
Raw,1773869682000,13543547743,18,0.0,-1457904886456452352,0.0,10.109046936035156,62242.9609375,0.0,0,24,0.0,239,2081926468622,10,40.599998474121094,1132.6673583984375,0.07890418916940689,17,-9049.735179288837,0.055793152161687606,1603125000,,,,0,35.29999923706055,3,3.9000000953674316,35.599998474121094,0.0,0.0,0.0,0.0,C,646603034669252,,,,,,,,,,0.000000021420419216156006,0.000000007450580596923828,-0.00000011920928955078125,0.0,122880.0,0.0,-262144.0,196608.0
Raw,1773869682000,13543547743,18,0.0,-1457904886456452352,0.0,10.109046936035156,62242.9609375,0.0,0,2,0.0,239,2081934164849,17,31.899999618530273,247.12147521972656,0.13819599151611328,22,-2009.0659163282835,0.09771838560104369,1599750000,,,,0,33.20000076293945,3,3.9000000953674316,26.899999618530273,0.0,0.0,0.0,0.0,C,646603034669252,,,,,,,,,,0.000000021420419216156006,0.000000007450580596923828,-0.00000011920928955078125,0.0,122880.0,0.0,-262144.0,196608.0
Raw,1773869682000,13543547743,18,0.0,-1457904886456452352,0.0,10.109046936035156,62242.9609375,0.0,0,1,0.0,239,2081930947585,11,38.79999923706055,777.5081176757812,0.08753195405006409,17,-6222.998674994858,0.061893844708800314,1602562600,,,,0,28.600000381469727,3,3.9000000953674316,33.79999923706055,0.0,0.0,0.0,0.0,C,646603034669252,,,,,,,,,,0.000000021420419216156006,0.000000007450580596923828,-0.00000011920928955078125,0.0,122880.0,0.0,-262144.0,196608.0
Raw,1773869682000,13543547743,18,0.0,-1457904886456452352,0.0,10.109046936035156,62242.9609375,0.0,0,5,0.0,815,336885867489176,12,37.29999923706055,353.0929870605469,0.0958506315946579,16,0.0,0.0677759816005826,1561098000,,,,0,0.0,5,3.9000000953674316,32.29999923706055,0.0,0.0,0.0,0.0,C,646603034669252,,21940556.67816191,35995605.37987677,1933974.101442975,4.271165500482766,-0.33106030350381843,-110.42643889144355,-178910.3702972096,0.00571951424353756,0.000000021420419216156006,0.000000007450580596923828,-0.00000011920928955078125,0.0,122880.0,0.0,-262144.0,196608.0
Raw,1773869682000,13543547743,18,0.0,-1457904886456452352,0.0,10.109046936035156,62242.9609375,0.0,0,30,0.0,815,336885922150156,14,34.900001525878906,625.9121704101562,0.11185558140277863,17,-4998.948288089188,0.07909308160990476,1561098000,,,,0,29.600000381469727,5,3.9000000953674316,29.899999618530273,0.0,0.0,0.0,0.0,C,646603034669252,,20979690.602676395,-14720964.31035851,11054246.218671296,1254.2142630660917,-226.74402106090014,-2676.2720323012445,122698.26972958629,0.002408788917819038,0.000000021420419216156006,0.000000007450580596923828,-0.00000011920928955078125,0.0,122880.0,0.0,-262144.0,196608.0
Raw,1773869682000,13543547743,18,0.0,-1457904886456452352,0.0,10.109046936035156,62242.9609375,0.0,0,3,0.0,239,2081923326187,17,31.200000762939453,-214.8224334716797,0.14567914605140686,20,1746.013270666299,0.10300972417294979,1604812500,,,,0,31.399999618530273,3,3.9000000953674316,26.200000762939453,0.0,0.0,0.0,0.0,C,646603034669252,,,,,,,,,,0.000000021420419216156006,0.000000007450580596923828,-0.00000011920928955078125,0.0,122880.0,0.0,-262144.0,196608.0
Raw,1773869682000,13543547743,18,0.0,-1457904886456452352,0.0,10.109046936035156,62242.9609375,0.0,0,18,0.0,239,2081927833348,19,29.899999618530273,-186.6826934814453,0.16128772497177124,20,1504.4873635521508,0.11404655032753944,1600312400,,,,0,29.100000381469727,3,3.9000000953674316,24.899999618530273,0.0,0.0,0.0,0.0,C,646603034669252,,,,,,,,,,0.000000021420419216156006,0.000000007450580596923828,-0.00000011920928955078125,0.0,122880.0,0.0,-262144.0,196608.0
Raw,1773869682000,13543547743,18,0.0,-1457904886456452352,0.0,10.109046936035156,62242.9609375,0.0,0,25,0.0,291,19841064,22,27.799999237060547,211.26805114746094,0.19236689805984497,20,-1683.0259671793901,0.13602263361811637,1561098000,,,,0,29.0,5,3.9000000953674316,22.799999237060547,0.0,0.0,0.0,0.0,C,646603034669252,,,,,,,,,,0.000000021420419216156006,0.000000007450580596923828,-0.00000011920928955078125,0.0,122880.0,0.0,-262144.0,196608.0
Raw,1773869682000,13543547743,18,0.0,-1457904886456452352,0.0,10.109046936035156,62242.9609375,0.0,0,11,0.0,239,2081926432225,23,27.299999237060547,57.143062591552734,0.20108991861343384,20,-280.33496653154725,0.14219068145155905,1602000000,,,,0,25.299999237060547,3,3.9000000953674316,22.299999237060547,0.0,0.0,0.0,0.0,C,646603034669252,,,,,,,,,,0.000000021420419216156006,0.000000007450580596923828,-0.00000011920928955078125,0.0,122880.0,0.0,-262144.0,196608.0
Raw,1773869682000,13543547743,18,0.0,-1457904886456452352,0.0,10.109046936035156,62242.9609375,0.0,0,10,0.0,239,2081921679086,42,20.299999237060547,705.51904296875,0.42718610167503357,16,0.0,0.3020632924944162,1598062500,,,,0,17.600000381469727,3,3.9000000953674316,15.300000190734863,0.0,0.0,0.0,0.0,C,646603034669252,,,,,,,,,,0.000000021420419216156006,0.000000007450580596923828,-0.00000011920928955078125,0.0,122880.0,0.0,-262144.0,196608.0
Raw,1773869683000,14543548903,18,0.0,-1457904886456451072,0.0,10.109046936035156,62242.71875,0.0,0,7,0.0,47,336900924284661,10,45.0,-186.93836975097656,0.0625,17,1690.821486213681,0.04419375,1575420000,,,,0,35.20000076293945,1,3.9000000953674316,40.0,0.0,0.0,0.0,0.0,C,646604061598636,,25962203.941217087,6562026.837393415,508169.21696707094,-55.60781069928802,272.25087652065923,3127.87095349699,-48682.52849445818,-0.0005621187228825875,0.000000021420419216156006,0.000000007450580596923828,-0.00000011920928955078125,0.0,122880.0,0.0,-262144.0,196608.0
Raw,1773869683000,14543548903,18,0.0,-1457904886456451072,0.0,10.109046936035156,62242.71875,0.0,0,4,0.0,47,336900929394829,10,40.599998474121094,719.0475463867188,0.07890418916940689,17,-6463.525311446312,0.055793152161687606,1575420000,,,,0,32.0,1,3.9000000953674316,35.599998474121094,0.0,0.0,0.0,0.0,C,646604061598636,,9818075.167698242,11391892.756136024,21920047.434471708,-1993.4653138545198,1927.7708375469554,-126.01823085614035,14823.192963854366,0.0006301702578639379,0.000000021420419216156006,0.000000007450580596923828,-0.00000011920928955078125,0.0,122880.0,0.0,-262144.0,196608.0
Raw,1773869683000,14543548903,18,0.0,-1457904886456451072,0.0,10.109046936035156,62242.71875,0.0,0,3,0.0,47,336900923603123,11,39.70000076293945,892.9708251953125,0.08305026590824127,17,-8030.656669782969,0.0587248430237174,1575420000,,,,0,36.400001525878906,1,3.9000000953674316,34.70000076293945,0.0,0.0,0.0,0.0,C,646604061598636,,12104858.661961788,21948858.064456977,8760188.77246238,154.59059417472406,1133.5868799217733,-2976.700332307957,160437.28405495317,-0.00394839234650135,0.000000021420419216156006,0.000000007450580596923828,-0.00000011920928955078125,0.0,122880.0,0.0,-262144.0,196608.0
Raw,1773869683000,14543548903,18,0.0,-1457904886456451072,0.0,10.109046936035156,62242.71875,0.0,0,9,0.0,47,336900933503644,12,37.20000076293945,352.10699462890625,0.09644688665866852,17,-3158.476322850707,0.0681975935563445,1575420000,,,,0,34.599998474121094,1,3.9000000953674316,32.20000076293945,0.0,0.0,0.0,0.0,C,646604061598636,,17351996.30273523,1416200.5322272638,19986590.819243632,-1628.8551767965855,1971.7919256145615,1260.8613948288917,229577.08299832913,-0.0008219134469982237,0.000000021420419216156006,0.000000007450580596923828,-0.00000011920928955078125,0.0,122880.0,0.0,-262144.0,196608.0
Raw,1773869683000,14543548903,18,0.0,-1457904886456451072,0.0,10.109046936035156,62242.71875,0.0,0,6,0.0,47,336900930087591,10,41.400001525878906,344.39227294921875,0.07547397166490555,20,-3088.871910838905,0.05336764536425471,1575420000,,,,0,0.0,1,3.9000000953674316,36.400001525878906,0.0,0.0,0.0,0.0,C,646604061598636,,19559406.410478532,-6379077.625270714,16951113.104447197,2026.2572545079906,660.6404646690426,-2082.1681513099325,-183680.87864068223,0.0003985400835517794,0.000000021420419216156006,0.000000007450580596923828,-0.00000011920928955078125,0.0,122880.0,0.0,-262144.0,196608.0
Raw,1773869683000,14543548903,18,0.0,-1457904886456451072,0.0,10.109046936035156,62242.71875,0.0,0,11,0.0,47,336900923563777,16,32.400001525878906,-166.07984924316406,0.13319836556911469,20,1518.3301685354381,0.09418456429392098,1575420000,,,,0,22.899999618530273,1,3.9000000953674316,27.399999618530273,0.0,0.0,0.0,0.0,C,646604061598636,,5568095.444962346,-14163609.515407177,21816916.231517583,2645.6730804661693,775.9155504354339,-178.9205975722705,-120781.41605205167,0.004006617935374379,0.000000021420419216156006,0.000000007450580596923828,-0.00000011920928955078125,0.0,122880.0,0.0,-262144.0,196608.0
Raw,1773869683000,14543548903,18,0.0,-1457904886456451072,0.0,10.109046936035156,62242.71875,0.0,0,30,0.0,47,336900916630340,24,26.799999237060547,-346.6282653808594,0.21042001247406006,20,3124.998419368145,0.14878799082040786,1575420000,,,,0,25.700000762939453,1,3.9000000953674316,21.799999237060547,0.0,0.0,0.0,0.0,C,646604061598636,,24367554.583907586,-2303539.016692237,-10437525.41379792,1249.601413214432,590.9837378039191,2708.739408417008,47049.689680409516,0.004097729099157732,0.000000021420419216156006,0.000000007450580596923828,-0.00000011920928955078125,0.0,122880.0,0.0,-262144.0,196608.0
Raw,1773869683000,14543548903,18,0.0,-1457904886456451072,0.0,10.109046936035156,62242.71875,0.0,0,19,0.0,47,336900920458399,24,26.600000381469727,923.0365600585938,0.21433469653129578,20,-8295.42684626815,0.15155606391727924,1575420000,,,,0,23.100000381469727,1,3.9000000953674316,21.600000381469727,0.0,0.0,0.0,0.0,C,646604061598636,,20381341.456427325,-16541599.564185686,-1122916.525067389,117.02589106823496,343.9647169200717,-3199.3649451844167,208105.26797744265,-0.0006879495340399444,0.000000021420419216156006,0.000000007450580596923828,-0.00000011920928955078125,0.0,122880.0,0.0,-262144.0,196608.0
Raw,1773869683000,14543548903,18,0.0,-1457904886456451072,0.0,10.109046936035156,62242.71875,0.0,0,21,0.0,47,336900917658458,28,24.600000381469727,-263.3216247558594,0.2603082060813904,20,2371.433717010048,0.18406393252015113,1575420000,,,,0,17.0,1,3.9000000953674316,19.600000381469727,0.0,0.0,0.0,0.0,C,646604061598636,,3759494.276313044,-22395266.417810902,13754969.556339396,671.5298371996402,1626.405070196391,2469.1749667001104,122799.74348945737,0.0008412109455093741,0.000000021420419216156006,0.000000007450580596923828,-0.00000011920928955078125,0.0,122880.0,0.0,-262144.0,196608.0
Raw,1773869683000,14543548903,18,0.0,-1457904886456451072,0.0,10.109046936035156,62242.71875,0.0,0,12,0.0,239,2082921614892,10,49.5,-399.0128479003906,0.05049867555499077,17,3603.6842754385143,0.03570761348493397,1601437400,,,,0,45.20000076293945,3,3.9000000953674316,44.5,0.0,0.0,0.0,0.0,C,646604061598636,,,,,,,,,,0.000000021420419216156006,0.000000007450580596923828,-0.00000011920928955078125,0.0,122880.0,0.0,-262144.0,196608.0
Raw,1773869683000,14543548903,18,0.0,-1457904886456451072,0.0,10.109046936035156,62242.71875,0.0,0,23,0.0,815,336886916570583,10,42.599998474121094,-186.33370971679688,0.07073336839675903,17,1682.9953589415818,0.05001556479334831,1561098000,,,,0,37.400001525878906,5,3.9000000953674316,37.599998474121094,0.0,0.0,0.0,0.0,C,646604061598636,,19566260.81265619,19892642.80352429,161338.74511943493,-141.09968921443567,114.09408296451971,3062.6775139097326,-143154.79556710983,0.0013604352425318211,0.000000021420419216156006,0.000000007450580596923828,-0.00000011920928955078125,0.0,122880.0,0.0,-262144.0,196608.0
Raw,1773869683000,14543548903,18,0.0,-1457904886456451072,0.0,10.109046936035156,62242.71875,0.0,0,17,0.0,239,2082933804682,11,39.79999923706055,493.3623046875,0.08257365971803665,17,-4429.442560626689,0.05838783478662371,1604250000,,,,0,33.599998474121094,3,3.9000000953674316,34.79999923706055,0.0,0.0,0.0,0.0,C,646604061598636,,,,,,,,,,0.000000021420419216156006,0.000000007450580596923828,-0.00000011920928955078125,0.0,122880.0,0.0,-262144.0,196608.0
Raw,1773869683000,14543548903,18,0.0,-1457904886456451072,0.0,10.109046936035156,62242.71875,0.0,0,24,0.0,239,2082926465997,11,40.400001525878906,1132.609130859375,0.07979825884103775,17,-10183.936466770741,0.05642534882649779,1603125000,,,,0,38.099998474121094,3,3.9000000953674316,35.400001525878906,0.0,0.0,0.0,0.0,C,646604061598636,,,,,,,,,,0.000000021420419216156006,0.000000007450580596923828,-0.00000011920928955078125,0.0,122880.0,0.0,-262144.0,196608.0
Raw,1773869683000,14543548903,18,0.0,-1457904886456451072,0.0,10.109046936035156,62242.71875,0.0,0,32,0.0,815,336886926126758,11,39.5,224.782958984375,0.08401596546173096,17,-2013.867233077559,0.059407689177989956,1561098000,,,,0,31.100000381469727,5,3.9000000953674316,34.5,0.0,0.0,0.0,0.0,C,646604061598636,,16372376.054006584,-3965661.7719258373,22257055.12122499,-662.4492350777235,2449.826489370241,927.0692915254193,-280668.09258451045,0.0013163626426830888,0.000000021420419216156006,0.000000007450580596923828,-0.00000011920928955078125,0.0,122880.0,0.0,-262144.0,196608.0
Raw,1773869683000,14543548903,18,0.0,-1457904886456451072,0.0,10.109046936035156,62242.71875,0.0,0,5,0.0,815,336886867489194,12,37.29999923706055,354.31390380859375,0.0958506315946579,16,0.0,0.0677759816005826,1561098000,,,,0,0.0,5,3.9000000953674316,32.29999923706055,0.0,0.0,0.0,0.0,C,646604061598636,,21940560.94945279,35995605.04874494,1933863.6698727175,4.271415941755549,-0.33120326250241305,-110.43669754636917,-178910.36457769768,0.005719509470509365,0.000000021420419216156006,0.000000007450580596923828,-0.00000011920928955078125,0.0,122880.0,0.0,-262144.0,196608.0
Raw,1773869683000,14543548903,18,0.0,-1457904886456451072,0.0,10.109046936035156,62242.71875,0.0,0,30,0.0,815,336886922149195,14,34.900001525878906,626.5299682617188,0.11185558140277863,20,-5624.139720505598,0.07909308160990476,1561098000,,,,0,22.399999618530273,5,3.9000000953674316,29.899999618530273,0.0,0.0,0.0,0.0,C,646604061598636,,20980944.662682608,-14721191.04982134,11051569.847880809,1253.9081572169139,-226.73533243408184,-2676.4746845075097,122698.2721383769,0.002408796950476244,0.000000021420419216156006,0.000000007450580596923828,-0.00000011920928955078125,0.0,122880.0,0.0,-262144.0,196608.0
Raw,1773869683000,14543548903,18,0.0,-1457904886456451072,0.0,10.109046936035156,62242.71875,0.0,0,1,0.0,239,2082930946155,12,38.400001525878906,777.4358520507812,0.08964107185602188,20,-6998.77783437309,0.06338520190939306,1602562600,,,,0,29.0,3,3.9000000953674316,33.400001525878906,0.0,0.0,0.0,0.0,C,646604061598636,,,,,,,,,,0.000000021420419216156006,0.000000007450580596923828,-0.00000011920928955078125,0.0,122880.0,0.0,-262144.0,196608.0
Raw,1773869683000,14543548903,18,0.0,-1457904886456451072,0.0,10.109046936035156,62242.71875,0.0,0,11,0.0,239,2082926433077,18,30.5,56.718406677246094,0.15378700196743011,20,-371.74892824006383,0.10874278909116983,1602000000,,,,0,28.200000762939453,3,3.9000000953674316,25.5,0.0,0.0,0.0,0.0,C,646604061598636,,,,,,,,,,0.000000021420419216156006,0.000000007450580596923828,-0.00000011920928955078125,0.0,122880.0,0.0,-262144.0,196608.0
Raw,1773869683000,14543548903,18,0.0,-1457904886456451072,0.0,10.109046936035156,62242.71875,0.0,0,3,0.0,239,2082923327990,17,31.399999618530273,-214.33013916015625,0.14348027110099792,20,1939.478066166368,0.10145489969551563,1604812500,,,,0,26.799999237060547,3,3.9000000953674316,26.399999618530273,0.0,0.0,0.0,0.0,C,646604061598636,,,,,,,,,,0.000000021420419216156006,0.000000007450580596923828,-0.00000011920928955078125,0.0,122880.0,0.0,-262144.0,196608.0
Raw,1773869683000,14543548903,18,0.0,-1457904886456451072,0.0,10.109046936035156,62242.71875,0.0,0,2,0.0,239,2082934165194,15,33.5,247.1711883544922,0.12311480194330215,20,-2252.5774131515354,0.08705447645410895,1599750000,,,,0,26.899999618530273,3,3.9000000953674316,28.5,0.0,0.0,0.0,0.0,C,646604061598636,,,,,,,,,,0.000000021420419216156006,0.000000007450580596923828,-0.00000011920928955078125,0.0,122880.0,0.0,-262144.0,196608.0
Raw,1773869683000,14543548903,18,0.0,-1457904886456451072,0.0,10.109046936035156,62242.71875,0.0,0,18,0.0,239,2082927835077,19,29.899999618530273,-186.1468505859375,0.16128772497177124,20,1675.6316585107415,0.11404655032753944,1600312400,,,,0,26.399999618530273,3,3.9000000953674316,24.899999618530273,0.0,0.0,0.0,0.0,C,646604061598636,,,,,,,,,,0.000000021420419216156006,0.000000007450580596923828,-0.00000011920928955078125,0.0,122880.0,0.0,-262144.0,196608.0
Raw,1773869683000,14543548903,18,0.0,-1457904886456451072,0.0,10.109046936035156,62242.71875,0.0,0,25,0.0,291,19841560,21,28.700000762939453,211.15003967285156,0.17803412675857544,20,-1892.9098922075063,0.1258879310309887,1561098000,,,,0,24.899999618530273,5,3.9000000953674316,23.700000762939453,0.0,0.0,0.0,0.0,C,646604061598636,,,,,,,,,,0.000000021420419216156006,0.000000007450580596923828,-0.00000011920928955078125,0.0,122880.0,0.0,-262144.0,196608.0
Raw,1773869683000,14543548903,18,0.0,-1457904886456451072,0.0,10.109046936035156,62242.71875,0.0,0,10,0.0,239,2082921677815,42,20.299999237060547,705.4234619140625,0.42718610167503357,16,0.0,0.3020632924944162,1598062500,,,,0,18.0,3,3.9000000953674316,15.300000190734863,0.0,0.0,0.0,0.0,C,646604061598636,,,,,,,,,,0.000000021420419216156006,0.000000007450580596923828,-0.00000011920928955078125,0.0,122880.0,0.0,-262144.0,196608.0
Raw,1773869684000,15543550064,18,0.0,-1457904886456450048,0.0,10.109046936035156,62242.7578125,0.0,0,7,0.0,47,336901924286428,10,44.79999923706055,-187.09947204589844,0.063129723072052,17,1878.992315852549,0.04463902718424797,1575420000,,,,0,35.5,1,3.9000000953674316,39.79999923706055,0.0,0.0,0.0,0.0,C,646605034970020,,25962148.15285611,6562299.042188641,511297.08816403244,-55.96871552468029,272.15776027728015,3127.8603757223473,-48682.52905644414,-0.0005618512004730292,0.000000021420419216156006,0.000000007450580596923828,-0.00000011920928955078125,0.0,122880.0,0.0,-262144.0,196608.0
Raw,1773869684000,15543550064,18,0.0,-1457904886456450048,0.0,10.109046936035156,62242.7578125,0.0,0,3,0.0,47,336901923601324,11,39.599998474121094,893.0448608398438,0.08353102952241898,17,-8922.574439069722,0.059064790975302456,1575420000,,,,0,32.5,1,3.9000000953674316,34.599998474121094,0.0,0.0,0.0,0.0,C,646605034970020,,12105013.238238055,21949991.46269373,8757211.984209422,154.56250512351397,1133.213669428086,-2976.8868733862755,160437.28010661583,-0.003948296594899148,0.000000021420419216156006,0.000000007450580596923828,-0.00000011920928955078125,0.0,122880.0,0.0,-262144.0,196608.0
Raw,1773869684000,15543550064,18,0.0,-1457904886456450048,0.0,10.109046936035156,62242.7578125,0.0,0,4,0.0,47,336901929393578,11,40.400001525878906,719.3237915039062,0.07979825884103775,22,-7181.542248080019,0.05642534882649779,1575420000,,,,0,30.100000381469727,1,3.9000000953674316,35.400001525878906,0.0,0.0,0.0,0.0,C,646605034970020,,9816081.767425599,11393820.579373777,21919921.183847096,-1993.3402110208406,1927.8804531448068,-126.48333391294636,14823.193593997381,0.0006301173489191569,0.000000021420419216156006,0.000000007450580596923828,-0.00000011920928955078125,0.0,122880.0,0.0,-262144.0,196608.0
Raw,1773869684000,15543550064,18,0.0,-1457904886456450048,0.0,10.109046936035156,62242.7578125,0.0,0,9,0.0,47,336901933503645,12,37.20000076293945,351.8258972167969,0.09644688665866852,17,-3509.2550644115545,0.0681975935563445,1575420000,,,,0,32.900001525878906,1,3.9000000953674316,32.20000076293945,0.0,0.0,0.0,0.0,C,646605034970020,,17350367.45181164,1418172.431540288,19987851.46672612,-1628.8466575903494,1972.006690995678,1260.433563030139,229577.08217639642,-0.0008219519513659179,0.000000021420419216156006,0.000000007450580596923828,-0.00000011920928955078125,0.0,122880.0,0.0,-262144.0,196608.0
Raw,1773869684000,15543550064,18,0.0,-1457904886456450048,0.0,10.109046936035156,62242.7578125,0.0,0,6,0.0,47,336901930087573,11,40.20000076293945,344.2262268066406,0.08070763945579529,22,-3431.972212622408,0.05706837185919284,1575420000,,,,0,31.299999237060547,1,3.9000000953674316,35.20000076293945,0.0,0.0,0.0,0.0,C,646605034970020,,19561432.562095407,-6378417.082420485,16949030.75797617,2026.0460421684106,660.4452629427827,-2082.5248584110736,-183680.8782421336,0.00039855725481174886,0.000000021420419216156006,0.000000007450580596923828,-0.00000011920928955078125,0.0,122880.0,0.0,-262144.0,196608.0
Raw,1773869684000,15543550064,18,0.0,-1457904886456450048,0.0,10.109046936035156,62242.7578125,0.0,0,11,0.0,47,336901923565473,17,31.700000762939453,-167.3448944091797,0.14027409255504608,20,1686.5802604570054,0.09918781084567307,1575420000,,,,0,23.899999618530273,1,3.9000000953674316,26.700000762939453,0.0,0.0,0.0,0.0,C,646605034970020,,5570741.134957983,-14162833.679187167,21816737.07961319,2645.6979257934127,775.7542553558139,-179.3826029589285,-120781.4120454384,0.004006594987004064,0.000000021420419216156006,0.000000007450580596923828,-0.00000011920928955078125,0.0,122880.0,0.0,-262144.0,196608.0
Raw,1773869684000,15543550064,18,0.0,-1457904886456450048,0.0,10.109046936035156,62242.7578125,0.0,0,30,0.0,47,336901916632672,23,27.100000381469727,-346.5428771972656,0.20474600791931152,20,3472.690386367496,0.14477590219974518,1575420000,,,,0,23.799999237060547,1,3.9000000953674316,22.100000381469727,0.0,0.0,0.0,0.0,C,646605034970020,,24368804.038328048,-2302948.104446344,-10434816.557642503,1249.3015937507957,590.8380035611837,2708.960258730818,47049.69377820571,0.004097844175703358,0.000000021420419216156006,0.000000007450580596923828,-0.00000011920928955078125,0.0,122880.0,0.0,-262144.0,196608.0
Raw,1773869684000,15543550064,18,0.0,-1457904886456450048,0.0,10.109046936035156,62242.7578125,0.0,0,19,0.0,47,336901920456495,24,26.5,921.6773071289062,0.21633315086364746,20,-9216.485056246165,0.1529691709756851,1575420000,,,,0,23.299999237060547,1,3.9000000953674316,21.5,0.0,0.0,0.0,0.0,C,646605034970020,,20381458.337377135,-16541255.470833803,-1126115.8715659452,116.73645964753011,344.22330310832933,-3199.340223307096,208105.26728951558,-0.0006879071879666299,0.000000021420419216156006,0.000000007450580596923828,-0.00000011920928955078125,0.0,122880.0,0.0,-262144.0,196608.0
Raw,1773869684000,15543550064,18,0.0,-1457904886456450048,0.0,10.109046936035156,62242.7578125,0.0,0,21,0.0,47,336901917660486,29,24.299999237060547,-262.48828125,0.2684636116027832,20,2635.313046955969,0.189830619764328,1575420000,,,,0,19.100000381469727,1,3.9000000953674316,19.299999237060547,0.0,0.0,0.0,0.0,C,646605034970020,,3760165.8960745875,-22393639.879468713,13757438.589795196,671.7069663950281,1626.665008297658,2468.8819217910177,122799.7443306747,0.0008412202587351203,0.000000021420419216156006,0.000000007450580596923828,-0.00000011920928955078125,0.0,122880.0,0.0,-262144.0,196608.0
Raw,1773869684000,15543550064,18,0.0,-1457904886456450048,0.0,10.109046936035156,62242.7578125,0.0,0,12,0.0,239,2083921617376,10,49.79999923706055,-398.6988220214844,0.04982461780309677,17,4001.758680911269,0.035230987248569726,1601437400,,,,0,45.099998474121094,3,3.9000000953674316,44.79999923706055,0.0,0.0,0.0,0.0,C,646605034970020,,,,,,,,,,0.000000021420419216156006,0.000000007450580596923828,-0.00000011920928955078125,0.0,122880.0,0.0,-262144.0,196608.0
Raw,1773869684000,15543550064,18,0.0,-1457904886456450048,0.0,10.109046936035156,62242.7578125,0.0,0,23,0.0,815,336887916572364,10,42.599998474121094,-186.08380126953125,0.07073336839675903,17,1870.267219544854,0.05001556479334831,1561098000,,,,0,38.099998474121094,5,3.9000000953674316,37.599998474121094,0.0,0.0,0.0,0.0,C,646605034970020,,19566119.5935419,19892756.778488714,164401.4265981695,-141.3380418570148,113.85544548694178,3062.674524963072,-143154.79420667197,0.0013604355917777866,0.000000021420419216156006,0.000000007450580596923828,-0.00000011920928955078125,0.0,122880.0,0.0,-262144.0,196608.0
Raw,1773869684000,15543550064,18,0.0,-1457904886456450048,0.0,10.109046936035156,62242.7578125,0.0,0,24,0.0,239,2083926463396,11,40.20000076293945,1132.551513671875,0.08070763945579529,17,-11310.267998842988,0.05706837185919284,1603125000,,,,0,38.400001525878906,3,3.9000000953674316,35.20000076293945,0.0,0.0,0.0,0.0,C,646605034970020,,,,,,,,,,0.000000021420419216156006,0.000000007450580596923828,-0.00000011920928955078125,0.0,122880.0,0.0,-262144.0,196608.0
Raw,1773869684000,15543550064,18,0.0,-1457904886456450048,0.0,10.109046936035156,62242.7578125,0.0,0,17,0.0,239,2083933804218,11,39.79999923706055,492.9933776855469,0.08257365971803665,17,-4915.336404202972,0.05838783478662371,1604250000,,,,0,35.400001525878906,3,3.9000000953674316,34.79999923706055,0.0,0.0,0.0,0.0,C,646605034970020,,,,,,,,,,0.000000021420419216156006,0.000000007450580596923828,-0.00000011920928955078125,0.0,122880.0,0.0,-262144.0,196608.0
Raw,1773869684000,15543550064,18,0.0,-1457904886456450048,0.0,10.109046936035156,62242.7578125,0.0,0,32,0.0,815,336887926127171,11,39.400001525878906,224.3839874267578,0.08450513333082199,17,-2237.2441105791368,0.05975357977822422,1561098000,,,,0,33.599998474121094,5,3.9000000953674316,34.400001525878906,0.0,0.0,0.0,0.0,C,646605034970020,,16371713.676674655,-3963211.87033536,22257981.98694151,-662.3048766441661,2449.9746589681163,926.6613731138013,-280668.0912681427,0.0013163717230781913,0.000000021420419216156006,0.000000007450580596923828,-0.00000011920928955078125,0.0,122880.0,0.0,-262144.0,196608.0
