# 
# Header Description:
# 
# Version: v2.0.0.1 Platform: 10 Manufacturer: Xiaomi Model: Redmi Note 7
# 
# Raw,ElapsedRealtimeMillis,TimeNanos,LeapSecond,TimeUncertaintyNanos,FullBiasNanos,BiasNanos,BiasUncertaintyNanos,DriftNanosPerSecond,DriftUncertaintyNanosPerSecond,HardwareClockDiscontinuityCount,Svid,TimeOffsetNanos,State,ReceivedSvTimeNanos,ReceivedSvTimeUncertaintyNanos,Cn0DbHz,PseudorangeRateMetersPerSecond,PseudorangeRateUncertaintyMetersPerSecond,AccumulatedDeltaRangeState,AccumulatedDeltaRangeMeters,AccumulatedDeltaRangeUncertaintyMeters,CarrierFrequencyHz,CarrierCycles,CarrierPhase,CarrierPhaseUncertainty,MultipathIndicator,SnrInDb,ConstellationType,AgcDb,CarrierFrequencyHz
# 
# Fix,Provider,Latitude,Longitude,Altitude,Speed,Accuracy,(UTC)TimeInMs
# 
# Nav,Svid,Type,Status,MessageId,Sub-messageId,Data(Bytes)
# 
Fix,gps,45.101798,7.633963,316.098877,0.160000,3.216000,1774176984000
Raw,229673228,229676934000000,,,-1457982524498334987,-0.07413673400878906,37.38798841368407,-9.922837235661923,15.221067946740769,948,14,0.0,207,50183366942355,16,29.1,-322.5936279296875,0.23569999635219574,0,0.0,0.0,1.59806246E9,,,,0,,3,-1.07,1.59806246E9
Raw,229673228,229676934000000,,,-1457982524498334987,-0.07413673400878906,37.38798841368407,-9.922837235661923,15.221067946740769,948,24,0.0,207,50183366360599,10,34.0,-332.00634765625,0.23110000789165497,0,0.0,0.0,1.60312499E9,,,,0,,3,-1.07,1.60312499E9
Raw,229673229,229676934000000,,,-1457982524498334987,-0.07413673400878906,37.38798841368407,-9.922837235661923,15.221067946740769,948,23,0.0,207,50183363677177,17,28.8,548.0120239257812,0.2378000020980835,0,0.0,0.0,1.60368755E9,,,,0,,3,-1.07,1.60368755E9
Raw,229673230,229676934000000,,,-1457982524498334987,-0.07413673400878906,37.38798841368407,-9.922837235661923,15.221067946740769,948,16,0.0,15,39401359292483,12,32.7,-536.8258666992188,0.052400000393390656,0,0.0,0.0,1.57542003E9,,,,0,,1,-0.62,1.57542003E9
Raw,229673230,229676934000000,,,-1457982524498334987,-0.07413673400878906,37.38798841368407,-9.922837235661923,15.221067946740769,948,18,0.0,15,39401363310907,14,30.6,-164.69552612304688,0.030300000682473183,0,0.0,0.0,1.57542003E9,,,,0,,1,-0.62,1.57542003E9
Raw,229673232,229676934000000,,,-1457982524498334987,-0.07413673400878906,37.38798841368407,-9.922837235661923,15.221067946740769,948,23,0.0,15,39401350607458,40,21.6,-638.416259765625,0.8014999628067017,0,0.0,0.0,1.57542003E9,,,,0,,1,-0.62,1.57542003E9
Raw,229673232,229676934000000,,,-1457982524498334987,-0.07413673400878906,37.38798841368407,-9.922837235661923,15.221067946740769,948,25,0.0,15,39401352081394,27,24.8,678.9773559570312,0.6345000267028809,0,0.0,0.0,1.57542003E9,,,,0,,1,-0.62,1.57542003E9
Raw,229673233,229676934000000,,,-1457982524498334987,-0.07413673400878906,37.38798841368407,-9.922837235661923,15.221067946740769,948,26,0.0,15,39401363936175,11,33.3,-166.7595672607422,0.027400000020861626,0,0.0,0.0,1.57542003E9,,,,0,,1,-0.62,1.57542003E9
Raw,229673233,229676934000000,,,-1457982524498334987,-0.07413673400878906,37.38798841368407,-9.922837235661923,15.221067946740769,948,27,0.0,15,39401351770132,31,23.7,-625.1432495117188,0.6829999685287476,0,0.0,0.0,1.57542003E9,,,,0,,1,-0.62,1.57542003E9
Raw,229673234,229676934000000,,,-1457982524498334987,-0.07413673400878906,37.38798841368407,-9.922837235661923,15.221067946740769,948,28,0.0,15,39401355785124,13,31.0,598.8587036132812,0.047700002789497375,0,0.0,0.0,1.57542003E9,,,,0,,1,-0.62,1.57542003E9
Raw,229673234,229676934000000,,,-1457982524498334987,-0.07413673400878906,37.38798841368407,-9.922837235661923,15.221067946740769,948,31,0.0,15,39401359549384,8,36.6,368.6648864746094,0.019700000062584877,0,0.0,0.0,1.57542003E9,,,,0,,1,-0.62,1.57542003E9
Raw,229673235,229676934000000,,,-1457982524498334987,-0.07413673400878906,37.38798841368407,-9.922837235661923,15.221067946740769,948,13,0.0,15,39387302037438,70,17.3,-250.6211395263672,0.9194999933242798,0,0.0,0.0,1.56109798E9,,,,0,,5,-0.96,1.56109798E9
Raw,229673235,229676934000000,,,-1457982524498334987,-0.07413673400878906,37.38798841368407,-9.922837235661923,15.221067946740769,948,6,0.0,7183,39401337718313,27,24.9,426.9333801269531,0.5519999861717224,0,0.0,0.0,1.57542003E9,,,,0,,6,-0.43,1.57542003E9
Raw,229673236,229676934000000,,,-1457982524498334987,-0.07413673400878906,37.38798841368407,-9.922837235661923,15.221067946740769,948,13,0.0,7183,39401348416411,70,17.5,344.0129089355469,0.9404999613761902,0,0.0,0.0,1.57542003E9,,,,0,,6,-0.43,1.57542003E9
Raw,229673236,229676934000000,,,-1457982524498334987,-0.07413673400878906,37.38798841368407,-9.922837235661923,15.221067946740769,948,21,0.0,7183,39401347893875,35,22.1,376.4198913574219,0.6389999985694885,0,0.0,0.0,1.57542003E9,,,,0,,6,-0.43,1.57542003E9
Raw,229673237,229676934000000,,,-1457982524498334987,-0.07413673400878906,37.38798841368407,-9.922837235661923,15.221067946740769,948,23,0.0,7183,39401354700042,11,33.4,-68.92591094970703,0.04990000277757645,0,0.0,0.0,1.57542003E9,,,,0,,6,-0.43,1.57542003E9
Raw,229673237,229676934000000,,,-1457982524498334987,-0.07413673400878906,37.38798841368407,-9.922837235661923,15.221067946740769,948,26,0.0,7183,39401353606484,53,19.6,-202.1394500732422,0.8119999766349792,0,0.0,0.0,1.57542003E9,,,,0,,6,-0.43,1.57542003E9
Raw,229673238,229676934000000,,,-1457982524498334987,-0.07413673400878906,37.38798841368407,-9.922837235661923,15.221067946740769,948,31,0.0,7183,39401345907321,17,28.8,-442.6019287109375,0.058800000697374344,0,0.0,0.0,1.57542003E9,,,,0,,6,-0.43,1.57542003E9
Fix,gps,45.101800,7.633966,315.485229,0.000000,3.216000,1774176985000
Raw,229674251,229677934000000,,,-1457982524498334992,-0.1405315399169922,32.16894037905149,-3.933362936801383,10.649261570664802,948,14,0.0,207,50184366943412,24,25.9,-322.2596740722656,0.5907999873161316,0,0.0,0.0,1.59806246E9,,,,0,,3,-1.06,1.59806246E9
Raw,229674252,229677934000000,,,-1457982524498334992,-0.1405315399169922,32.16894037905149,-3.933362936801383,10.649261570664802,948,24,0.0,207,50184366361685,10,34.1,-331.6610107421875,0.23110000789165497,0,0.0,0.0,1.60312499E9,,,,0,,3,-1.06,1.60312499E9
Raw,229674252,229677934000000,,,-1457982524498334992,-0.1405315399169922,32.16894037905149,-3.933362936801383,10.649261570664802,948,23,0.0,207,50184363675373,16,29.3,548.3226318359375,0.23119999468326569,0,0.0,0.0,1.60368755E9,,,,0,,3,-1.06,1.60368755E9
Raw,229674253,229677934000000,,,-1457982524498334992,-0.1405315399169922,32.16894037905149,-3.933362936801383,10.649261570664802,948,16,0.0,15,39402359294260,12,32.6,-536.573486328125,0.052400000393390656,0,0.0,0.0,1.57542003E9,,,,0,,1,-0.59,1.57542003E9
Raw,229674253,229677934000000,,,-1457982524498334992,-0.1405315399169922,32.16894037905149,-3.933362936801383,10.649261570664802,948,18,0.0,15,39402363311436,14,30.5,-164.36746215820312,0.030300000682473183,0,0.0,0.0,1.57542003E9,,,,0,,1,-0.59,1.57542003E9
Raw,229674254,229677934000000,,,-1457982524498334992,-0.1405315399169922,32.16894037905149,-3.933362936801383,10.649261570664802,948,23,0.0,15,39402350609684,40,21.5,-638.4828491210938,0.8014999628067017,0,0.0,0.0,1.57542003E9,,,,0,,1,-0.59,1.57542003E9
Raw,229674254,229677934000000,,,-1457982524498334992,-0.1405315399169922,32.16894037905149,-3.933362936801383,10.649261570664802,948,25,0.0,15,39402352079114,27,24.8,679.005859375,0.6345000267028809,0,0.0,0.0,1.57542003E9,,,,0,,1,-0.59,1.57542003E9
Raw,229674255,229677934000000,,,-1457982524498334992,-0.1405315399169922,32.16894037905149,-3.933362936801383,10.649261570664802,948,26,0.0,15,39402363936706,10,34.0,-166.43165588378906,0.026600001379847527,0,0.0,0.0,1.57542003E9,,,,0,,1,-0.59,1.57542003E9
Raw,229674256,229677934000000,,,-1457982524498334992,-0.1405315399169922,32.16894037905149,-3.933362936801383,10.649261570664802,948,27,0.0,15,39402351772111,31,23.5,-624.7721557617188,0.6829999685287476,0,0.0,0.0,1.57542003E9,,,,0,,1,-0.59,1.57542003E9
Raw,229674256,229677934000000,,,-1457982524498334992,-0.1405315399169922,32.16894037905149,-3.933362936801383,10.649261570664802,948,28,0.0,15,39402355783124,14,30.9,599.1888427734375,0.04830000177025795,0,0.0,0.0,1.57542003E9,,,,0,,1,-0.59,1.57542003E9
Raw,229674257,229677934000000,,,-1457982524498334992,-0.1405315399169922,32.16894037905149,-3.933362936801383,10.649261570664802,948,31,0.0,15,39402359548151,7,37.4,369.029052734375,0.019100001081824303,0,0.0,0.0,1.57542003E9,,,,0,,1,-0.59,1.57542003E9
Raw,229674258,229677934000000,,,-1457982524498334992,-0.1405315399169922,32.16894037905149,-3.933362936801383,10.649261570664802,948,13,0.0,15,39388302038249,61,18.7,-249.5169219970703,0.8495000004768372,0,0.0,0.0,1.56109798E9,,,,0,,5,-0.99,1.56109798E9
Raw,229674258,229677934000000,,,-1457982524498334992,-0.1405315399169922,32.16894037905149,-3.933362936801383,10.649261570664802,948,6,0.0,7183,39402337716889,27,24.2,427.1712341308594,0.5519999861717224,0,0.0,0.0,1.57542003E9,,,,0,,6,-0.31,1.57542003E9
Raw,229674259,229677934000000,,,-1457982524498334992,-0.1405315399169922,32.16894037905149,-3.933362936801383,10.649261570664802,948,13,0.0,7183,39402348415202,70,17.5,344.7835693359375,0.9404999613761902,0,0.0,0.0,1.57542003E9,,,,0,,6,-0.31,1.57542003E9
Raw,229674259,229677934000000,,,-1457982524498334992,-0.1405315399169922,32.16894037905149,-3.933362936801383,10.649261570664802,948,21,0.0,7183,39402347892624,35,22.6,377.2286376953125,0.6389999985694885,0,0.0,0.0,1.57542003E9,,,,0,,6,-0.31,1.57542003E9
Raw,229674260,229677934000000,,,-1457982524498334992,-0.1405315399169922,32.16894037905149,-3.933362936801383,10.649261570664802,948,23,0.0,7183,39402354700280,10,34.5,-68.81509399414062,0.04910000041127205,0,0.0,0.0,1.57542003E9,,,,0,,6,-0.31,1.57542003E9
Raw,229674260,229677934000000,,,-1457982524498334992,-0.1405315399169922,32.16894037905149,-3.933362936801383,10.649261570664802,948,26,0.0,7183,39402353607161,53,19.8,-202.1394500732422,0.8119999766349792,0,0.0,0.0,1.57542003E9,,,,0,,6,-0.31,1.57542003E9
Raw,229674261,229677934000000,,,-1457982524498334992,-0.1405315399169922,32.16894037905149,-3.933362936801383,10.649261570664802,948,31,0.0,7183,39402345908814,14,30.0,-442.5888671875,0.05130000039935112,0,0.0,0.0,1.57542003E9,,,,0,,6,-0.31,1.57542003E9
Fix,gps,45.101798,7.633966,315.386230,0.000000,3.216000,1774176986000
Raw,229675260,229678934000000,,,-1457982524498334993,-0.03460121154785156,30.67485522478819,-3.3787796562763956,10.455800465017493,948,14,0.0,207,50185366944541,24,25.7,-321.2499694824219,0.5907999873161316,0,0.0,0.0,1.59806246E9,,,,0,,3,-0.98,1.59806246E9
Raw,229675261,229678934000000,,,-1457982524498334993,-0.03460121154785156,30.67485522478819,-3.3787796562763956,10.455800465017493,948,24,0.0,207,50185366362810,10,34.1,-331.1336669921875,0.23110000789165497,0,0.0,0.0,1.60312499E9,,,,0,,3,-0.98,1.60312499E9
Raw,229675262,229678934000000,,,-1457982524498334993,-0.03460121154785156,30.67485522478819,-3.3787796562763956,10.455800465017493,948,23,0.0,207,50185363673565,17,28.7,548.8222045898438,0.2378000020980835,0,0.0,0.0,1.60368755E9,,,,0,,3,-0.98,1.60368755E9
Raw,229675262,229678934000000,,,-1457982524498334993,-0.03460121154785156,30.67485522478819,-3.3787796562763956,10.455800465017493,948,16,0.0,15,39403359296028,12,32.6,-536.140869140625,0.052400000393390656,0,0.0,0.0,1.57542003E9,,,,0,,1,-0.43,1.57542003E9
Raw,229675263,229678934000000,,,-1457982524498334993,-0.03460121154785156,30.67485522478819,-3.3787796562763956,10.455800465017493,948,18,0.0,15,39403363311977,14,30.3,-163.78042602539062,0.030300000682473183,0,0.0,0.0,1.57542003E9,,,,0,,1,-0.43,1.57542003E9
Raw,229675263,229678934000000,,,-1457982524498334993,-0.03460121154785156,30.67485522478819,-3.3787796562763956,10.455800465017493,948,23,0.0,15,39403350611788,46,20.4,-637.66455078125,0.9314999580383301,0,0.0,0.0,1.57542003E9,,,,0,,1,-0.43,1.57542003E9
Raw,229675264,229678934000000,,,-1457982524498334993,-0.03460121154785156,30.67485522478819,-3.3787796562763956,10.455800465017493,948,25,0.0,15,39403352076862,27,24.3,679.405517578125,0.684499979019165,0,0.0,0.0,1.57542003E9,,,,0,,1,-0.43,1.57542003E9
Raw,229675264,229678934000000,,,-1457982524498334993,-0.03460121154785156,30.67485522478819,-3.3787796562763956,10.455800465017493,948,26,0.0,15,39403363937282,11,33.8,-165.87142944335938,0.027400000020861626,0,0.0,0.0,1.57542003E9,,,,0,,1,-0.43,1.57542003E9
Raw,229675265,229678934000000,,,-1457982524498334993,-0.03460121154785156,30.67485522478819,-3.3787796562763956,10.455800465017493,948,27,0.0,15,39403351774194,31,23.8,-625.0386352539062,0.6829999685287476,0,0.0,0.0,1.57542003E9,,,,0,,1,-0.43,1.57542003E9
Raw,229675266,229678934000000,,,-1457982524498334993,-0.03460121154785156,30.67485522478819,-3.3787796562763956,10.455800465017493,948,28,0.0,15,39403355781150,13,31.3,599.6268920898438,0.047700002789497375,0,0.0,0.0,1.57542003E9,,,,0,,1,-0.43,1.57542003E9
Raw,229675266,229678934000000,,,-1457982524498334993,-0.03460121154785156,30.67485522478819,-3.3787796562763956,10.455800465017493,948,31,0.0,15,39403359546936,7,37.8,369.562744140625,0.019100001081824303,0,0.0,0.0,1.57542003E9,,,,0,,1,-0.43,1.57542003E9
Raw,229675267,229678934000000,,,-1457982524498334993,-0.03460121154785156,30.67485522478819,-3.3787796562763956,10.455800465017493,948,13,0.0,15,39389302039098,61,18.9,-250.52513122558594,0.8495000004768372,0,0.0,0.0,1.56109798E9,,,,0,,5,-1.08,1.56109798E9
Raw,229675267,229678934000000,,,-1457982524498334993,-0.03460121154785156,30.67485522478819,-3.3787796562763956,10.455800465017493,948,6,0.0,7183,39403337715467,27,24.0,427.5803527832031,0.5519999861717224,0,0.0,0.0,1.57542003E9,,,,0,,6,-0.39,1.57542003E9
Raw,229675269,229678934000000,,,-1457982524498334993,-0.03460121154785156,30.67485522478819,-3.3787796562763956,10.455800465017493,948,21,0.0,7183,39403347891355,35,22.8,376.99078369140625,0.6389999985694885,0,0.0,0.0,1.57542003E9,,,,0,,6,-0.39,1.57542003E9
Raw,229675269,229678934000000,,,-1457982524498334993,-0.03460121154785156,30.67485522478819,-3.3787796562763956,10.455800465017493,948,23,0.0,7183,39403354700508,10,34.6,-68.39521789550781,0.04910000041127205,0,0.0,0.0,1.57542003E9,,,,0,,6,-0.39,1.57542003E9
Raw,229675270,229678934000000,,,-1457982524498334993,-0.03460121154785156,30.67485522478819,-3.3787796562763956,10.455800465017493,948,26,0.0,7183,39403353607803,53,19.3,-202.1489715576172,0.8119999766349792,0,0.0,0.0,1.57542003E9,,,,0,,6,-0.39,1.57542003E9
Raw,229675270,229678934000000,,,-1457982524498334993,-0.03460121154785156,30.67485522478819,-3.3787796562763956,10.455800465017493,948,31,0.0,7183,39403345910291,14,30.0,-442.1661682128906,0.05130000039935112,0,0.0,0.0,1.57542003E9,,,,0,,6,-0.39,1.57542003E9
Fix,gps,45.101797,7.633966,315.141846,0.000000,3.216000,1774176987000
Raw,229676259,229679934000000,,,-1457982524498334995,-0.3293800354003906,29.99154276039917,-2.2705276658190092,10.455107777203454,948,14,0.0,207,50186366945710,24,25.9,-320.437255859375,0.5907999873161316,0,0.0,0.0,1.59806246E9,,,,0,,3,-1.21,1.59806246E9
Raw,229676260,229679934000000,,,-1457982524498334995,-0.3293800354003906,29.99154276039917,-2.2705276658190092,10.455107777203454,948,24,0.0,207,50186366363911,11,33.6,-329.9046325683594,0.23190000653266907,0,0.0,0.0,1.60312499E9,,,,0,,3,-1.21,1.60312499E9
Raw,229676261,229679934000000,,,-1457982524498334995,-0.3293800354003906,29.99154276039917,-2.2705276658190092,10.455107777203454,948,23,0.0,207,50186363671705,19,27.4,550.0823974609375,0.24580000340938568,0,0.0,0.0,1.60368755E9,,,,0,,3,-1.21,1.60368755E9
Raw,229676262,229679934000000,,,-1457982524498334995,-0.3293800354003906,29.99154276039917,-2.2705276658190092,10.455107777203454,948,16,0.0,15,39404359297830,13,31.9,-534.9827270507812,0.053700003772974014,0,0.0,0.0,1.57542003E9,,,,0,,1,-0.46,1.57542003E9
Raw,229676263,229679934000000,,,-1457982524498334995,-0.3293800354003906,29.99154276039917,-2.2705276658190092,10.455107777203454,948,18,0.0,15,39404363312526,13,31.8,-162.58384704589844,0.02970000170171261,0,0.0,0.0,1.57542003E9,,,,0,,1,-0.46,1.57542003E9
Raw,229676263,229679934000000,,,-1457982524498334995,-0.3293800354003906,29.99154276039917,-2.2705276658190092,10.455107777203454,948,23,0.0,15,39404350613993,46,20.9,-636.5037841796875,0.8614999651908875,0,0.0,0.0,1.57542003E9,,,,0,,1,-0.46,1.57542003E9
Raw,229676264,229679934000000,,,-1457982524498334995,-0.3293800354003906,29.99154276039917,-2.2705276658190092,10.455107777203454,948,25,0.0,15,39404352074609,27,24.1,680.5567626953125,0.684499979019165,0,0.0,0.0,1.57542003E9,,,,0,,1,-0.46,1.57542003E9
Raw,229676266,229679934000000,,,-1457982524498334995,-0.3293800354003906,29.99154276039917,-2.2705276658190092,10.455107777203454,948,26,0.0,15,39404363937832,9,35.7,-164.68563842773438,0.026100000366568565,0,0.0,0.0,1.57542003E9,,,,0,,1,-0.46,1.57542003E9
Raw,229676267,229679934000000,,,-1457982524498334995,-0.3293800354003906,29.99154276039917,-2.2705276658190092,10.455107777203454,948,27,0.0,15,39404351776385,35,22.4,-623.5543212890625,0.8029999732971191,0,0.0,0.0,1.57542003E9,,,,0,,1,-0.46,1.57542003E9
Raw,229676268,229679934000000,,,-1457982524498334995,-0.3293800354003906,29.99154276039917,-2.2705276658190092,10.455107777203454,948,28,0.0,15,39404355779127,13,31.6,600.7380981445312,0.047700002789497375,0,0.0,0.0,1.57542003E9,,,,0,,1,-0.46,1.57542003E9
Raw,229676268,229679934000000,,,-1457982524498334995,-0.3293800354003906,29.99154276039917,-2.2705276658190092,10.455107777203454,948,31,0.0,15,39404359545698,7,37.9,370.7760314941406,0.019100001081824303,0,0.0,0.0,1.57542003E9,,,,0,,1,-0.46,1.57542003E9
Raw,229676269,229679934000000,,,-1457982524498334995,-0.3293800354003906,29.99154276039917,-2.2705276658190092,10.455107777203454,948,13,0.0,15,39390302039968,61,18.9,-247.88458251953125,0.8495000004768372,0,0.0,0.0,1.56109798E9,,,,0,,5,-1.06,1.56109798E9
Raw,229676269,229679934000000,,,-1457982524498334995,-0.3293800354003906,29.99154276039917,-2.2705276658190092,10.455107777203454,948,6,0.0,7183,39404337714033,31,23.7,428.73162841796875,0.6019999980926514,0,0.0,0.0,1.57542003E9,,,,0,,6,-0.19,1.57542003E9
Raw,229676270,229679934000000,,,-1457982524498334995,-0.3293800354003906,29.99154276039917,-2.2705276658190092,10.455107777203454,948,13,0.0,7183,39404348412948,110,14.3,345.8016662597656,1.940500020980835,0,0.0,0.0,1.57542003E9,,,,0,,6,-0.19,1.57542003E9
Raw,229676270,229679934000000,,,-1457982524498334995,-0.3293800354003906,29.99154276039917,-2.2705276658190092,10.455107777203454,948,21,0.0,7183,39404347890122,35,22.8,377.8090515136719,0.6389999985694885,0,0.0,0.0,1.57542003E9,,,,0,,6,-0.19,1.57542003E9
Raw,229676271,229679934000000,,,-1457982524498334995,-0.3293800354003906,29.99154276039917,-2.2705276658190092,10.455107777203454,948,23,0.0,7183,39404354700728,10,34.4,-67.23917388916016,0.04910000041127205,0,0.0,0.0,1.57542003E9,,,,0,,6,-0.19,1.57542003E9
Raw,229676271,229679934000000,,,-1457982524498334995,-0.3293800354003906,29.99154276039917,-2.2705276658190092,10.455107777203454,948,26,0.0,7183,39404353608522,35,22.2,-200.98818969726562,0.6420000195503235,0,0.0,0.0,1.57542003E9,,,,0,,6,-0.19,1.57542003E9
Raw,229676272,229679934000000,,,-1457982524498334995,-0.3293800354003906,29.99154276039917,-2.2705276658190092,10.455107777203454,948,31,0.0,7183,39404345911757,16,29.2,-441.03265380859375,0.05220000073313713,0,0.0,0.0,1.57542003E9,,,,0,,6,-0.19,1.57542003E9
Fix,gps,45.101799,7.633968,315.541016,0.000000,3.216000,1774176988000
Raw,229677258,229680934000000,,,-1457982524498334992,-0.6769733428955078,29.260363589855842,1.0344868022628788,10.630656818975211,948,14,0.0,207,50187366946727,10,34.4,-319.3377685546875,0.515500009059906,0,0.0,0.0,1.59806246E9,,,,0,,3,-1.15,1.59806246E9
Raw,229677259,229680934000000,,,-1457982524498334992,-0.6769733428955078,29.260363589855842,1.0344868022628788,10.630656818975211,948,24,0.0,207,50187366365012,9,35.6,-328.8143005371094,0.2305999994277954,0,0.0,0.0,1.60312499E9,,,,0,,3,-1.15,1.60312499E9
Raw,229677259,229680934000000,,,-1457982524498334992,-0.6769733428955078,29.260363589855842,1.0344868022628788,10.630656818975211,948,23,0.0,207,50187363669938,46,20.5,549.9197387695312,1.121000051498413,0,0.0,0.0,1.60368755E9,,,,0,,3,-1.15,1.60368755E9
Raw,229677260,229680934000000,,,-1457982524498334992,-0.6769733428955078,29.260363589855842,1.0344868022628788,10.630656818975211,948,5,0.0,15,39405353388794,241,12.5,122.0733871459961,7.616000175476074,0,0.0,0.0,1.57542003E9,,,,0,,1,-0.3,1.57542003E9
Raw,229677260,229680934000000,,,-1457982524498334992,-0.6769733428955078,29.260363589855842,1.0344868022628788,10.630656818975211,948,16,0.0,15,39405359299607,17,28.0,-533.9005126953125,0.06180000305175781,0,0.0,0.0,1.57542003E9,,,,0,,1,-0.3,1.57542003E9
Raw,229677261,229680934000000,,,-1457982524498334992,-0.6769733428955078,29.260363589855842,1.0344868022628788,10.630656818975211,948,18,0.0,15,39405363313057,19,27.7,-161.24737548828125,0.04580000042915344,0,0.0,0.0,1.57542003E9,,,,0,,1,-0.3,1.57542003E9
Raw,229677262,229680934000000,,,-1457982524498334992,-0.6769733428955078,29.260363589855842,1.0344868022628788,10.630656818975211,948,25,0.0,15,39405352072352,31,23.8,681.3464965820312,0.684499979019165,0,0.0,0.0,1.57542003E9,,,,0,,1,-0.3,1.57542003E9
Raw,229677262,229680934000000,,,-1457982524498334992,-0.6769733428955078,29.260363589855842,1.0344868022628788,10.630656818975211,948,26,0.0,15,39405363938371,8,36.7,-163.6120147705078,0.025700001046061516,0,0.0,0.0,1.57542003E9,,,,0,,1,-0.3,1.57542003E9
Raw,229677263,229680934000000,,,-1457982524498334992,-0.6769733428955078,29.260363589855842,1.0344868022628788,10.630656818975211,948,27,0.0,15,39405351778507,31,23.6,-621.8987426757812,0.6829999685287476,0,0.0,0.0,1.57542003E9,,,,0,,1,-0.3,1.57542003E9
Raw,229677263,229680934000000,,,-1457982524498334992,-0.6769733428955078,29.260363589855842,1.0344868022628788,10.630656818975211,948,28,0.0,15,39405355777100,8,36.8,601.8051147460938,0.04370000213384628,0,0.0,0.0,1.57542003E9,,,,0,,1,-0.3,1.57542003E9
Raw,229677264,229680934000000,,,-1457982524498334992,-0.6769733428955078,29.260363589855842,1.0344868022628788,10.630656818975211,948,29,0.0,15,39405358724400,265,11.3,458.80755615234375,7.893500328063965,0,0.0,0.0,1.57542003E9,,,,0,,1,-0.3,1.57542003E9
Raw,229677265,229680934000000,,,-1457982524498334992,-0.6769733428955078,29.260363589855842,1.0344868022628788,10.630656818975211,948,31,0.0,15,39405359544457,8,36.4,371.8824768066406,0.019700000062584877,0,0.0,0.0,1.57542003E9,,,,0,,1,-0.3,1.57542003E9
Raw,229677265,229680934000000,,,-1457982524498334992,-0.6769733428955078,29.260363589855842,1.0344868022628788,10.630656818975211,948,13,0.0,7183,39405348411702,61,18.3,347.4096374511719,0.8704999685287476,0,0.0,0.0,1.57542003E9,,,,0,,6,-0.06,1.57542003E9
Raw,229677266,229680934000000,,,-1457982524498334992,-0.6769733428955078,29.260363589855842,1.0344868022628788,10.630656818975211,948,21,0.0,7183,39405347888850,21,26.2,379.2950134277344,0.13369999825954437,0,0.0,0.0,1.57542003E9,,,,0,,6,-0.06,1.57542003E9
Raw,229677266,229680934000000,,,-1457982524498334992,-0.6769733428955078,29.260363589855842,1.0344868022628788,10.630656818975211,948,23,0.0,7183,39405354700957,11,33.7,-66.2536849975586,0.04990000277757645,0,0.0,0.0,1.57542003E9,,,,0,,6,-0.06,1.57542003E9
Raw,229677267,229680934000000,,,-1457982524498334992,-0.6769733428955078,29.260363589855842,1.0344868022628788,10.630656818975211,948,26,0.0,7183,39405353609210,19,27.2,-199.9017333984375,0.06680000573396683,0,0.0,0.0,1.57542003E9,,,,0,,6,-0.06,1.57542003E9
Raw,229677267,229680934000000,,,-1457982524498334992,-0.6769733428955078,29.260363589855842,1.0344868022628788,10.630656818975211,948,31,0.0,7183,39405345913212,11,33.2,-440.10308837890625,0.04840000346302986,0,0.0,0.0,1.57542003E9,,,,0,,6,-0.06,1.57542003E9
Fix,gps,45.101800,7.633970,315.735107,0.000000,3.216000,1774176989000
Raw,229678263,229681934000000,,,-1457982524498334984,-0.7495555877685547,32.742798794060946,3.9048517950365005,13.23616902741448,948,14,0.0,207,50188366947763,9,35.5,-318.7611389160156,0.2305999994277954,0,0.0,0.0,1.59806246E9,,,,0,,3,-1.84,1.59806246E9
Raw,229678263,229681934000000,,,-1457982524498334984,-0.7495555877685547,32.742798794060946,3.9048517950365005,13.23616902741448,948,24,0.0,207,50188366366124,10,34.0,-328.25933837890625,0.23110000789165497,0,0.0,0.0,1.60312499E9,,,,0,,3,-1.84,1.60312499E9
Raw,229678264,229681934000000,,,-1457982524498334984,-0.7495555877685547,32.742798794060946,3.9048517950365005,13.23616902741448,948,16,0.0,15,39406359301372,21,26.9,-533.21435546875,0.1397000104188919,0,0.0,0.0,1.57542003E9,,,,0,,1,-0.63,1.57542003E9
Raw,229678265,229681934000000,,,-1457982524498334984,-0.7495555877685547,32.742798794060946,3.9048517950365005,13.23616902741448,948,18,0.0,15,39406363313612,16,29.7,-160.89404296875,0.031200001016259193,0,0.0,0.0,1.57542003E9,,,,0,,1,-0.63,1.57542003E9
Raw,229678266,229681934000000,,,-1457982524498334984,-0.7495555877685547,32.742798794060946,3.9048517950365005,13.23616902741448,948,25,0.0,15,39406352070073,61,18.7,681.3464965820312,1.0145000219345093,0,0.0,0.0,1.57542003E9,,,,0,,1,-0.63,1.57542003E9
Raw,229678267,229681934000000,,,-1457982524498334984,-0.7495555877685547,32.742798794060946,3.9048517950365005,13.23616902741448,948,26,0.0,15,39406363938927,6,38.3,-163.04029846191406,0.02460000105202198,0,0.0,0.0,1.57542003E9,,,,0,,1,-0.63,1.57542003E9
Raw,229678268,229681934000000,,,-1457982524498334984,-0.7495555877685547,32.742798794060946,3.9048517950365005,13.23616902741448,948,27,0.0,15,39406351780473,70,17.8,-621.5277099609375,1.0929999351501465,0,0.0,0.0,1.57542003E9,,,,0,,1,-0.63,1.57542003E9
Raw,229678268,229681934000000,,,-1457982524498334984,-0.7495555877685547,32.742798794060946,3.9048517950365005,13.23616902741448,948,28,0.0,15,39406355775086,12,32.9,602.3937377929688,0.046400003135204315,0,0.0,0.0,1.57542003E9,,,,0,,1,-0.63,1.57542003E9
Raw,229678269,229681934000000,,,-1457982524498334984,-0.7495555877685547,32.742798794060946,3.9048517950365005,13.23616902741448,948,29,0.0,15,39406358723007,46,20.3,458.7790222167969,0.9434999823570251,0,0.0,0.0,1.57542003E9,,,,0,,1,-0.63,1.57542003E9
Raw,229678270,229681934000000,,,-1457982524498334984,-0.7495555877685547,32.742798794060946,3.9048517950365005,13.23616902741448,948,31,0.0,15,39406359543205,9,35.4,372.4018249511719,0.020100001245737076,0,0.0,0.0,1.57542003E9,,,,0,,1,-0.63,1.57542003E9
Raw,229678270,229681934000000,,,-1457982524498334984,-0.7495555877685547,32.742798794060946,3.9048517950365005,13.23616902741448,948,13,0.0,15,39392302041528,96,15.6,-247.2892608642578,1.8294999599456787,0,0.0,0.0,1.56109798E9,,,,0,,5,-0.88,1.56109798E9
Raw,229678270,229681934000000,,,-1457982524498334984,-0.7495555877685547,32.742798794060946,3.9048517950365005,13.23616902741448,948,6,0.0,7183,39406337711138,55,19.5,429.24542236328125,1.562000036239624,0,0.0,0.0,1.57542003E9,,,,0,,6,-0.39,1.57542003E9
Raw,229678271,229681934000000,,,-1457982524498334984,-0.7495555877685547,32.742798794060946,3.9048517950365005,13.23616902741448,948,13,0.0,7183,39406348410517,61,18.2,348.056640625,0.8704999685287476,0,0.0,0.0,1.57542003E9,,,,0,,6,-0.39,1.57542003E9
Raw,229678272,229681934000000,,,-1457982524498334984,-0.7495555877685547,32.742798794060946,3.9048517950365005,13.23616902741448,948,21,0.0,7183,39406347887569,21,26.4,379.74908447265625,0.13369999825954437,0,0.0,0.0,1.57542003E9,,,,0,,6,-0.39,1.57542003E9
Raw,229678272,229681934000000,,,-1457982524498334984,-0.7495555877685547,32.742798794060946,3.9048517950365005,13.23616902741448,948,23,0.0,7183,39406354701182,13,31.2,-65.66535949707031,0.05220000073313713,0,0.0,0.0,1.57542003E9,,,,0,,6,-0.39,1.57542003E9
Raw,229678273,229681934000000,,,-1457982524498334984,-0.7495555877685547,32.742798794060946,3.9048517950365005,13.23616902741448,948,26,0.0,7183,39406353609899,31,23.6,-199.27554321289062,0.6019999980926514,0,0.0,0.0,1.57542003E9,,,,0,,6,-0.39,1.57542003E9
Raw,229678273,229681934000000,,,-1457982524498334984,-0.7495555877685547,32.742798794060946,3.9048517950365005,13.23616902741448,948,31,0.0,7183,39406345914688,24,25.8,-439.4590759277344,0.4072999954223633,0,0.0,0.0,1.57542003E9,,,,0,,6,-0.39,1.57542003E9
Fix,gps,45.101802,7.633972,315.717529,0.250000,3.216000,1774176990000
Raw,229679268,229682934000000,,,-1457982524498334974,-0.6167659759521484,32.59500954300165,6.3183713800886485,13.2114080227186,948,14,0.0,207,50189366948804,11,33.4,-318.81036376953125,0.23190000653266907,0,0.0,0.0,1.59806246E9,,,,0,,3,-2.04,1.59806246E9
Raw,229679269,229682934000000,,,-1457982524498334974,-0.6167659759521484,32.59500954300165,6.3183713800886485,13.2114080227186,948,24,0.0,207,50189366367198,11,33.3,-328.2483215332031,0.23190000653266907,0,0.0,0.0,1.60312499E9,,,,0,,3,-2.04,1.60312499E9
Raw,229679269,229682934000000,,,-1457982524498334974,-0.6167659759521484,32.59500954300165,6.3183713800886485,13.2114080227186,948,23,0.0,207,50189363666165,64,18.4,551.2657470703125,2.0310001373291016,0,0.0,0.0,1.60368755E9,,,,0,,3,-2.04,1.60368755E9
Raw,229679270,229682934000000,,,-1457982524498334974,-0.6167659759521484,32.59500954300165,6.3183713800886485,13.2114080227186,948,5,0.0,15,39407353388048,110,14.1,122.51106262207031,2.246000051498413,0,0.0,0.0,1.57542003E9,,,,0,,1,-0.62,1.57542003E9
Raw,229679271,229682934000000,,,-1457982524498334974,-0.6167659759521484,32.59500954300165,6.3183713800886485,13.2114080227186,948,16,0.0,15,39407359303145,14,30.1,-533.6640625,0.05430000275373459,0,0.0,0.0,1.57542003E9,,,,0,,1,-0.62,1.57542003E9
Raw,229679271,229682934000000,,,-1457982524498334974,-0.6167659759521484,32.59500954300165,6.3183713800886485,13.2114080227186,948,18,0.0,15,39407363314146,12,32.0,-160.9031982421875,0.0284000001847744,0,0.0,0.0,1.57542003E9,,,,0,,1,-0.62,1.57542003E9
Raw,229679272,229682934000000,,,-1457982524498334974,-0.6167659759521484,32.59500954300165,6.3183713800886485,13.2114080227186,948,23,0.0,15,39407350620176,90,16.3,-635.695068359375,2.7715001106262207,0,0.0,0.0,1.57542003E9,,,,0,,1,-0.62,1.57542003E9
Raw,229679272,229682934000000,,,-1457982524498334974,-0.6167659759521484,32.59500954300165,6.3183713800886485,13.2114080227186,948,25,0.0,15,39407352067797,24,25.4,681.7987060546875,0.39980000257492065,0,0.0,0.0,1.57542003E9,,,,0,,1,-0.62,1.57542003E9
Raw,229679273,229682934000000,,,-1457982524498334974,-0.6167659759521484,32.59500954300165,6.3183713800886485,13.2114080227186,948,26,0.0,15,39407363939472,6,38.2,-163.0773162841797,0.02460000105202198,0,0.0,0.0,1.57542003E9,,,,0,,1,-0.62,1.57542003E9
Raw,229679274,229682934000000,,,-1457982524498334974,-0.6167659759521484,32.59500954300165,6.3183713800886485,13.2114080227186,948,27,0.0,15,39407351782616,17,28.6,-622.1527709960938,0.049800001084804535,0,0.0,0.0,1.57542003E9,,,,0,,1,-0.62,1.57542003E9
Raw,229679275,229682934000000,,,-1457982524498334974,-0.6167659759521484,32.59500954300165,6.3183713800886485,13.2114080227186,948,28,0.0,15,39407355773067,14,30.9,602.3612670898438,0.04830000177025795,0,0.0,0.0,1.57542003E9,,,,0,,1,-0.62,1.57542003E9
Raw,229679276,229682934000000,,,-1457982524498334974,-0.6167659759521484,32.59500954300165,6.3183713800886485,13.2114080227186,948,29,0.0,15,39407358721599,46,20.6,459.0549621582031,0.8734999895095825,0,0.0,0.0,1.57542003E9,,,,0,,1,-0.62,1.57542003E9
Raw,229679276,229682934000000,,,-1457982524498334974,-0.6167659759521484,32.59500954300165,6.3183713800886485,13.2114080227186,948,31,0.0,15,39407359541964,8,36.2,372.4410095214844,0.019700000062584877,0,0.0,0.0,1.57542003E9,,,,0,,1,-0.62,1.57542003E9
Raw,229679277,229682934000000,,,-1457982524498334974,-0.6167659759521484,32.59500954300165,6.3183713800886485,13.2114080227186,948,13,0.0,15,39393302042444,80,16.7,-246.02178955078125,0.999500036239624,0,0.0,0.0,1.56109798E9,,,,0,,5,-0.42,1.56109798E9
Raw,229679278,229682934000000,,,-1457982524498334974,-0.6167659759521484,32.59500954300165,6.3183713800886485,13.2114080227186,948,6,0.0,7183,39407337709732,53,19.9,430.6155700683594,0.8119999766349792,0,0.0,0.0,1.57542003E9,,,,0,,6,-0.39,1.57542003E9
Raw,229679278,229682934000000,,,-1457982524498334974,-0.6167659759521484,32.59500954300165,6.3183713800886485,13.2114080227186,948,13,0.0,7183,39407348409318,46,20.7,346.677001953125,0.750499963760376,0,0.0,0.0,1.57542003E9,,,,0,,6,-0.39,1.57542003E9
Raw,229679279,229682934000000,,,-1457982524498334974,-0.6167659759521484,32.59500954300165,6.3183713800886485,13.2114080227186,948,21,0.0,7183,39407347886322,27,24.9,379.4170227050781,0.5489999651908875,0,0.0,0.0,1.57542003E9,,,,0,,6,-0.39,1.57542003E9
Raw,229679280,229682934000000,,,-1457982524498334974,-0.6167659759521484,32.59500954300165,6.3183713800886485,13.2114080227186,948,23,0.0,7183,39407354701401,14,30.8,-65.84027099609375,0.052800003439188004,0,0.0,0.0,1.57542003E9,,,,0,,6,-0.39,1.57542003E9
Raw,229679280,229682934000000,,,-1457982524498334974,-0.6167659759521484,32.59500954300165,6.3183713800886485,13.2114080227186,948,26,0.0,7183,39407353610527,21,26.3,-199.5053253173828,0.13670000433921814,0,0.0,0.0,1.57542003E9,,,,0,,6,-0.39,1.57542003E9
Raw,229679282,229682934000000,,,-1457982524498334974,-0.6167659759521484,32.59500954300165,6.3183713800886485,13.2114080227186,948,31,0.0,7183,39407345916181,46,20.5,-439.7115783691406,0.7519999742507935,0,0.0,0.0,1.57542003E9,,,,0,,6,-0.39,1.57542003E9
Fix,gps,45.101804,7.633983,315.076416,0.000000,3.216000,1774176991000
Raw,229680262,229683934000000,,,-1457982524498334966,-0.09330177307128906,29.336863008211367,5.095207571066325,10.654529497278114,948,14,0.0,207,50190366949878,14,30.1,-319.0039978027344,0.23479999601840973,0,0.0,0.0,1.59806246E9,,,,0,,3,-2.13,1.59806246E9
Raw,229680263,229683934000000,,,-1457982524498334966,-0.09330177307128906,29.336863008211367,5.095207571066325,10.654529497278114,948,13,0.0,207,50190364612549,374,10.1,528.9474487304688,10.482500076293945,0,0.0,0.0,1.60087501E9,,,,0,,3,-2.13,1.60087501E9
Raw,229680264,229683934000000,,,-1457982524498334966,-0.09330177307128906,29.336863008211367,5.095207571066325,10.654529497278114,948,24,0.0,207,50190366368241,16,29.0,-328.5890808105469,0.23569999635219574,0,0.0,0.0,1.60312499E9,,,,0,,3,-2.13,1.60312499E9
Raw,229680264,229683934000000,,,-1457982524498334966,-0.09330177307128906,29.336863008211367,5.095207571066325,10.654529497278114,948,23,0.0,207,50190363664403,27,24.5,551.742431640625,0.8709999918937683,0,0.0,0.0,1.60368755E9,,,,0,,3,-2.13,1.60368755E9
Raw,229680265,229683934000000,,,-1457982524498334966,-0.09330177307128906,29.336863008211367,5.095207571066325,10.654529497278114,948,16,0.0,15,39408359304927,9,35.0,-533.7971801757812,0.05010000243782997,0,0.0,0.0,1.57542003E9,,,,0,,1,-1.0,1.57542003E9
Raw,229680265,229683934000000,,,-1457982524498334966,-0.09330177307128906,29.336863008211367,5.095207571066325,10.654529497278114,948,18,0.0,15,39408363314672,21,26.7,-161.16873168945312,0.11569999903440475,0,0.0,0.0,1.57542003E9,,,,0,,1,-1.0,1.57542003E9
Raw,229680266,229683934000000,,,-1457982524498334966,-0.09330177307128906,29.336863008211367,5.095207571066325,10.654529497278114,948,23,0.0,15,39408350622269,53,19.3,-635.8662719726562,1.0115000009536743,0,0.0,0.0,1.57542003E9,,,,0,,1,-1.0,1.57542003E9
Raw,229680266,229683934000000,,,-1457982524498334966,-0.09330177307128906,29.336863008211367,5.095207571066325,10.654529497278114,948,25,0.0,15,39408352065523,31,23.7,681.2608642578125,0.684499979019165,0,0.0,0.0,1.57542003E9,,,,0,,1,-1.0,1.57542003E9
Raw,229680267,229683934000000,,,-1457982524498334966,-0.09330177307128906,29.336863008211367,5.095207571066325,10.654529497278114,948,26,0.0,15,39408363939983,13,31.7,-163.2316436767578,0.02970000170171261,0,0.0,0.0,1.57542003E9,,,,0,,1,-1.0,1.57542003E9
Raw,229680267,229683934000000,,,-1457982524498334966,-0.09330177307128906,29.336863008211367,5.095207571066325,10.654529497278114,948,27,0.0,15,39408351784708,21,26.6,-622.2308959960938,0.12770000100135803,0,0.0,0.0,1.57542003E9,,,,0,,1,-1.0,1.57542003E9
Raw,229680268,229683934000000,,,-1457982524498334966,-0.09330177307128906,29.336863008211367,5.095207571066325,10.654529497278114,948,28,0.0,15,39408355771072,13,31.2,601.911865234375,0.047700002789497375,0,0.0,0.0,1.57542003E9,,,,0,,1,-1.0,1.57542003E9
Raw,229680269,229683934000000,,,-1457982524498334966,-0.09330177307128906,29.336863008211367,5.095207571066325,10.654529497278114,948,29,0.0,15,39408358720009,40,21.7,458.5030822753906,0.8134999871253967,0,0.0,0.0,1.57542003E9,,,,0,,1,-1.0,1.57542003E9
Raw,229680269,229683934000000,,,-1457982524498334966,-0.09330177307128906,29.336863008211367,5.095207571066325,10.654529497278114,948,31,0.0,15,39408359540736,10,34.6,372.13397216796875,0.020600000396370888,0,0.0,0.0,1.57542003E9,,,,0,,1,-1.0,1.57542003E9
Raw,229680270,229683934000000,,,-1457982524498334966,-0.09330177307128906,29.336863008211367,5.095207571066325,10.654529497278114,948,6,0.0,7183,39408337708322,53,19.5,429.61651611328125,0.8119999766349792,0,0.0,0.0,1.57542003E9,,,,0,,6,-0.67,1.57542003E9
Raw,229680270,229683934000000,,,-1457982524498334966,-0.09330177307128906,29.336863008211367,5.095207571066325,10.654529497278114,948,13,0.0,7183,39408348408208,31,23.2,347.12420654296875,0.6004999876022339,0,0.0,0.0,1.57542003E9,,,,0,,6,-0.67,1.57542003E9
Raw,229680271,229683934000000,,,-1457982524498334966,-0.09330177307128906,29.336863008211367,5.095207571066325,10.654529497278114,948,21,0.0,7183,39408347885033,35,22.5,379.38848876953125,0.6389999985694885,0,0.0,0.0,1.57542003E9,,,,0,,6,-0.67,1.57542003E9
Raw,229680271,229683934000000,,,-1457982524498334966,-0.09330177307128906,29.336863008211367,5.095207571066325,10.654529497278114,948,23,0.0,7183,39408354701612,16,29.3,-65.87840270996094,0.053700003772974014,0,0.0,0.0,1.57542003E9,,,,0,,6,-0.67,1.57542003E9
Raw,229680272,229683934000000,,,-1457982524498334966,-0.09330177307128906,29.336863008211367,5.095207571066325,10.654529497278114,948,26,0.0,7183,39408353611195,21,26.9,-199.4967803955078,0.13670000433921814,0,0.0,0.0,1.57542003E9,,,,0,,6,-0.67,1.57542003E9
Raw,229680272,229683934000000,,,-1457982524498334966,-0.09330177307128906,29.336863008211367,5.095207571066325,10.654529497278114,948,31,0.0,7183,39408345917625,12,32.3,-439.80419921875,0.049400001764297485,0,0.0,0.0,1.57542003E9,,,,0,,6,-0.67,1.57542003E9
Fix,gps,45.101804,7.633983,315.201233,0.000000,3.216000,1774176992000
Raw,229681257,229684934000000,,,-1457982524498334962,-0.9640579223632812,29.240505682537332,4.558099348729386,12.832243755885466,948,14,0.0,207,50191366950968,40,21.6,-319.4503173828125,1.0555000305175781,0,0.0,0.0,1.59806246E9,,,,0,,3,-2.1,1.59806246E9
Raw,229681258,229684934000000,,,-1457982524498334962,-0.9640579223632812,29.240505682537332,4.558099348729386,12.832243755885466,948,13,0.0,207,50191364610720,70,17.5,529.50927734375,1.3725000619888306,0,0.0,0.0,1.60087501E9,,,,0,,3,-2.1,1.60087501E9
Raw,229681259,229684934000000,,,-1457982524498334962,-0.9640579223632812,29.240505682537332,4.558099348729386,12.832243755885466,948,24,0.0,207,50191366369388,19,27.7,-328.48779296875,0.25030001997947693,0,0.0,0.0,1.60312499E9,,,,0,,3,-2.1,1.60312499E9
Raw,229681260,229684934000000,,,-1457982524498334962,-0.9640579223632812,29.240505682537332,4.558099348729386,12.832243755885466,948,5,0.0,15,39409353387368,96,15.9,121.71183776855469,2.0260000228881836,0,0.0,0.0,1.57542003E9,,,,0,,1,-0.91,1.57542003E9
Raw,229681260,229684934000000,,,-1457982524498334962,-0.9640579223632812,29.240505682537332,4.558099348729386,12.832243755885466,948,16,0.0,15,39409359306772,19,27.8,-533.9164428710938,0.5249999761581421,0,0.0,0.0,1.57542003E9,,,,0,,1,-0.91,1.57542003E9
Raw,229681261,229684934000000,,,-1457982524498334962,-0.9640579223632812,29.240505682537332,4.558099348729386,12.832243755885466,948,23,0.0,15,39409350624513,70,17.1,-635.0480346679688,1.18149995803833,0,0.0,0.0,1.57542003E9,,,,0,,1,-0.91,1.57542003E9
Raw,229681261,229684934000000,,,-1457982524498334962,-0.9640579223632812,29.240505682537332,4.558099348729386,12.832243755885466,948,25,0.0,15,39409352063227,24,25.7,681.4266357421875,0.39980000257492065,0,0.0,0.0,1.57542003E9,,,,0,,1,-0.91,1.57542003E9
Raw,229681262,229684934000000,,,-1457982524498334962,-0.9640579223632812,29.240505682537332,4.558099348729386,12.832243755885466,948,26,0.0,15,39409363940538,10,34.1,-163.42002868652344,0.026600001379847527,0,0.0,0.0,1.57542003E9,,,,0,,1,-0.91,1.57542003E9
Raw,229681263,229684934000000,,,-1457982524498334962,-0.9640579223632812,29.240505682537332,4.558099348729386,12.832243755885466,948,27,0.0,15,39409351786708,27,24.6,-622.2698364257812,0.6330000162124634,0,0.0,0.0,1.57542003E9,,,,0,,1,-0.91,1.57542003E9
Raw,229681264,229684934000000,,,-1457982524498334962,-0.9640579223632812,29.240505682537332,4.558099348729386,12.832243755885466,948,28,0.0,15,39409355769075,10,34.5,601.8557739257812,0.044600002467632294,0,0.0,0.0,1.57542003E9,,,,0,,1,-0.91,1.57542003E9
Raw,229681265,229684934000000,,,-1457982524498334962,-0.9640579223632812,29.240505682537332,4.558099348729386,12.832243755885466,948,29,0.0,15,39409358718479,19,27.2,458.57550048828125,0.06830000132322311,0,0.0,0.0,1.57542003E9,,,,0,,1,-0.91,1.57542003E9
Raw,229681266,229684934000000,,,-1457982524498334962,-0.9640579223632812,29.240505682537332,4.558099348729386,12.832243755885466,948,31,0.0,15,39409359539495,14,30.7,372.14532470703125,0.024300001561641693,0,0.0,0.0,1.57542003E9,,,,0,,1,-0.91,1.57542003E9
Raw,229681267,229684934000000,,,-1457982524498334962,-0.9640579223632812,29.240505682537332,4.558099348729386,12.832243755885466,948,6,0.0,7183,39409337706878,46,20.3,429.8544006347656,0.7519999742507935,0,0.0,0.0,1.57542003E9,,,,0,,6,-0.27,1.57542003E9
Raw,229681268,229684934000000,,,-1457982524498334962,-0.9640579223632812,29.240505682537332,4.558099348729386,12.832243755885466,948,13,0.0,7183,39409348406986,80,16.6,347.9424743652344,1.0205000638961792,0,0.0,0.0,1.57542003E9,,,,0,,6,-0.27,1.57542003E9
Raw,229681268,229684934000000,,,-1457982524498334962,-0.9640579223632812,29.240505682537332,4.558099348729386,12.832243755885466,948,21,0.0,7183,39409347883766,35,22.5,379.1982116699219,0.6389999985694885,0,0.0,0.0,1.57542003E9,,,,0,,6,-0.27,1.57542003E9
Raw,229681269,229684934000000,,,-1457982524498334962,-0.9640579223632812,29.240505682537332,4.558099348729386,12.832243755885466,948,23,0.0,7183,39409354701827,16,29.6,-66.23307037353516,0.053700003772974014,0,0.0,0.0,1.57542003E9,,,,0,,6,-0.27,1.57542003E9
Raw,229681269,229684934000000,,,-1457982524498334962,-0.9640579223632812,29.240505682537332,4.558099348729386,12.832243755885466,948,26,0.0,7183,39409353611868,14,30.2,-199.69996643066406,0.05130000039935112,0,0.0,0.0,1.57542003E9,,,,0,,6,-0.27,1.57542003E9
Raw,229681270,229684934000000,,,-1457982524498334962,-0.9640579223632812,29.240505682537332,4.558099348729386,12.832243755885466,948,31,0.0,7183,39409345919093,19,27.8,-440.1733703613281,0.06680000573396683,0,0.0,0.0,1.57542003E9,,,,0,,6,-0.27,1.57542003E9
Fix,gps,45.101805,7.633987,314.970886,0.000000,3.216000,1774176993000
Raw,229682256,229685934000000,,,-1457982524498334958,-0.7619304656982422,27.136688004247844,4.403035892952849,9.907252157485429,948,14,0.0,207,50192366951958,17,28.9,-319.48785400390625,0.7055000066757202,0,0.0,0.0,1.59806246E9,,,,0,,3,-2.27,1.59806246E9
Raw,229682256,229685934000000,,,-1457982524498334958,-0.7619304656982422,27.136688004247844,4.403035892952849,9.907252157485429,948,13,0.0,207,50192364609096,70,17.9,531.9999389648438,1.3725000619888306,0,0.0,0.0,1.60087501E9,,,,0,,3,-2.27,1.60087501E9
Raw,229682257,229685934000000,,,-1457982524498334958,-0.7619304656982422,27.136688004247844,4.403035892952849,9.907252157485429,948,24,0.0,207,50192366370462,16,29.9,-328.9164733886719,0.23569999635219574,0,0.0,0.0,1.60312499E9,,,,0,,3,-2.27,1.60312499E9
Raw,229682257,229685934000000,,,-1457982524498334958,-0.7619304656982422,27.136688004247844,4.403035892952849,9.907252157485429,948,23,0.0,207,50192363660695,30,24.0,551.5835571289062,1.621000051498413,0,0.0,0.0,1.60368755E9,,,,0,,3,-2.27,1.60368755E9
Raw,229682258,229685934000000,,,-1457982524498334958,-0.7619304656982422,27.136688004247844,4.403035892952849,9.907252157485429,948,5,0.0,15,39410353387072,70,17.1,123.31980895996094,1.1859999895095825,0,0.0,0.0,1.57542003E9,,,,0,,1,-0.37,1.57542003E9
Raw,229682258,229685934000000,,,-1457982524498334958,-0.7619304656982422,27.136688004247844,4.403035892952849,9.907252157485429,948,16,0.0,15,39410359308501,14,30.2,-534.4041748046875,0.05430000275373459,0,0.0,0.0,1.57542003E9,,,,0,,1,-0.37,1.57542003E9
Raw,229682259,229685934000000,,,-1457982524498334958,-0.7619304656982422,27.136688004247844,4.403035892952849,9.907252157485429,948,18,0.0,15,39410363315789,43,21.9,-161.5022430419922,1.5410000085830688,0,0.0,0.0,1.57542003E9,,,,0,,1,-0.37,1.57542003E9
Raw,229682259,229685934000000,,,-1457982524498334958,-0.7619304656982422,27.136688004247844,4.403035892952849,9.907252157485429,948,23,0.0,15,39410350626485,46,20.8,-635.0955810546875,0.8614999651908875,0,0.0,0.0,1.57542003E9,,,,0,,1,-0.37,1.57542003E9
Raw,229682259,229685934000000,,,-1457982524498334958,-0.7619304656982422,27.136688004247844,4.403035892952849,9.907252157485429,948,25,0.0,15,39410352060966,27,24.6,681.4987182617188,0.6345000267028809,0,0.0,0.0,1.57542003E9,,,,0,,1,-0.37,1.57542003E9
Raw,229682260,229685934000000,,,-1457982524498334958,-0.7619304656982422,27.136688004247844,4.403035892952849,9.907252157485429,948,26,0.0,15,39410363941091,11,33.2,-163.25582885742188,0.027400000020861626,0,0.0,0.0,1.57542003E9,,,,0,,1,-0.37,1.57542003E9
Raw,229682260,229685934000000,,,-1457982524498334958,-0.7619304656982422,27.136688004247844,4.403035892952849,9.907252157485429,948,27,0.0,15,39410351788841,21,26.2,-623.358642578125,0.12770000100135803,0,0.0,0.0,1.57542003E9,,,,0,,1,-0.37,1.57542003E9
Raw,229682261,229685934000000,,,-1457982524498334958,-0.7619304656982422,27.136688004247844,4.403035892952849,9.907252157485429,948,28,0.0,15,39410355767029,14,30.9,601.9170532226562,0.04830000177025795,0,0.0,0.0,1.57542003E9,,,,0,,1,-0.37,1.57542003E9
Raw,229682261,229685934000000,,,-1457982524498334958,-0.7619304656982422,27.136688004247844,4.403035892952849,9.907252157485429,948,29,0.0,15,39410358716988,31,23.6,458.5697021484375,0.6934999823570251,0,0.0,0.0,1.57542003E9,,,,0,,1,-0.37,1.57542003E9
Raw,229682262,229685934000000,,,-1457982524498334958,-0.7619304656982422,27.136688004247844,4.403035892952849,9.907252157485429,948,31,0.0,15,39410359538248,11,33.8,371.3992004394531,0.021400000900030136,0,0.0,0.0,1.57542003E9,,,,0,,1,-0.37,1.57542003E9
Raw,229682263,229685934000000,,,-1457982524498334958,-0.7619304656982422,27.136688004247844,4.403035892952849,9.907252157485429,948,13,0.0,15,39396302044866,101,15.2,-248.26866149902344,2.5794999599456787,0,0.0,0.0,1.56109798E9,,,,0,,5,-0.23,1.56109798E9
Raw,229682263,229685934000000,,,-1457982524498334958,-0.7619304656982422,27.136688004247844,4.403035892952849,9.907252157485429,948,6,0.0,7183,39410337705406,70,17.8,430.11126708984375,0.9419999718666077,0,0.0,0.0,1.57542003E9,,,,0,,6,-0.19,1.57542003E9
Raw,229682264,229685934000000,,,-1457982524498334958,-0.7619304656982422,27.136688004247844,4.403035892952849,9.907252157485429,948,13,0.0,7183,39410348405864,40,21.6,347.3240051269531,0.6904999613761902,0,0.0,0.0,1.57542003E9,,,,0,,6,-0.19,1.57542003E9
Raw,229682264,229685934000000,,,-1457982524498334958,-0.7619304656982422,27.136688004247844,4.403035892952849,9.907252157485429,948,21,0.0,7183,39410347882529,53,19.4,379.9403381347656,0.8089999556541443,0,0.0,0.0,1.57542003E9,,,,0,,6,-0.19,1.57542003E9
Raw,229682265,229685934000000,,,-1457982524498334958,-0.7619304656982422,27.136688004247844,4.403035892952849,9.907252157485429,948,23,0.0,7183,39410354702044,17,28.4,-66.44326782226562,0.06030000001192093,0,0.0,0.0,1.57542003E9,,,,0,,6,-0.19,1.57542003E9
Raw,229682266,229685934000000,,,-1457982524498334958,-0.7619304656982422,27.136688004247844,4.403035892952849,9.907252157485429,948,26,0.0,7183,39410353612535,21,26.9,-199.787353515625,0.13670000433921814,0,0.0,0.0,1.57542003E9,,,,0,,6,-0.19,1.57542003E9
Raw,229682266,229685934000000,,,-1457982524498334958,-0.7619304656982422,27.136688004247844,4.403035892952849,9.907252157485429,948,31,0.0,7183,39410345920565,17,28.4,-440.5872802734375,0.058800000697374344,0,0.0,0.0,1.57542003E9,,,,0,,6,-0.19,1.57542003E9
Fix,gps,45.101804,7.633988,314.882813,0.000000,3.216000,1774176994000
Raw,229683264,229686934000000,,,-1457982524498334954,-0.26177978515625,30.944589525461197,3.754424814525001,13.285253633479346,948,14,0.0,207,50193366953057,13,31.5,-319.1653137207031,0.23420000076293945,0,0.0,0.0,1.59806246E9,,,,0,,3,-3.5,1.59806246E9
Raw,229683266,229686934000000,,,-1457982524498334954,-0.26177978515625,30.944589525461197,3.754424814525001,13.285253633479346,948,24,0.0,207,50193366371578,16,29.5,-328.6610107421875,0.23569999635219574,0,0.0,0.0,1.60312499E9,,,,0,,3,-3.5,1.60312499E9
Raw,229683266,229686934000000,,,-1457982524498334954,-0.26177978515625,30.944589525461197,3.754424814525001,13.285253633479346,948,5,0.0,15,39411353386573,61,18.6,122.0733871459961,1.0160000324249268,0,0.0,0.0,1.57542003E9,,,,0,,1,-1.35,1.57542003E9
Raw,229683267,229686934000000,,,-1457982524498334954,-0.26177978515625,30.944589525461197,3.754424814525001,13.285253633479346,948,16,0.0,15,39411359310283,21,26.9,-534.2376098632812,0.1397000104188919,0,0.0,0.0,1.57542003E9,,,,0,,1,-1.35,1.57542003E9
Raw,229683268,229686934000000,,,-1457982524498334954,-0.26177978515625,30.944589525461197,3.754424814525001,13.285253633479346,948,18,0.0,15,39411363316294,17,28.5,-161.4629364013672,0.03779999911785126,0,0.0,0.0,1.57542003E9,,,,0,,1,-1.35,1.57542003E9
Raw,229683269,229686934000000,,,-1457982524498334954,-0.26177978515625,30.944589525461197,3.754424814525001,13.285253633479346,948,23,0.0,15,39411350628678,53,19.9,-636.694091796875,0.9314999580383301,0,0.0,0.0,1.57542003E9,,,,0,,1,-1.35,1.57542003E9
Raw,229683270,229686934000000,,,-1457982524498334954,-0.26177978515625,30.944589525461197,3.754424814525001,13.285253633479346,948,25,0.0,15,39411352058739,46,20.2,679.69091796875,0.934499979019165,0,0.0,0.0,1.57542003E9,,,,0,,1,-1.35,1.57542003E9
Raw,229683270,229686934000000,,,-1457982524498334954,-0.26177978515625,30.944589525461197,3.754424814525001,13.285253633479346,948,26,0.0,15,39411363941629,9,35.3,-163.5941619873047,0.026100000366568565,0,0.0,0.0,1.57542003E9,,,,0,,1,-1.35,1.57542003E9
Raw,229683271,229686934000000,,,-1457982524498334954,-0.26177978515625,30.944589525461197,3.754424814525001,13.285253633479346,948,27,0.0,15,39411351790996,80,16.5,-624.5913696289062,1.1829999685287476,0,0.0,0.0,1.57542003E9,,,,0,,1,-1.35,1.57542003E9
Raw,229683271,229686934000000,,,-1457982524498334954,-0.26177978515625,30.944589525461197,3.754424814525001,13.285253633479346,948,28,0.0,15,39411355765048,12,32.9,601.5897216796875,0.046400003135204315,0,0.0,0.0,1.57542003E9,,,,0,,1,-1.35,1.57542003E9
Raw,229683272,229686934000000,,,-1457982524498334954,-0.26177978515625,30.944589525461197,3.754424814525001,13.285253633479346,948,29,0.0,15,39411358715389,31,23.3,458.2081604003906,0.7534999847412109,0,0.0,0.0,1.57542003E9,,,,0,,1,-1.35,1.57542003E9
Raw,229683272,229686934000000,,,-1457982524498334954,-0.26177978515625,30.944589525461197,3.754424814525001,13.285253633479346,948,31,0.0,15,39411359537012,6,39.2,371.8257751464844,0.01810000091791153,0,0.0,0.0,1.57542003E9,,,,0,,1,-1.35,1.57542003E9
Raw,229683273,229686934000000,,,-1457982524498334954,-0.26177978515625,30.944589525461197,3.754424814525001,13.285253633479346,948,13,0.0,7183,39411348404712,19,27.3,346.6479797363281,0.06530000269412994,0,0.0,0.0,1.57542003E9,,,,0,,6,-1.2,1.57542003E9
Raw,229683273,229686934000000,,,-1457982524498334954,-0.26177978515625,30.944589525461197,3.754424814525001,13.285253633479346,948,21,0.0,7183,39411347881253,61,18.7,378.38946533203125,0.8689999580383301,0,0.0,0.0,1.57542003E9,,,,0,,6,-1.2,1.57542003E9
Raw,229683274,229686934000000,,,-1457982524498334954,-0.26177978515625,30.944589525461197,3.754424814525001,13.285253633479346,948,23,0.0,7183,39411354702286,13,31.3,-66.55322265625,0.05220000073313713,0,0.0,0.0,1.57542003E9,,,,0,,6,-1.2,1.57542003E9
Raw,229683275,229686934000000,,,-1457982524498334954,-0.26177978515625,30.944589525461197,3.754424814525001,13.285253633479346,948,26,0.0,7183,39411353613184,70,17.6,-199.59902954101562,0.9419999718666077,0,0.0,0.0,1.57542003E9,,,,0,,6,-1.2,1.57542003E9
Raw,229683275,229686934000000,,,-1457982524498334954,-0.26177978515625,30.944589525461197,3.754424814525001,13.285253633479346,948,31,0.0,7183,39411345922032,24,25.2,-440.6322326660156,0.4072999954223633,0,0.0,0.0,1.57542003E9,,,,0,,6,-1.2,1.57542003E9
Fix,gps,45.101804,7.633988,315.080566,0.000000,3.216000,1774176995000
Raw,229684268,229687934000000,,,-1457982524498334949,-0.04637336730957031,32.42566890548915,3.5111486392569176,12.929386263115175,948,14,0.0,207,50194366954144,11,33.2,-319.3968811035156,0.23190000653266907,0,0.0,0.0,1.59806246E9,,,,0,,3,-3.08,1.59806246E9
Raw,229684269,229687934000000,,,-1457982524498334949,-0.04637336730957031,32.42566890548915,3.5111486392569176,12.929386263115175,948,13,0.0,207,50194364605655,84,16.9,529.0130615234375,2.2125000953674316,0,0.0,0.0,1.60087501E9,,,,0,,3,-3.08,1.60087501E9
Raw,229684269,229687934000000,,,-1457982524498334949,-0.04637336730957031,32.42566890548915,3.5111486392569176,12.929386263115175,948,24,0.0,207,50194366372681,16,29.3,-328.85845947265625,0.23569999635219574,0,0.0,0.0,1.60312499E9,,,,0,,3,-3.08,1.60312499E9
Raw,229684270,229687934000000,,,-1457982524498334949,-0.04637336730957031,32.42566890548915,3.5111486392569176,12.929386263115175,948,23,0.0,207,50194363656964,64,18.6,550.7049560546875,2.0310001373291016,0,0.0,0.0,1.60368755E9,,,,0,,3,-3.08,1.60368755E9
Raw,229684270,229687934000000,,,-1457982524498334949,-0.04637336730957031,32.42566890548915,3.5111486392569176,12.929386263115175,948,5,0.0,15,39412353386198,53,19.6,121.49299621582031,0.9359999895095825,0,0.0,0.0,1.57542003E9,,,,0,,1,-1.92,1.57542003E9
Raw,229684271,229687934000000,,,-1457982524498334949,-0.04637336730957031,32.42566890548915,3.5111486392569176,12.929386263115175,948,16,0.0,15,39412359312000,35,22.4,-534.1257934570312,0.8149999976158142,0,0.0,0.0,1.57542003E9,,,,0,,1,-1.92,1.57542003E9
Raw,229684271,229687934000000,,,-1457982524498334949,-0.04637336730957031,32.42566890548915,3.5111486392569176,12.929386263115175,948,18,0.0,15,39412363316862,24,25.9,-161.65203857421875,0.3862999975681305,0,0.0,0.0,1.57542003E9,,,,0,,1,-1.92,1.57542003E9
Raw,229684272,229687934000000,,,-1457982524498334949,-0.04637336730957031,32.42566890548915,3.5111486392569176,12.929386263115175,948,23,0.0,15,39412350630779,46,20.8,-636.66552734375,0.8614999651908875,0,0.0,0.0,1.57542003E9,,,,0,,1,-1.92,1.57542003E9
Raw,229684272,229687934000000,,,-1457982524498334949,-0.04637336730957031,32.42566890548915,3.5111486392569176,12.929386263115175,948,25,0.0,15,39412352056417,46,20.3,681.5272827148438,0.934499979019165,0,0.0,0.0,1.57542003E9,,,,0,,1,-1.92,1.57542003E9
Raw,229684273,229687934000000,,,-1457982524498334949,-0.04637336730957031,32.42566890548915,3.5111486392569176,12.929386263115175,948,26,0.0,15,39412363942195,9,35.1,-163.84274291992188,0.026100000366568565,0,0.0,0.0,1.57542003E9,,,,0,,1,-1.92,1.57542003E9
Raw,229684273,229687934000000,,,-1457982524498334949,-0.04637336730957031,32.42566890548915,3.5111486392569176,12.929386263115175,948,27,0.0,15,39412351793057,61,18.5,-622.7931518554688,1.0130000114440918,0,0.0,0.0,1.57542003E9,,,,0,,1,-1.92,1.57542003E9
Raw,229684274,229687934000000,,,-1457982524498334949,-0.04637336730957031,32.42566890548915,3.5111486392569176,12.929386263115175,948,28,0.0,15,39412355763039,11,33.5,601.2122192382812,0.04540000110864639,0,0.0,0.0,1.57542003E9,,,,0,,1,-1.92,1.57542003E9
Raw,229684274,229687934000000,,,-1457982524498334949,-0.04637336730957031,32.42566890548915,3.5111486392569176,12.929386263115175,948,29,0.0,15,39412358713938,35,22.1,457.59918212890625,0.8134999871253967,0,0.0,0.0,1.57542003E9,,,,0,,1,-1.92,1.57542003E9
Raw,229684275,229687934000000,,,-1457982524498334949,-0.04637336730957031,32.42566890548915,3.5111486392569176,12.929386263115175,948,31,0.0,15,39412359535777,5,40.1,371.60760498046875,0.017900001257658005,0,0.0,0.0,1.57542003E9,,,,0,,1,-1.92,1.57542003E9
Raw,229684275,229687934000000,,,-1457982524498334949,-0.04637336730957031,32.42566890548915,3.5111486392569176,12.929386263115175,948,13,0.0,15,39398302046591,83,16.4,-247.9998016357422,1.749500036239624,0,0.0,0.0,1.56109798E9,,,,0,,5,-1.26,1.56109798E9
Raw,229684276,229687934000000,,,-1457982524498334949,-0.04637336730957031,32.42566890548915,3.5111486392569176,12.929386263115175,948,6,0.0,7183,39412337702550,55,19.1,428.9695129394531,1.562000036239624,0,0.0,0.0,1.57542003E9,,,,0,,6,-1.83,1.57542003E9
Raw,229684276,229687934000000,,,-1457982524498334949,-0.04637336730957031,32.42566890548915,3.5111486392569176,12.929386263115175,948,13,0.0,7183,39412348403571,21,26.0,346.3895263671875,0.13520000874996185,0,0.0,0.0,1.57542003E9,,,,0,,6,-1.83,1.57542003E9
Raw,229684277,229687934000000,,,-1457982524498334949,-0.04637336730957031,32.42566890548915,3.5111486392569176,12.929386263115175,948,21,0.0,7183,39412347879988,27,24.3,378.4179992675781,0.5489999651908875,0,0.0,0.0,1.57542003E9,,,,0,,6,-1.83,1.57542003E9
Raw,229684277,229687934000000,,,-1457982524498334949,-0.04637336730957031,32.42566890548915,3.5111486392569176,12.929386263115175,948,23,0.0,7183,39412354702504,14,30.6,-66.79458618164062,0.052800003439188004,0,0.0,0.0,1.57542003E9,,,,0,,6,-1.83,1.57542003E9
Raw,229684278,229687934000000,,,-1457982524498334949,-0.04637336730957031,32.42566890548915,3.5111486392569176,12.929386263115175,948,31,0.0,7183,39412345923471,35,22.3,-440.85333251953125,0.6420000195503235,0,0.0,0.0,1.57542003E9,,,,0,,6,-1.83,1.57542003E9
Fix,gps,45.101803,7.633986,315.110168,0.000000,3.216000,1774176996000
Raw,229685269,229688934000000,,,-1457982524498334950,-0.5364894866943359,33.44831566209905,2.049686304826524,13.63155220960871,948,14,0.0,207,50195366955178,11,33.2,-319.2778015136719,0.23190000653266907,0,0.0,0.0,1.59806246E9,,,,0,,3,-3.08,1.59806246E9
Raw,229685269,229688934000000,,,-1457982524498334950,-0.5364894866943359,33.44831566209905,2.049686304826524,13.63155220960871,948,24,0.0,207,50195366373801,13,31.8,-328.7958984375,0.23420000076293945,0,0.0,0.0,1.60312499E9,,,,0,,3,-3.08,1.60312499E9
Raw,229685270,229688934000000,,,-1457982524498334950,-0.5364894866943359,33.44831566209905,2.049686304826524,13.63155220960871,948,23,0.0,207,50195363655278,53,19.7,550.5460205078125,1.2010000944137573,0,0.0,0.0,1.60368755E9,,,,0,,3,-3.08,1.60368755E9
Raw,229685270,229688934000000,,,-1457982524498334950,-0.5364894866943359,33.44831566209905,2.049686304826524,13.63155220960871,948,5,0.0,15,39413353385762,53,19.6,121.78794860839844,0.9359999895095825,0,0.0,0.0,1.57542003E9,,,,0,,1,-1.41,1.57542003E9
Raw,229685271,229688934000000,,,-1457982524498334950,-0.5364894866943359,33.44831566209905,2.049686304826524,13.63155220960871,948,16,0.0,15,39413359313835,21,26.8,-534.4783935546875,0.1397000104188919,0,0.0,0.0,1.57542003E9,,,,0,,1,-1.41,1.57542003E9
Raw,229685271,229688934000000,,,-1457982524498334950,-0.5364894866943359,33.44831566209905,2.049686304826524,13.63155220960871,948,18,0.0,15,39413363317386,31,23.0,-161.90185546875,0.7310000061988831,0,0.0,0.0,1.57542003E9,,,,0,,1,-1.41,1.57542003E9
Raw,229685272,229688934000000,,,-1457982524498334950,-0.5364894866943359,33.44831566209905,2.049686304826524,13.63155220960871,948,23,0.0,15,39413350632995,40,21.0,-636.8272705078125,0.8614999651908875,0,0.0,0.0,1.57542003E9,,,,0,,1,-1.41,1.57542003E9
Raw,229685272,229688934000000,,,-1457982524498334950,-0.5364894866943359,33.44831566209905,2.049686304826524,13.63155220960871,948,25,0.0,15,39413352054163,70,17.4,681.2703857421875,1.184499979019165,0,0.0,0.0,1.57542003E9,,,,0,,1,-1.41,1.57542003E9
