# 
# Header Description:
# 
# Version: v3.1.1.2 Platform: 13 Manufacturer: samsung Model: SM-A515F GNSS Hardware Model Name: S.LSI,K102
# 
# Raw,utcTimeMillis,TimeNanos,LeapSecond,TimeUncertaintyNanos,FullBiasNanos,BiasNanos,BiasUncertaintyNanos,DriftNanosPerSecond,DriftUncertaintyNanosPerSecond,HardwareClockDiscontinuityCount,Svid,TimeOffsetNanos,State,ReceivedSvTimeNanos,ReceivedSvTimeUncertaintyNanos,Cn0DbHz,PseudorangeRateMetersPerSecond,PseudorangeRateUncertaintyMetersPerSecond,AccumulatedDeltaRangeState,AccumulatedDeltaRangeMeters,AccumulatedDeltaRangeUncertaintyMeters,CarrierFrequencyHz,CarrierCycles,CarrierPhase,CarrierPhaseUncertainty,MultipathIndicator,SnrInDb,ConstellationType,AgcDb,BasebandCn0DbHz,FullInterSignalBiasNanos,FullInterSignalBiasUncertaintyNanos,SatelliteInterSignalBiasNanos,SatelliteInterSignalBiasUncertaintyNanos,CodeType,ChipsetElapsedRealtimeNanos,IsFullTracking,SvPositionEcefXMeters,SvPositionEcefYMeters,SvPositionEcefZMeters,SvVelocityEcefXMetersPerSecond,SvVelocityEcefYMetersPerSecond,SvVelocityEcefZMetersPerSecond,SvClockBiasMeters,SvClockDriftMetersPerSecond,KlobucharAlpha0,KlobucharAlpha1,KlobucharAlpha2,KlobucharAlpha3,KlobucharBeta0,KlobucharBeta1,KlobucharBeta2,KlobucharBeta3
# 
# UncalAccel,utcTimeMillis,elapsedRealtimeNanos,UncalAccelXMps2,UncalAccelYMps2,UncalAccelZMps2,BiasXMps2,BiasYMps2,BiasZMps2,CalibrationAccuracy
# 
# Accel,utcTimeMillis,elapsedRealtimeNanos,AccelXMps2,AccelYMps2,AccelZMps2,CalibrationAccuracy
# 
# UncalGyro,utcTimeMillis,elapsedRealtimeNanos,UncalGyroXRadPerSec,UncalGyroYRadPerSec,UncalGyroZRadPerSec,DriftXRadPerSec,DriftYRadPerSec,DriftZRadPerSec,CalibrationAccuracy
# 
# Gyro,utcTimeMillis,elapsedRealtimeNanos,GyroXRadPerSec,GyroYRadPerSec,GyroZRadPerSec,CalibrationAccuracy
# 
# UncalMag,utcTimeMillis,elapsedRealtimeNanos,UncalMagXMicroT,UncalMagYMicroT,UncalMagZMicroT,BiasXMicroT,BiasYMicroT,BiasZMicroT,CalibrationAccuracy
# 
# Mag,utcTimeMillis,elapsedRealtimeNanos,MagXMicroT,MagYMicroT,MagZMicroT,CalibrationAccuracy
# 
# Pressure,utcTimeMillis,elapsedRealtimeNanos,PressureHpa,CalibrationAccuracy
# 
# OrientationDeg,utcTimeMillis,elapsedRealtimeNanos,yawDeg,rollDeg,pitchDeg,CalibrationAccuracy
# 
# Fix,Provider,LatitudeDegrees,LongitudeDegrees,AltitudeMeters,SpeedMps,AccuracyMeters,BearingDegrees,UnixTimeMillis,SpeedAccuracyMps,BearingAccuracyDegrees,elapsedRealtimeNanos,VerticalAccuracyMeters,MockLocation,NumberOfUsedSignals,VerticalSpeedAccuracyMps,SolutionType
# 
# Nav,Svid,Type,Status,MessageId,Sub-messageId,Data(Bytes)
# 
# Status,UnixTimeMillis,SignalCount,SignalIndex,ConstellationType,Svid,CarrierFrequencyHz,Cn0DbHz,AzimuthDegrees,ElevationDegrees,UsedInFix,HasAlmanacData,HasEphemerisData,BasebandCn0DbHz
# 
# Agc,utcTimeMillis,TimeNanos,LeapSecond,TimeUncertaintyNanos,FullBiasNanos,BiasNanos,BiasUncertaintyNanos,DriftNanosPerSecond,DriftUncertaintyNanosPerSecond,HardwareClockDiscontinuityCount,AgcDb,CarrierFrequencyHz,ConstellationType
# 
# GameRotationVector,utcTimeMillis,elapsedRealtimeNanos,x,y,z,w
# 
Raw,1773868309999,5841200806,18,0.0,-1457903522158799104,0.0,50.034610748291016,62255.44921875,0.0,0,9,0.0,47,335527933254266,11,39.599998474121094,229.719970703125,0.08353102952241898,17,-161.23952282935352,0.059064790975302456,1575420000,,,,0,35.400001525878906,1,2.5999999046325684,34.599998474121094,0.0,0.0,0.0,0.0,C,645231016350684,,19571179.56201022,-1076197.5648054257,17865358.55446256,-1585.0087456364377,1651.0851860545245,1818.5189618698375,229578.17345583075,-0.000765317352488637,0.000000021420419216156006,0.000000007450580596923828,-0.00000011920928955078125,0.0,122880.0,0.0,-262144.0,196608.0
Raw,1773868309999,5841200806,18,0.0,-1457903522158799104,0.0,50.034610748291016,62255.44921875,0.0,0,4,0.0,47,335527930899152,13,35.900001525878906,626.311279296875,0.10473287850618362,17,-440.9189411696789,0.07405661839172244,1575420000,,,,0,33.0,1,2.5999999046325684,30.899999618530273,0.0,0.0,0.0,0.0,C,645231016350684,,12651315.539389104,8868280.87642781,21655300.340982005,-2116.9814329692654,1734.8779999905064,510.15822177131827,14822.278845044531,0.0007005677998677129,0.000000021420419216156006,0.000000007450580596923828,-0.00000011920928955078125,0.0,122880.0,0.0,-262144.0,196608.0
Raw,1773868309999,5841200806,18,0.0,-1457903522158799104,0.0,50.034610748291016,62255.44921875,0.0,0,3,0.0,47,335527925981507,15,34.29999923706055,840.0232543945312,0.11648360639810562,17,-591.3646604974565,0.08236555808410048,1575420000,,,,0,30.200000762939453,1,2.5999999046325684,29.299999237060547,0.0,0.0,0.0,0.0,C,645231016350684,,11890061.720411038,20048250.348606966,12644349.673203032,141.2087806334033,1627.9397240224714,-2662.0461439633,160442.79500668828,-0.004078679805388674,0.000000021420419216156006,0.000000007450580596923828,-0.00000011920928955078125,0.0,122880.0,0.0,-262144.0,196608.0
Raw,1773868309999,5841200806,18,0.0,-1457903522158799104,0.0,50.034610748291016,62255.44921875,0.0,0,7,0.0,47,335527921682671,16,32.5,-247.6951446533203,0.13223139941692352,17,175.43816466286808,0.09350082252770661,1575420000,,,,0,28.100000381469727,1,2.5999999046325684,27.5,0.0,0.0,0.0,0.0,C,645231016350684,,25703818.149662435,6079568.027405863,-3768245.062493299,426.7132610524329,445.2824732327618,3080.8887536255525,-48681.4969009218,-0.0009455410981900059,0.000000021420419216156006,0.000000007450580596923828,-0.00000011920928955078125,0.0,122880.0,0.0,-262144.0,196608.0
Raw,1773868309999,5841200806,18,0.0,-1457903522158799104,0.0,50.034610748291016,62255.44921875,0.0,0,17,0.0,47,335527917551327,27,25.200000762939453,911.3705444335938,0.24507398903369904,20,-5996490.991264787,0.17329181764572857,1575420000,,,,0,20.799999237060547,1,2.5999999046325684,20.200000762939453,0.0,0.0,0.0,0.0,C,645231016350684,,22754970.460382245,-12723370.588628845,-5394250.614455102,-415.5426384810745,652.334996730536,-3054.710143003229,-27249.24244053919,-0.0026943958982883487,0.000000021420419216156006,0.000000007450580596923828,-0.00000011920928955078125,0.0,122880.0,0.0,-262144.0,196608.0
Raw,1773868309999,5841200806,18,0.0,-1457903522158799104,0.0,50.034610748291016,62255.44921875,0.0,0,24,0.0,239,709929839517,11,39.400001525878906,1026.5616455078125,0.08450513333082199,22,-731.346824392378,0.05975357977822422,1603125000,,,,0,34.20000076293945,3,2.5999999046325684,34.400001525878906,0.0,0.0,0.0,0.0,C,645231016350684,,25341619.70703329,-780593.5870871694,2751290.051962441,378.1573381899684,-142.6106450353136,-3540.7496675361876,-46348.37703900784,-0.0005453193043649662,0.000000021420419216156006,0.000000007450580596923828,-0.00000011920928955078125,0.0,122880.0,0.0,-262144.0,196608.0
Raw,1773868309999,5841200806,18,0.0,-1457903522158799104,0.0,50.034610748291016,62255.44921875,0.0,0,1,0.0,239,709932786295,11,39.20000076293945,714.1669921875,0.08549638837575912,22,-503.69030309438676,0.060454496220499275,1602562600,,,,0,33.900001525878906,3,2.5999999046325684,34.20000076293945,0.0,0.0,0.0,0.0,C,645231016350684,,7583071.0334985005,8327615.6370046,22894964.761005152,-1527.0973091409846,2736.770569489117,-487.99405304731795,48682.9168120836,0.0002726596521824831,0.000000021420419216156006,0.000000007450580596923828,-0.00000011920928955078125,0.0,122880.0,0.0,-262144.0,196608.0
Raw,1773868309999,5841200806,18,0.0,-1457903522158799104,0.0,50.034610748291016,62255.44921875,0.0,0,2,0.0,239,709933482457,14,35.20000076293945,143.191162109375,0.10964430868625641,22,-99.60231080621452,0.0775294906720519,1599750000,,,,0,32.599998474121094,3,2.5999999046325684,30.200000762939453,0.0,0.0,0.0,0.0,C,645231016350684,,15292671.175040051,-8037099.727925891,18846895.657506116,-1477.7702186461547,2104.1995409711512,2096.2778158899955,3620.4315748866647,0.0,0.000000021420419216156006,0.000000007450580596923828,-0.00000011920928955078125,0.0,122880.0,0.0,-262144.0,196608.0
Raw,1773868309999,5841200806,18,0.0,-1457903522158799104,0.0,50.034610748291016,62255.44921875,0.0,0,17,0.0,239,709933939430,16,32.599998474121094,256.3687744140625,0.13127493858337402,22,-190.60759415075154,0.09282450907230376,1604250000,,,,0,28.299999237060547,3,2.5999999046325684,27.600000381469727,0.0,0.0,0.0,0.0,C,645231016350684,,15458785.5660884,-8164306.1287001055,18561837.930856295,2545.9112209913965,-37.33667266505995,-2140.55887189667,83743.0970019296,0.0008179789565474493,0.000000021420419216156006,0.000000007450580596923828,-0.00000011920928955078125,0.0,122880.0,0.0,-262144.0,196608.0
Raw,1773868309999,5841200806,18,0.0,-1457903522158799104,0.0,50.034610748291016,62255.44921875,0.0,0,3,0.0,239,709920672440,19,30.100000381469727,-254.22842407226562,0.15872763097286224,20,168.83213100984722,0.11223630786091088,1604812500,,,,0,0.0,3,2.5999999046325684,25.100000381469727,0.0,0.0,0.0,0.0,C,645231016350684,,14279765.985766519,-21022439.309537746,2570528.4644298013,-354.3517004815326,186.17676300460766,3562.064530484159,42216.564123171105,0.0002726596521824831,0.000000021420419216156006,0.000000007450580596923828,-0.00000011920928955078125,0.0,122880.0,0.0,-262144.0,196608.0
Raw,1773868311000,6841201967,18,0.0,-1457903522158798080,0.0,10.068432807922363,62254.66015625,0.0,0,9,0.0,47,335528933254654,11,39.599998474121094,229.04443359375,0.08353102952241898,16,0.0,0.059064790975302456,1575420000,,,,0,34.099998474121094,1,2.5999999046325684,34.599998474121094,0.0,0.0,0.0,0.0,C,645232016797491,,19569594.5160176,-1074546.3547629714,17867176.883232486,-1585.0819994228766,1651.3336148752308,1818.1371603850664,229578.1726904912,-0.000765361066441983,0.000000021420419216156006,0.000000007450580596923828,-0.00000011920928955078125,0.0,122880.0,0.0,-262144.0,196608.0
Raw,1773868311000,6841201967,18,0.0,-1457903522158798080,0.0,10.068432807922363,62254.66015625,0.0,0,4,0.0,47,335528930898246,13,36.0,626.6405639648438,0.10405827313661575,16,0.0,0.073579604934901,1575420000,,,,0,31.799999237060547,1,2.5999999046325684,31.0,0.0,0.0,0.0,0.0,C,645232016797491,,12649198.586119667,8870015.8369338,21655810.269479413,-2116.928932188257,1735.0461497846597,509.69969512035846,14822.27954558705,0.000700518501616898,0.000000021420419216156006,0.000000007450580596923828,-0.00000011920928955078125,0.0,122880.0,0.0,-262144.0,196608.0
Raw,1773868311000,6841201967,18,0.0,-1457903522158798080,0.0,10.068432807922363,62254.66015625,0.0,0,3,0.0,47,335528925979829,14,34.599998474121094,839.9197998046875,0.11413440108299255,16,0.0,0.08070443500578403,1575420000,,,,0,32.20000076293945,1,2.5999999046325684,29.600000381469727,0.0,0.0,0.0,0.0,C,645232016797491,,11890202.952191003,20049878.114326343,12641687.496367004,141.2552446320721,1627.597172217527,-2662.316452686367,160442.79092806196,-0.004078586469404399,0.000000021420419216156006,0.000000007450580596923828,-0.00000011920928955078125,0.0,122880.0,0.0,-262144.0,196608.0
Raw,1773868311000,6841201967,18,0.0,-1457903522158798080,0.0,10.068432807922363,62254.66015625,0.0,0,7,0.0,47,335528921684660,16,32.5,-248.1710662841797,0.13223139941692352,16,0.0,0.09350082252770661,1575420000,,,,0,25.100000381469727,1,2.5999999046325684,27.5,0.0,0.0,0.0,0.0,C,645232016797491,,25704244.694829874,6080013.232019449,-3765164.128068905,426.3753728598369,445.1249901902513,3080.9678283143,-48681.49784632015,-0.000945251842495054,0.000000021420419216156006,0.000000007450580596923828,-0.00000011920928955078125,0.0,122880.0,0.0,-262144.0,196608.0
Raw,1773868311000,6841201967,18,0.0,-1457903522158798080,0.0,10.068432807922363,62254.66015625,0.0,0,17,0.0,47,335528917549505,27,25.200000762939453,911.1310424804688,0.24507398903369904,16,0.0,0.17329181764572857,1575420000,,,,0,20.100000381469727,1,2.5999999046325684,20.200000762939453,0.0,0.0,0.0,0.0,C,645232016797491,,22754554.786219016,-12722718.123945473,-5397305.26203216,-415.80719560773673,652.5967526279342,-3054.5961313585935,-27249.245135020115,-0.0026945757708745077,0.000000021420419216156006,0.000000007450580596923828,-0.00000011920928955078125,0.0,122880.0,0.0,-262144.0,196608.0
Raw,1773868311000,6841201967,18,0.0,-1457903522158798080,0.0,10.068432807922363,62254.66015625,0.0,0,1,0.0,239,710932785059,11,39.20000076293945,714.3737182617188,0.08549638837575912,16,0.0,0.060454496220499275,1602562600,,,,0,34.099998474121094,3,2.5999999046325684,34.20000076293945,0.0,0.0,0.0,0.0,C,645232016797491,,7581544.066868154,8330352.437778637,22894476.49289287,-1526.8397350750715,2736.8377580557544,-488.5433744173967,48682.91708474292,0.0002726596521824831,0.000000021420419216156006,0.000000007450580596923828,-0.00000011920928955078125,0.0,122880.0,0.0,-262144.0,196608.0
Raw,1773868311000,6841201967,18,0.0,-1457903522158798080,0.0,10.068432807922363,62254.66015625,0.0,0,24,0.0,239,710929837298,11,39.400001525878906,1026.86865234375,0.08450513333082199,16,0.0,0.05975357977822422,1603125000,,,,0,31.899999618530273,3,2.5999999046325684,34.400001525878906,0.0,0.0,0.0,0.0,C,645232016797491,,25341997.615970083,-780736.2176784129,2747749.2771103554,377.66222071241145,-142.65114408440536,-3540.8157645978004,-46348.377584325935,-0.0005453193043649662,0.000000021420419216156006,0.000000007450580596923828,-0.00000011920928955078125,0.0,122880.0,0.0,-262144.0,196608.0
Raw,1773868311000,6841201967,18,0.0,-1457903522158798080,0.0,10.068432807922363,62254.66015625,0.0,0,30,0.0,815,335514923135207,13,35.70000076293945,492.4834289550781,0.10610191524028778,16,0.0,0.07502466426640748,1561098000,,,,0,0.0,5,2.5999999046325684,30.700000762939453,0.0,0.0,0.0,0.0,C,645232016797491,,18980500.90499352,-14421977.261999225,14512417.78705631,1655.203915352739,-195.16128891338815,-2353.959587084652,122694.97495201055,0.002397534903138876,0.000000021420419216156006,0.000000007450580596923828,-0.00000011920928955078125,0.0,122880.0,0.0,-262144.0,196608.0
Raw,1773868311000,6841201967,18,0.0,-1457903522158798080,0.0,10.068432807922363,62254.66015625,0.0,0,2,0.0,239,710933483135,14,35.20000076293945,143.0028076171875,0.10964430868625641,16,0.0,0.0775294906720519,1599750000,,,,0,30.399999618530273,3,2.5999999046325684,30.200000762939453,0.0,0.0,0.0,0.0,C,645232016797491,,15291193.415594345,-8034995.344754544,18848991.711959284,-1477.7466588475054,2104.563964457961,2095.8282615815992,3620.4315748866647,0.0,0.000000021420419216156006,0.000000007450580596923828,-0.00000011920928955078125,0.0,122880.0,0.0,-262144.0,196608.0
Raw,1773868311000,6841201967,18,0.0,-1457903522158798080,0.0,10.068432807922363,62254.66015625,0.0,0,17,0.0,239,710933939725,16,32.70000076293945,256.1328430175781,0.13032881915569305,16,0.0,0.09215550802499055,1604250000,,,,0,28.600000381469727,3,2.5999999046325684,27.700000762939453,0.0,0.0,0.0,0.0,C,645232016797491,,15461331.330600489,-8164343.574604699,18559697.14821358,2545.6163177559324,-37.555100347834696,-2141.0051544680564,83743.0978199088,0.0008179789565474493,0.000000021420419216156006,0.000000007450580596923828,-0.00000011920928955078125,0.0,122880.0,0.0,-262144.0,196608.0
Raw,1773868311000,6841201967,18,0.0,-1457903522158798080,0.0,10.068432807922363,62254.66015625,0.0,0,3,0.0,239,710920674462,19,30.0,-254.6302490234375,0.1599999964237213,16,0.0,0.11313599747121333,1604812500,,,,0,24.100000381469727,3,2.5999999046325684,25.0,0.0,0.0,0.0,0.0,C,645232016797491,,14279411.514115224,-21022252.911027655,2574090.505385024,-354.5901432611388,186.61951299066686,3562.0029903844556,42216.56439583131,0.0002726596521824831,0.000000021420419216156006,0.000000007450580596923828,-0.00000011920928955078125,0.0,122880.0,0.0,-262144.0,196608.0
Raw,1773868312000,7841203128,18,0.0,-1457903522158796800,0.0,10.068432807922363,62252.734375,0.0,0,9,0.0,47,335529933255072,11,39.599998474121094,229.75967407226562,0.08353102952241898,20,-228.4897659010894,0.059064790975302456,1575420000,,,,0,29.799999237060547,1,2.5999999046325684,34.599998474121094,0.0,0.0,0.0,0.0,C,645233014446528,,19568009.396754168,-1072894.8962499555,17868994.830235634,-1585.1551920751842,1651.5820279101526,1817.7553195489031,229578.17192510798,-0.000765404780395329,0.000000021420419216156006,0.000000007450580596923828,-0.00000011920928955078125,0.0,122880.0,0.0,-262144.0,196608.0
Raw,1773868312000,7841203128,18,0.0,-1457903522158796800,0.0,10.068432807922363,62252.734375,0.0,0,4,0.0,47,335529930897308,13,36.400001525878906,626.1116333007812,0.10142399370670319,17,-625.1062868721492,0.07171690595000982,1575420000,,,,0,37.20000076293945,1,2.5999999046325684,31.399999618530273,0.0,0.0,0.0,0.0,C,645233014446528,,12647081.685447562,8871750.965516144,21656319.739428546,-2116.8763737228546,1735.2142641322064,509.24115701920226,14822.280246080243,0.0007004691997281043,0.000000021420419216156006,0.000000007450580596923828,-0.00000011920928955078125,0.0,122880.0,0.0,-262144.0,196608.0
Raw,1773868312000,7841203128,18,0.0,-1457903522158796800,0.0,10.068432807922363,62252.734375,0.0,0,3,0.0,47,335529925978192,14,35.0,839.437255859375,0.1111111119389534,17,-838.4260354041762,0.07856666725203394,1575420000,,,,0,31.700000762939453,1,2.5999999046325684,30.0,0.0,0.0,0.0,0.0,C,645233014446528,,11890344.230414947,20051505.53754532,12639025.049142381,141.3016571044434,1627.2545886699054,-2662.586703755181,160442.7868495289,-0.004078493046108633,0.000000021420419216156006,0.000000007450580596923828,-0.00000011920928955078125,0.0,122880.0,0.0,-262144.0,196608.0
Raw,1773868312000,7841203128,18,0.0,-1457903522158796800,0.0,10.068432807922363,62252.734375,0.0,0,7,0.0,47,335529921686640,16,32.400001525878906,-248.0830078125,0.13319836556911469,22,249.15436416867306,0.09418456429392098,1575420000,,,,0,24.5,1,2.5999999046325684,27.399999618530273,0.0,0.0,0.0,0.0,C,645233014446528,,25704670.90209214,6080458.279167406,-3762083.1146300756,426.0374597132999,444.9675505627341,3081.046837636657,-48681.49879142923,-0.0009449625940760598,0.000000021420419216156006,0.000000007450580596923828,-0.00000011920928955078125,0.0,122880.0,0.0,-262144.0,196608.0
Raw,1773868312000,7841203128,18,0.0,-1457903522158796800,0.0,10.068432807922363,62252.734375,0.0,0,17,0.0,47,335529917547592,27,25.200000762939453,911.6409912109375,0.24507398903369904,20,-910.3457455783791,0.17329181764572857,1575420000,,,,0,16.0,1,2.5999999046325684,20.200000762939453,0.0,0.0,0.0,0.0,C,645233014446528,,22754138.847558137,-12722065.397551166,-5400359.795287239,-416.0717105486634,652.8585382134415,-3054.48205456672,-27249.24782968067,-0.0026947556434606668,0.000000021420419216156006,0.000000007450580596923828,-0.00000011920928955078125,0.0,122880.0,0.0,-262144.0,196608.0
Raw,1773868312000,7841203128,18,0.0,-1457903522158796800,0.0,10.068432807922363,62252.734375,0.0,0,1,0.0,239,711932783859,11,39.20000076293945,714.1238403320312,0.08549638837575912,17,-706.527540590585,0.060454496220499275,1602562600,,,,0,31.200000762939453,3,2.5999999046325684,34.20000076293945,0.0,0.0,0.0,0.0,C,645233014446528,,7580017.357775868,8333089.305795252,22893987.675448198,-1526.582122671137,2736.904857989239,-489.09268399876487,48682.91735740224,0.0002726596521824831,0.000000021420419216156006,0.000000007450580596923828,-0.00000011920928955078125,0.0,122880.0,0.0,-262144.0,196608.0
Raw,1773868312000,7841203128,18,0.0,-1457903522158796800,0.0,10.068432807922363,62252.734375,0.0,0,30,0.0,815,335515923134740,13,36.29999923706055,492.3198547363281,0.10207311064004898,22,-491.1941131017811,0.07217589653357863,1561098000,,,,0,32.099998474121094,5,2.5999999046325684,31.299999237060547,0.0,0.0,0.0,0.0,C,645233014446528,,18982155.970338676,-14422172.450002491,14510063.69549342,1654.9283159129304,-195.21489284930817,-2354.225730262044,122694.9773495485,0.0023975432122824714,0.000000021420419216156006,0.000000007450580596923828,-0.00000011920928955078125,0.0,122880.0,0.0,-262144.0,196608.0
Raw,1773868312000,7841203128,18,0.0,-1457903522158796800,0.0,10.068432807922363,62252.734375,0.0,0,2,0.0,239,711933483829,14,35.20000076293945,142.8025360107422,0.10964430868625641,17,-138.77430281040142,0.0775294906720519,1599750000,,,,0,31.299999237060547,3,2.5999999046325684,30.200000762939453,0.0,0.0,0.0,0.0,C,645233014446528,,15289715.679724984,-8032890.59714729,18851087.316866342,-1477.7230185032777,2104.928345503253,2095.378657299711,3620.4315748866647,0.0,0.000000021420419216156006,0.000000007450580596923828,-0.00000011920928955078125,0.0,122880.0,0.0,-262144.0,196608.0
Raw,1773868312000,7841203128,18,0.0,-1457903522158796800,0.0,10.068432807922363,62252.734375,0.0,0,17,0.0,239,711933940042,15,33.29999923706055,256.0841369628906,0.12486109882593155,17,-251.81020186838578,0.0882892829798162,1604250000,,,,0,32.20000076293945,3,2.5999999046325684,28.299999237060547,0.0,0.0,0.0,0.0,C,645233014446528,,15463876.800225392,-8164381.238915976,18557555.919266716,2545.321334857399,-37.77348424043021,-2141.4513857446177,83743.09863788802,0.0008179789565474493,0.000000021420419216156006,0.000000007450580596923828,-0.00000011920928955078125,0.0,122880.0,0.0,-262144.0,196608.0
Raw,1773868312000,7841203128,18,0.0,-1457903522158796800,0.0,10.068432807922363,62252.734375,0.0,0,24,0.0,239,711929834963,11,39.20000076293945,1026.504150390625,0.08549638837575912,17,-1046.7777533083863,0.060454496220499275,1603125000,,,,0,26.399999618530273,3,2.5999999046325684,34.20000076293945,0.0,0.0,0.0,0.0,C,645233014446528,,25342375.029740177,-780878.8887144217,2744208.436614709,377.167090181179,-142.69156824471042,-3540.8817765491003,-46348.37812964397,-0.0005453193043649662,0.000000021420419216156006,0.000000007450580596923828,-0.00000011920928955078125,0.0,122880.0,0.0,-262144.0,196608.0
Raw,1773868312000,7841203128,18,0.0,-1457903522158796800,0.0,10.068432807922363,62252.734375,0.0,0,3,0.0,239,711920676412,19,29.899999618530273,-255.21641540527344,0.16128772497177124,20,237.96414687487413,0.11404655032753944,1604812500,,,,0,16.399999618530273,3,2.5999999046325684,24.899999618530273,0.0,0.0,0.0,0.0,C,645233014446528,,14279056.804082125,-21022066.0697646,2577652.4845009334,-354.8285145620928,187.06229381456478,3561.9413651239975,42216.56466849149,0.0002726596521824831,0.000000021420419216156006,0.000000007450580596923828,-0.00000011920928955078125,0.0,122880.0,0.0,-262144.0,196608.0
Raw,1773868313000,8841204289,18,0.0,-1457903522158795776,0.0,10.068432807922363,62252.91015625,0.0,0,4,0.0,47,335530930896371,13,36.70000076293945,625.9637451171875,0.09951337426900864,17,-1250.033799137862,0.07036590694561601,1575420000,,,,0,34.20000076293945,1,2.5999999046325684,31.700000762939453,0.0,0.0,0.0,0.0,C,645234012731143,,12644964.837360604,8873486.262196701,21656828.7508348,-2116.823757577234,1735.3823430274765,508.78260746234895,14822.280946524133,0.0007004198942013318,0.000000021420419216156006,0.000000007450580596923828,-0.00000011920928955078125,0.0,122880.0,0.0,-262144.0,196608.0
Raw,1773868313000,8841204289,18,0.0,-1457903522158795776,0.0,10.068432807922363,62252.91015625,0.0,0,6,0.0,47,335530929705392,13,36.099998474121094,180.08592224121094,0.1033901646733284,16,0.0,0.07310718544051051,1575420000,,,,0,0.0,1,2.5999999046325684,31.100000381469727,0.0,0.0,0.0,0.0,C,645234012731143,,16611826.170050174,-7474283.708740034,19451179.385021154,2256.8711819729037,941.9251600402476,-1555.4607349142766,-183681.40535531833,0.0003680724767036736,0.000000021420419216156006,0.000000007450580596923828,-0.00000011920928955078125,0.0,122880.0,0.0,-262144.0,196608.0
Raw,1773868313000,8841204289,18,0.0,-1457903522158795776,0.0,10.068432807922363,62252.91015625,0.0,0,3,0.0,47,335530925976556,14,35.099998474121094,839.259765625,0.11037405580282211,17,-1676.6576423085644,0.07804549485817551,1575420000,,,,0,31.600000381469727,1,2.5999999046325684,30.100000381469727,0.0,0.0,0.0,0.0,C,645234012731143,,11890485.555025551,20053132.61816716,12636362.331693286,141.34801804331528,1626.9119734065525,-2662.8568971534414,160442.7827710892,-0.0040783997101243585,0.000000021420419216156006,0.000000007450580596923828,-0.00000011920928955078125,0.0,122880.0,0.0,-262144.0,196608.0
Raw,1773868313000,8841204289,18,0.0,-1457903522158795776,0.0,10.068432807922363,62252.91015625,0.0,0,9,0.0,47,335530933255464,11,39.20000076293945,228.85614013671875,0.08549638837575912,20,-456.5047889649286,0.060454496220499275,1575420000,,,,0,27.799999237060547,1,2.5999999046325684,34.20000076293945,0.0,0.0,0.0,0.0,C,645234012731143,,19566424.20436984,-1071243.1893746983,17870812.395330872,-1585.2283235902628,1651.8304251323898,1817.373439390829,229578.17115968108,-0.0007654484361410141,0.000000021420419216156006,0.000000007450580596923828,-0.00000011920928955078125,0.0,122880.0,0.0,-262144.0,196608.0
Raw,1773868313000,8841204289,18,0.0,-1457903522158795776,0.0,10.068432807922363,62252.91015625,0.0,0,7,0.0,47,335530921688642,16,32.29999923706055,-248.38302612304688,0.13417595624923706,17,498.5455793813453,0.09487581866383551,1575420000,,,,0,24.100000381469727,1,2.5999999046325684,27.299999237060547,0.0,0.0,0.0,0.0,C,645234012731143,,25705096.771437448,6080903.168906972,-3759002.022146665,425.6995216139115,444.81015435155217,3081.1257815945705,-48681.49973624909,-0.0009446733602089807,0.000000021420419216156006,0.000000007450580596923828,-0.00000011920928955078125,0.0,122880.0,0.0,-262144.0,196608.0
Raw,1773868313000,8841204289,18,0.0,-1457903522158795776,0.0,10.068432807922363,62252.91015625,0.0,0,17,0.0,47,335530917545699,27,25.100000381469727,911.4091186523438,0.2475186139345169,20,-1820.6502398587181,0.1750204119130969,1575420000,,,,0,16.299999237060547,1,2.5999999046325684,20.100000381469727,0.0,0.0,0.0,0.0,C,645234012731143,,22753722.644395553,-12721412.409343883,-5403414.214494265,-416.3361833246995,653.1203535057343,-3054.367912616646,-27249.250524521147,-0.0026949355233227834,0.000000021420419216156006,0.000000007450580596923828,-0.00000011920928955078125,0.0,122880.0,0.0,-262144.0,196608.0
Raw,1773868313000,8841204289,18,0.0,-1457903522158795776,0.0,10.068432807922363,62252.91015625,0.0,0,1,0.0,239,712932782621,11,39.099998474121094,713.8065795898438,0.08599857985973358,17,-1424.787888124527,0.06080959581881761,1602562600,,,,0,30.899999618530273,3,2.5999999046325684,34.099998474121094,0.0,0.0,0.0,0.0,C,645234012731143,,7578490.906372756,8335826.240763438,22893498.308719125,-1526.3244719660738,2736.9718692777406,-489.6419817376122,48682.91763006156,0.0002726596521824831,0.000000021420419216156006,0.000000007450580596923828,-0.00000011920928955078125,0.0,122880.0,0.0,-262144.0,196608.0
Raw,1773868313000,8841204289,18,0.0,-1457903522158795776,0.0,10.068432807922363,62252.91015625,0.0,0,30,0.0,815,335516923134262,12,37.5,492.1803283691406,0.09467455744743347,17,-982.2951992563321,0.06694437957108021,1561098000,,,,0,33.400001525878906,5,2.5999999046325684,32.5,0.0,0.0,0.0,0.0,C,645234012731143,,18983810.760051657,-14422367.691586232,14507709.337834977,1654.6526871957992,-195.26845410728768,-2354.4918301975104,122694.97974709474,0.002397551550529897,0.000000021420419216156006,0.000000007450580596923828,-0.00000011920928955078125,0.0,122880.0,0.0,-262144.0,196608.0
Raw,1773868313000,8841204289,18,0.0,-1457903522158795776,0.0,10.068432807922363,62252.91015625,0.0,0,2,0.0,239,712933484511,14,35.099998474121094,142.62921142578125,0.11037405580282211,17,-281.55523293832084,0.07804549485817551,1599750000,,,,0,31.5,3,2.5999999046325684,30.100000381469727,0.0,0.0,0.0,0.0,C,645234012731143,,15288237.967553942,-8030785.485205298,18853182.47211868,-1477.6992976208503,2105.292684078359,2094.9290030675597,3620.4315748866647,0.0,0.000000021420419216156006,0.000000007450580596923828,-0.00000011920928955078125,0.0,122880.0,0.0,-262144.0,196608.0
Raw,1773868313000,8841204289,18,0.0,-1457903522158795776,0.0,10.068432807922363,62252.91015625,0.0,0,17,0.0,239,712933940356,15,34.29999923706055,255.9886932373047,0.11648360639810562,17,-504.76536982128164,0.08236555808410048,1604250000,,,,0,33.70000076293945,3,2.5999999046325684,29.299999237060547,0.0,0.0,0.0,0.0,C,645234012731143,,15466421.974819863,-8164419.121589126,18555414.244120512,2545.0262723150363,-37.99182432167163,-2141.8975657044193,83743.09945586722,0.0008179789565474493,0.000000021420419216156006,0.000000007450580596923828,-0.00000011920928955078125,0.0,122880.0,0.0,-262144.0,196608.0
Raw,1773868313000,8841204289,18,0.0,-1457903522158795776,0.0,10.068432807922363,62252.91015625,0.0,0,32,0.0,815,335516925429006,17,31.299999237060547,159.491455078125,0.14457345008850098,16,0.0,0.10222788655757903,1561098000,,,,0,0.0,5,2.5999999046325684,26.299999237060547,0.0,0.0,0.0,0.0,C,645234012731143,,17401042.58350696,-7161173.566880814,20612479.023511533,-827.8354084293926,2200.1229023327833,1466.9219027387724,-280669.8872702095,0.0013035046868026257,0.000000021420419216156006,0.000000007450580596923828,-0.00000011920928955078125,0.0,122880.0,0.0,-262144.0,196608.0
Raw,1773868313000,8841204289,18,0.0,-1457903522158795776,0.0,10.068432807922363,62252.91015625,0.0,0,24,0.0,239,712929832746,12,38.20000076293945,1026.936279296875,0.09072434157133102,20,-2058.6436219885363,0.06415118192508816,1603125000,,,,0,25.399999618530273,3,2.5999999046325684,33.20000076293945,0.0,0.0,0.0,0.0,C,645234012731143,,25342751.948418785,-781021.6001542324,2740667.5297320154,376.67194650060526,-142.7319175230291,-3540.947703403905,-46348.37867496206,-0.0005453193043649662,0.000000021420419216156006,0.000000007450580596923828,-0.00000011920928955078125,0.0,122880.0,0.0,-262144.0,196608.0
Raw,1773868313000,8841204289,18,0.0,-1457903522158795776,0.0,10.068432807922363,62252.91015625,0.0,0,3,0.0,239,712920678504,19,29.600000381469727,-254.15078735351562,0.16524554789066315,20,517.9945411123917,0.1168451269134879,1604812500,,,,0,18.899999618530273,3,2.5999999046325684,24.600000381469727,0.0,0.0,0.0,0.0,C,645234012731143,,14278701.855662238,-21021878.78567803,2581214.40245462,-355.0668144265003,187.50510555245887,3561.879654691202,42216.564941151715,0.0002726596521824831,0.000000021420419216156006,0.000000007450580596923828,-0.00000011920928955078125,0.0,122880.0,0.0,-262144.0,196608.0
Raw,1773868313000,8841204289,18,0.0,-1457903522158795776,0.0,10.068432807922363,62252.91015625,0.0,0,9,0.0,291,10746903,25,25.799999237060547,283.7777099609375,0.23113907873630524,16,0.0,0.16343844257444143,1561098000,,,,0,0.0,5,2.5999999046325684,20.799999237060547,0.0,0.0,0.0,0.0,C,645234012731143,,,,,,,,,,0.000000021420419216156006,0.000000007450580596923828,-0.00000011920928955078125,0.0,122880.0,0.0,-262144.0,196608.0
Raw,1773868314000,9841205449,18,0.0,-1457903522158794496,0.0,10.068432807922363,62251.703125,0.0,0,6,0.0,47,335531929705948,12,37.29999923706055,180.38540649414062,0.0958506315946579,22,-179.2592944316275,0.0677759816005826,1575420000,,,,0,33.900001525878906,1,2.5999999046325684,32.29999923706055,0.0,0.0,0.0,0.0,C,645235015182258,,16614082.980417278,-7473341.888800879,19449623.71857896,2256.747031641701,941.7136714776002,-1555.8704140589307,-183681.40498723206,0.0003680997178889811,0.000000021420419216156006,0.000000007450580596923828,-0.00000011920928955078125,0.0,122880.0,0.0,-262144.0,196608.0
Raw,1773868314000,9841205449,18,0.0,-1457903522158794496,0.0,10.068432807922363,62251.703125,0.0,0,4,0.0,47,335531930895441,13,37.0,625.9682006835938,0.09765625,17,-1874.9047190546116,0.069052734375,1575420000,,,,0,34.400001525878906,1,2.5999999046325684,32.0,0.0,0.0,0.0,0.0,C,645235015182258,,12642848.041903779,8875221.726950394,21657337.303689748,-2116.7710837569784,1735.5503864602802,508.3240464566715,14822.281646918724,0.0007003705850365805,0.000000021420419216156006,0.000000007450580596923828,-0.00000011920928955078125,0.0,122880.0,0.0,-262144.0,196608.0
Raw,1773868314000,9841205449,18,0.0,-1457903522158794496,0.0,10.068432807922363,62251.703125,0.0,0,3,0.0,47,335531925974913,14,35.20000076293945,839.1729125976562,0.10964430868625641,17,-2514.766544204118,0.0775294906720519,1575420000,,,,0,31.399999618530273,1,2.5999999046325684,30.200000762939453,0.0,0.0,0.0,0.0,C,645235015182258,,11890626.925970308,20054759.35614702,12633699.344098723,141.394327443003,1626.5693264434628,-2663.1270328734977,160442.7786927429,-0.004078306286828592,0.000000021420419216156006,0.000000007450580596923828,-0.00000011920928955078125,0.0,122880.0,0.0,-262144.0,196608.0
Raw,1773868314000,9841205449,18,0.0,-1457903522158794496,0.0,10.068432807922363,62251.703125,0.0,0,11,0.0,47,335531921019917,15,33.20000076293945,-254.63497924804688,0.1257481873035431,16,0.0,0.08891654324233532,1575420000,,,,0,0.0,1,2.5999999046325684,28.200000762939453,0.0,0.0,0.0,0.0,C,645235015182258,,1996989.110157092,-15368512.67185065,21628861.74109301,2551.7781008845395,976.9176000442167,452.6557940508004,-120786.92114628846,0.004034743149532005,0.000000021420419216156006,0.000000007450580596923828,-0.00000011920928955078125,0.0,122880.0,0.0,-262144.0,196608.0
Raw,1773868314000,9841205449,18,0.0,-1457903522158794496,0.0,10.068432807922363,62251.703125,0.0,0,9,0.0,47,335531933255869,12,38.5,229.5039825439453,0.08910670876502991,22,-684.7617466188094,0.06300735376775264,1575420000,,,,0,28.100000381469727,1,2.5999999046325684,33.5,0.0,0.0,0.0,0.0,C,645235015182258,,19564838.938863933,-1069591.234088434,17872629.578549758,-1585.3013939719885,1652.0788065386184,1816.9915199040477,229578.17039421047,-0.0007654921500943601,0.000000021420419216156006,0.000000007450580596923828,-0.00000011920928955078125,0.0,122880.0,0.0,-262144.0,196608.0
Raw,1773868314000,9841205449,18,0.0,-1457903522158794496,0.0,10.068432807922363,62251.703125,0.0,0,7,0.0,47,335531921690654,16,32.20000076293945,-248.75439453125,0.13516435027122498,20,748.2633168139437,0.09557471207678317,1575420000,,,,0,24.5,1,2.5999999046325684,27.200000762939453,0.0,0.0,0.0,0.0,C,645235015182258,,25705522.30283582,6081347.901276012,-3755920.850721016,425.3615585772983,444.652801564805,3081.204660186587,-48681.50068077973,-0.0009443841263419017,0.000000021420419216156006,0.000000007450580596923828,-0.00000011920928955078125,0.0,122880.0,0.0,-262144.0,196608.0
Raw,1773868314000,9841205449,18,0.0,-1457903522158794496,0.0,10.068432807922363,62251.703125,0.0,0,17,0.0,47,335531917543805,27,24.899999618530273,911.4310302734375,0.252518892288208,20,-2730.9556010774395,0.17855610873699188,1575420000,,,,0,18.200000762939453,1,2.5999999046325684,19.899999618530273,0.0,0.0,0.0,0.0,C,645235015182258,,22753306.176782176,-12720759.159307655,-5406468.519523923,-416.6006139217744,653.382198488923,-3054.253705512461,-27249.253219541508,-0.0026951154104608577,0.000000021420419216156006,0.000000007450580596923828,-0.00000011920928955078125,0.0,122880.0,0.0,-262144.0,196608.0
Raw,1773868314000,9841205449,18,0.0,-1457903522158794496,0.0,10.068432807922363,62251.703125,0.0,0,1,0.0,239,713932781395,11,39.0,713.7953491210938,0.08650518953800201,17,-2139.0421079880616,0.06116781952232122,1602562600,,,,0,30.899999618530273,3,2.5999999046325684,34.0,0.0,0.0,0.0,0.0,C,645235015182258,,7576964.7126209345,8338563.24273127,22893008.392693017,-1526.0667829646936,2737.038791917821,-490.1912676482572,48682.917902720874,0.0002726596521824831,0.000000021420419216156006,0.000000007450580596923828,-0.00000011920928955078125,0.0,122880.0,0.0,-262144.0,196608.0
Raw,1773868314000,9841205449,18,0.0,-1457903522158794496,0.0,10.068432807922363,62251.703125,0.0,0,30,0.0,815,335517923133779,12,37.79999923706055,492.1559753417969,0.09295062720775604,17,-1473.3490408397338,0.06572538849860429,1561098000,,,,0,33.29999923706055,5,2.5999999046325684,32.79999923706055,0.0,0.0,0.0,0.0,C,645235015182258,,18985465.27411314,-14422562.98670887,14505354.714110138,1654.3770292095214,-195.3219726826757,-2354.7578868877868,122694.9821446493,0.002397559888777323,0.000000021420419216156006,0.000000007450580596923828,-0.00000011920928955078125,0.0,122880.0,0.0,-262144.0,196608.0
Raw,1773868314000,9841205449,18,0.0,-1457903522158794496,0.0,10.068432807922363,62251.703125,0.0,0,17,0.0,239,713933940673,14,35.099998474121094,256.0264892578125,0.11037405580282211,17,-756.2892936206481,0.07804549485817551,1604250000,,,,0,33.5,3,2.5999999046325684,30.100000381469727,0.0,0.0,0.0,0.0,C,645235015182258,,15468966.85431938,-8164457.222580733,18553272.122813497,2544.731130138955,-38.21012057719622,-2142.3436943393494,83743.10027384644,0.0008179789565474493,0.000000021420419216156006,0.000000007450580596923828,-0.00000011920928955078125,0.0,122880.0,0.0,-262144.0,196608.0
Raw,1773868314000,9841205449,18,0.0,-1457903522158794496,0.0,10.068432807922363,62251.703125,0.0,0,2,0.0,239,713933485197,14,35.099998474121094,142.5787811279297,0.11037405580282211,17,-422.4759539104125,0.07804549485817551,1599750000,,,,0,32.099998474121094,3,2.5999999046325684,30.100000381469727,0.0,0.0,0.0,0.0,C,645235015182258,,15286760.279138206,-8028680.008937243,18855277.177699868,-1477.6754962065654,2105.6569801706282,2094.4792988886093,3620.4315748866647,0.0,0.000000021420419216156006,0.000000007450580596923828,-0.00000011920928955078125,0.0,122880.0,0.0,-262144.0,196608.0
Raw,1773868314000,9841205449,18,0.0,-1457903522158794496,0.0,10.068432807922363,62251.703125,0.0,0,32,0.0,815,335517925429625,15,33.20000076293945,159.39102172851562,0.1257481873035431,22,-158.26487953585456,0.08891654324233532,1561098000,,,,0,29.600000381469727,5,2.5999999046325684,28.200000762939453,0.0,0.0,0.0,0.0,C,645235015182258,,17400214.794797003,-7158973.335655754,20613945.75735124,-827.7409796851623,2200.336816829627,1466.5439564235542,-280669.8859666993,0.0013035142328590155,0.000000021420419216156006,0.000000007450580596923828,-0.00000011920928955078125,0.0,122880.0,0.0,-262144.0,196608.0
Raw,1773868314000,9841205449,18,0.0,-1457903522158794496,0.0,10.068432807922363,62251.703125,0.0,0,11,0.0,239,713924686819,18,30.899999618530273,-120.2625961303711,0.1490735113620758,20,141.5052703768306,0.1054098798841238,1602000000,,,,0,24.5,3,2.5999999046325684,25.899999618530273,0.0,0.0,0.0,0.0,C,645235015182258,,6274584.766675404,22151352.821877733,11015647.602370437,-599.4365869368105,-1389.5642748371304,3136.178072047791,6755.285797560782,-0.0005453193043649662,0.000000021420419216156006,0.000000007450580596923828,-0.00000011920928955078125,0.0,122880.0,0.0,-262144.0,196608.0
Raw,1773868314000,9841205449,18,0.0,-1457903522158794496,0.0,10.068432807922363,62251.703125,0.0,0,24,0.0,239,713929830503,13,36.900001525878906,1026.1343994140625,0.09826947748661041,20,-3077.80609109989,0.06948634753078221,1603125000,,,,0,25.799999237060547,3,2.5999999046325684,31.899999618530273,0.0,0.0,0.0,0.0,C,645235015182258,,25343128.371938482,-781164.3519019318,2737126.557057285,376.17678976220134,-142.77219191086874,-3541.0135451510805,-46348.37922028015,-0.0005453193043649662,0.000000021420419216156006,0.000000007450580596923828,-0.00000011920928955078125,0.0,122880.0,0.0,-262144.0,196608.0
Raw,1773868314000,9841205449,18,0.0,-1457903522158794496,0.0,10.068432807922363,62251.703125,0.0,0,3,0.0,239,713920680492,20,29.200000762939453,-255.2919158935547,0.1707533597946167,20,767.2621249222138,0.12073970071077346,1604812500,,,,0,21.200000762939453,3,2.5999999046325684,24.200000762939453,0.0,0.0,0.0,0.0,C,645235015182258,,14278346.669014944,-21021691.05878274,2584776.2582846913,-355.3050427868566,187.94794807679773,3561.8178591028627,42216.56521381191,0.0002726596521824831,0.000000021420419216156006,0.000000007450580596923828,-0.00000011920928955078125,0.0,122880.0,0.0,-262144.0,196608.0
Raw,1773868314000,9841205449,18,0.0,-1457903522158794496,0.0,10.068432807922363,62251.703125,0.0,0,9,0.0,291,10747112,24,26.600000381469727,284.317626953125,0.21433469653129578,20,-282.9045095964975,0.15155606391727924,1561098000,,,,0,21.799999237060547,5,2.5999999046325684,21.600000381469727,0.0,0.0,0.0,0.0,C,645235015182258,,,,,,,,,,0.000000021420419216156006,0.000000007450580596923828,-0.00000011920928955078125,0.0,122880.0,0.0,-262144.0,196608.0
Raw,1773868315000,10841206549,18,0.0,-1457903522158793472,0.0,10.068432807922363,62251.53125,0.0,0,6,0.0,47,335532929706431,12,37.70000076293945,180.2088623046875,0.09351999312639236,17,-358.50651852352894,0.06612798713967204,1575420000,,,,0,33.29999923706055,1,2.5999999046325684,32.70000076293945,0.0,0.0,0.0,0.0,C,645236032782834,,16616339.666436184,-7472400.280417587,19448067.642587554,2256.622815226883,941.5021860951649,-1556.2800600817438,-183681.40461911852,0.00036812692997045815,0.000000021420419216156006,0.000000007450580596923828,-0.00000011920928955078125,0.0,122880.0,0.0,-262144.0,196608.0
Raw,1773868315000,10841206549,18,0.0,-1457903522158793472,0.0,10.068432807922363,62251.53125,0.0,0,4,0.0,47,335532930894449,12,37.29999923706055,625.7538452148438,0.0958506315946579,17,-2499.624298534618,0.0677759816005826,1575420000,,,,0,35.20000076293945,1,2.5999999046325684,32.29999923706055,0.0,0.0,0.0,0.0,C,645236032782834,,12640731.299280744,8876957.359622058,21657845.397946928,-2116.7183522716377,1735.7183944078172,507.86547404343077,14822.28234726396,0.0007003212740528397,0.000000021420419216156006,0.000000007450580596923828,-0.00000011920928955078125,0.0,122880.0,0.0,-262144.0,196608.0
Raw,1773868315000,10841206549,18,0.0,-1457903522158793472,0.0,10.068432807922363,62251.53125,0.0,0,3,0.0,47,335532925973224,14,35.400001525878906,838.9677734375,0.1082063764333725,17,-3352.7082251936954,0.0765127287760377,1575420000,,,,0,32.900001525878906,1,2.5999999046325684,30.399999618530273,0.0,0.0,0.0,0.0,C,645236032782834,,11890768.34319213,20056385.751389813,12631036.086520242,141.44058529637545,1626.2266478072534,-2663.3971108993305,160442.77461449016,-0.004078212892636657,0.000000021420419216156006,0.000000007450580596923828,-0.00000011920928955078125,0.0,122880.0,0.0,-262144.0,196608.0
Raw,1773868315000,10841206549,18,0.0,-1457903522158793472,0.0,10.068432807922363,62251.53125,0.0,0,11,0.0,47,335532921021881,15,33.20000076293945,-254.52259826660156,0.1257481873035431,20,255.63871780840782,0.08891654324233532,1575420000,,,,0,28.799999237060547,1,2.5999999046325684,28.200000762939453,0.0,0.0,0.0,0.0,C,645236032782834,,1999540.9486833424,-15367535.816718882,21629314.16895309,2551.8889182711787,976.7888211825018,452.1981473527817,-120786.91711154638,0.004034725148812868,0.000000021420419216156006,0.000000007450580596923828,-0.00000011920928955078125,0.0,122880.0,0.0,-262144.0,196608.0
Raw,1773868315000,10841206549,18,0.0,-1457903522158793472,0.0,10.068432807922363,62251.53125,0.0,0,9,0.0,47,335532933256210,12,37.5,229.17103576660156,0.09467455744743347,17,-912.9830043495458,0.06694437957108021,1575420000,,,,0,28.600000381469727,1,2.5999999046325684,32.5,0.0,0.0,0.0,0.0,C,645236032782834,,19563253.600419633,-1067939.0305344388,17874446.37971308,-1585.3744032157301,1652.3271720967416,1816.6095611260655,229578.16962869625,-0.0007655358058400452,0.000000021420419216156006,0.000000007450580596923828,-0.00000011920928955078125,0.0,122880.0,0.0,-262144.0,196608.0
Raw,1773868315000,10841206549,18,0.0,-1457903522158793472,0.0,10.068432807922363,62251.53125,0.0,0,7,0.0,47,335532921692563,16,32.099998474121094,-248.46241760253906,0.13616371154785156,20,997.8847443095583,0.09628136043548584,1575420000,,,,0,27.0,1,2.5999999046325684,27.100000381469727,0.0,0.0,0.0,0.0,C,645236032782834,,25705947.496214185,6081792.476268029,-3752839.6007666737,425.0235706532163,444.495492226485,3081.2834734033027,-48681.50162502106,-0.0009440949143026955,0.000000021420419216156006,0.000000007450580596923828,-0.00000011920928955078125,0.0,122880.0,0.0,-262144.0,196608.0
Raw,1773868315000,10841206549,18,0.0,-1457903522158793472,0.0,10.068432807922363,62251.53125,0.0,0,19,0.0,47,335532922956242,18,30.299999237060547,854.9365844726562,0.15622803568840027,16,0.0,0.11046884403526783,1575420000,,,,0,0.0,1,2.5999999046325684,25.299999237060547,0.0,0.0,0.0,0.0,C,645236032782834,,19936507.243174657,-16786919.54355037,3246868.159139012,542.2595098623322,27.835182641218594,-3167.2837657052996,208106.23830523706,-0.000722990371286869,0.000000021420419216156006,0.000000007450580596923828,-0.00000011920928955078125,0.0,122880.0,0.0,-262144.0,196608.0
Raw,1773868315000,10841206549,18,0.0,-1457903522158793472,0.0,10.068432807922363,62251.53125,0.0,0,17,0.0,47,335532917541861,28,24.799999237060547,910.5881958007812,0.25507602095603943,20,-3640.709781962709,0.18036425441801546,1575420000,,,,0,17.799999237060547,1,2.5999999046325684,19.799999237060547,0.0,0.0,0.0,0.0,C,645236032782834,,22752889.444780715,-12720105.647444647,-5409522.710161415,-416.86500231842433,653.6440731397865,-3054.139433261463,-27249.25591474163,-0.0026952953048748896,0.000000021420419216156006,0.000000007450580596923828,-0.00000011920928955078125,0.0,122880.0,0.0,-262144.0,196608.0
Raw,1773868315000,10841206549,18,0.0,-1457903522158793472,0.0,10.068432807922363,62251.53125,0.0,0,1,0.0,239,714932780123,11,38.900001525878906,713.592529296875,0.08701629191637039,17,-2849.3002646856767,0.0615292200140655,1602562600,,,,0,30.700000762939453,3,2.5999999046325684,33.900001525878906,0.0,0.0,0.0,0.0,C,645236032782834,,7575438.776647249,8341300.31145127,22892517.927410178,-1525.8090556997017,2737.1056258987865,-490.740541685676,48682.918175380175,0.0002726596521824831,0.000000021420419216156006,0.000000007450580596923828,-0.00000011920928955078125,0.0,122880.0,0.0,-262144.0,196608.0
Raw,1773868315000,10841206549,18,0.0,-1457903522158793472,0.0,10.068432807922363,62251.53125,0.0,0,30,0.0,815,335518923133252,12,38.0,492.01837158203125,0.09182736277580261,17,-1964.3058595687908,0.06493112821877002,1561098000,,,,0,33.900001525878906,5,2.5999999046325684,33.0,0.0,0.0,0.0,0.0,C,645236032782834,,18987119.512429412,-14422758.33532006,14502999.824453972,1654.1013419746773,-195.3754485684227,-2355.023900317642,122694.98454221207,0.0023975682124728337,0.000000021420419216156006,0.000000007450580596923828,-0.00000011920928955078125,0.0,122880.0,0.0,-262144.0,196608.0
Raw,1773868315000,10841206549,18,0.0,-1457903522158793472,0.0,10.068432807922363,62251.53125,0.0,0,17,0.0,239,714933940907,14,35.5,255.97523498535156,0.10749798268079758,17,-1014.9778742820781,0.07601182355359196,1604250000,,,,0,33.5,3,2.5999999046325684,30.5,0.0,0.0,0.0,0.0,C,645236032782834,,15471511.438425694,-8164495.541843483,18551129.55558121,2544.435908366415,-38.42837297251913,-2142.7897716002904,83743.10109182558,0.0008179789565474493,0.000000021420419216156006,0.000000007450580596923828,-0.00000011920928955078125,0.0,122880.0,0.0,-262144.0,196608.0
Raw,1773868315000,10841206549,18,0.0,-1457903522158793472,0.0,10.068432807922363,62251.53125,0.0,0,2,0.0,239,714933485833,14,35.20000076293945,142.43821716308594,0.10964430868625641,17,-560.6886505477887,0.0775294906720519,1599750000,,,,0,32.20000076293945,3,2.5999999046325684,30.200000762939453,0.0,0.0,0.0,0.0,C,645236032782834,,15285282.614638131,-8026574.168499321,18857371.43344684,-1477.6516142684245,2106.021233741928,2094.029544797809,3620.4315748866647,0.0,0.000000021420419216156006,0.000000007450580596923828,-0.00000011920928955078125,0.0,122880.0,0.0,-262144.0,196608.0
Raw,1773868315000,10841206549,18,0.0,-1457903522158793472,0.0,10.068432807922363,62251.53125,0.0,0,32,0.0,815,335518925430213,15,33.70000076293945,159.19378662109375,0.12140488624572754,17,-316.4087503620831,0.08584539506435394,1561098000,,,,0,29.899999618530273,5,2.5999999046325684,28.700000762939453,0.0,0.0,0.0,0.0,C,645236032782834,,17399387.100562513,-7156772.890605579,20615412.113185573,-827.6465088717171,2200.550688866138,1466.1659833541353,-280669.88466317946,0.0013035238371230662,0.000000021420419216156006,0.000000007450580596923828,-0.00000011920928955078125,0.0,122880.0,0.0,-262144.0,196608.0
Raw,1773868315000,10841206549,18,0.0,-1457903522158793472,0.0,10.068432807922363,62251.53125,0.0,0,11,0.0,239,714924688272,18,30.700000762939453,-120.55133056640625,0.15140274167060852,20,248.53772311346256,0.10705687863528728,1602000000,,,,0,25.299999237060547,3,2.5999999046325684,25.700000762939453,0.0,0.0,0.0,0.0,C,645236032782834,,6273985.169356751,22149963.092656467,11018783.652891235,-599.7563305485116,-1389.890118728239,3135.9138723179626,6755.285252240686,-0.0005453193043649662,0.000000021420419216156006,0.000000007450580596923828,-0.00000011920928955078125,0.0,122880.0,0.0,-262144.0,196608.0
Raw,1773868315000,10841206549,18,0.0,-1457903522158793472,0.0,10.068432807922363,62251.53125,0.0,0,24,0.0,239,714929828219,13,35.900001525878906,1026.6546630859375,0.10473287850618362,20,-4091.3989847966295,0.07405661839172244,1603125000,,,,0,24.5,3,2.5999999046325684,30.899999618530273,0.0,0.0,0.0,0.0,C,645236032782834,,25343504.30028061,-781307.1438804587,2733585.5187287037,375.68161999359535,-142.812391404972,-3541.0793017880264,-46348.379765598205,-0.0005453193043649662,0.000000021420419216156006,0.000000007450580596923828,-0.00000011920928955078125,0.0,122880.0,0.0,-262144.0,196608.0
Raw,1773868315000,10841206549,18,0.0,-1457903522158793472,0.0,10.068432807922363,62251.53125,0.0,0,3,0.0,239,714920682345,20,28.899999618530273,-255.16603088378906,0.1750669777393341,20,994.0557044341404,0.12378985995948313,1604812500,,,,0,22.700000762939453,3,2.5999999046325684,23.899999618530273,0.0,0.0,0.0,0.0,C,645236032782834,,14277991.244222373,-21021502.88905418,2588338.0517956554,-355.5431996269165,188.390821355247,3561.7559783625434,42216.565486472064,0.0002726596521824831,0.000000021420419216156006,0.000000007450580596923828,-0.00000011920928955078125,0.0,122880.0,0.0,-262144.0,196608.0
Raw,1773868315000,10841206549,18,0.0,-1457903522158793472,0.0,10.068432807922363,62251.53125,0.0,0,9,0.0,291,10747246,24,26.600000381469727,283.84649658203125,0.21433469653129578,20,-565.661879557505,0.15155606391727924,1561098000,,,,0,22.399999618530273,5,2.5999999046325684,21.600000381469727,0.0,0.0,0.0,0.0,C,645236032782834,,,,,,,,,,0.000000021420419216156006,0.000000007450580596923828,-0.00000011920928955078125,0.0,122880.0,0.0,-262144.0,196608.0
Raw,1773868316000,11841207710,18,0.0,-1457903522158792192,0.0,10.068432807922363,62250.7734375,0.0,0,6,0.0,47,335533929706989,12,37.70000076293945,180.03269958496094,0.09351999312639236,17,-537.4914427952026,0.06612798713967204,1575420000,,,,0,32.70000076293945,1,2.5999999046325684,32.70000076293945,0.0,0.0,0.0,0.0,C,645237047752987,,16618596.22837482,-7471458.8834475605,19446511.15684972,2256.498532712474,941.290703874683,-1556.689673034857,-183681.4042509778,0.0003681541420519352,0.000000021420419216156006,0.000000007450580596923828,-0.00000011920928955078125,0.0,122880.0,0.0,-262144.0,196608.0
Raw,1773868316000,11841207710,18,0.0,-1457903522158792192,0.0,10.068432807922363,62250.7734375,0.0,0,4,0.0,47,335533930893521,12,37.5,625.5648193359375,0.09467455744743347,17,-3124.1534942046273,0.06694437957108021,1575420000,,,,0,35.599998474121094,1,2.5999999046325684,32.5,0.0,0.0,0.0,0.0,C,645237047752987,,12638614.60928257,8878693.1603948,21658353.033658896,-2116.665563120473,1735.8863668800582,507.40689017448807,14822.283047559926,0.0007002719576121308,0.000000021420419216156006,0.000000007450580596923828,-0.00000011920928955078125,0.0,122880.0,0.0,-262144.0,196608.0
Raw,1773868316000,11841207710,18,0.0,-1457903522158792192,0.0,10.068432807922363,62250.7734375,0.0,0,3,0.0,47,335533925971605,14,35.5,838.7175903320312,0.10749798268079758,17,-4190.413450001972,0.07601182355359196,1575420000,,,,0,31.600000381469727,1,2.5999999046325684,30.5,0.0,0.0,0.0,0.0,C,645237047752987,,11890909.806655865,20058011.804052524,12628372.558706576,141.4867916034719,1625.8839374714212,-2663.6671312567833,160442.77053633053,-0.0040781195275485516,0.000000021420419216156006,0.000000007450580596923828,-0.00000011920928955078125,0.0,122880.0,0.0,-262144.0,196608.0
Raw,1773868316000,11841207710,18,0.0,-1457903522158792192,0.0,10.068432807922363,62250.7734375,0.0,0,11,0.0,47,335533921023915,15,33.20000076293945,-254.80419921875,0.1257481873035431,22,511.47566394196474,0.08891654324233532,1575420000,,,,0,28.200000762939453,1,2.5999999046325684,28.200000762939453,0.0,0.0,0.0,0.0,C,645237047752987,,2002092.8981762803,-15366559.090313599,21629766.13919229,2551.999676445054,976.6600108569324,451.7404908134266,-120786.91307682205,0.004034707133541815,0.000000021420419216156006,0.000000007450580596923828,-0.00000011920928955078125,0.0,122880.0,0.0,-262144.0,196608.0
Raw,1773868316000,11841207710,18,0.0,-1457903522158792192,0.0,10.068432807922363,62250.7734375,0.0,0,9,0.0,47,335533933256601,13,36.70000076293945,228.99700927734375,0.09951337426900864,17,-1140.935518521117,0.07036590694561601,1575420000,,,,0,29.5,1,2.5999999046325684,31.700000762939453,0.0,0.0,0.0,0.0,C,645237047752987,,19561668.188917372,-1066286.5785399973,17876262.79898866,-1585.4473513308458,1652.5755218220625,1816.22756302144,229578.16886313824,-0.0007655795197933912,0.000000021420419216156006,0.000000007450580596923828,-0.00000011920928955078125,0.0,122880.0,0.0,-262144.0,196608.0
Raw,1773868316000,11841207710,18,0.0,-1457903522158792192,0.0,10.068432807922363,62250.7734375,0.0,0,7,0.0,47,335533921694531,17,32.0,-248.6491241455078,0.13717420399188995,20,1247.6125402904581,0.09699587964266539,1575420000,,,,0,26.600000381469727,1,2.5999999046325684,27.0,0.0,0.0,0.0,0.0,C,645237047752987,,25706372.351616614,6082236.893998273,-3749758.271849836,424.68555779848487,444.338226317312,3081.3622212569935,-48681.502568973236,-0.0009438057168154046,0.000000021420419216156006,0.000000007450580596923828,-0.00000011920928955078125,0.0,122880.0,0.0,-262144.0,196608.0
Raw,1773868316000,11841207710,18,0.0,-1457903522158792192,0.0,10.068432807922363,62250.7734375,0.0,0,19,0.0,47,335533922954539,18,30.799999237060547,854.8255615234375,0.15023136138916016,20,-853.7002033292956,0.10622859563827514,1575420000,,,,0,27.200000762939453,1,2.5999999046325684,25.799999237060547,0.0,0.0,0.0,0.0,C,645237047752987,,19937049.337466903,-16786891.60789779,3243700.8450510222,541.9309244749747,28.036225636399436,-3167.35518651934,208106.23758225227,-0.000722981640137732,0.000000021420419216156006,0.000000007450580596923828,-0.00000011920928955078125,0.0,122880.0,0.0,-262144.0,196608.0
Raw,1773868316000,11841207710,18,0.0,-1457903522158792192,0.0,10.068432807922363,62250.7734375,0.0,0,31,0.0,47,335533919034896,21,28.399999618530273,916.8846435546875,0.18262839317321777,16,0.0,0.12913653681278228,1575420000,,,,0,0.0,1,2.5999999046325684,23.399999618530273,0.0,0.0,0.0,0.0,C,645237047752987,,-6914225.144696486,13619133.299491884,21455985.03495136,-2613.8120911125598,-984.4600211101229,-184.29818265045267,-48206.006035982835,-0.00016281254647765309,0.000000021420419216156006,0.000000007450580596923828,-0.00000011920928955078125,0.0,122880.0,0.0,-262144.0,196608.0
Raw,1773868316000,11841207710,18,0.0,-1457903522158792192,0.0,10.068432807922363,62250.7734375,0.0,0,17,0.0,47,335533917539958,28,24.600000381469727,909.897705078125,0.2603082060813904,20,-4549.805972322123,0.18406393252015113,1575420000,,,,0,16.299999237060547,1,2.5999999046325684,19.600000381469727,0.0,0.0,0.0,0.0,C,645237047752987,,22752472.4483953,-12719451.873665966,-5412576.786619513,-417.1293485301903,653.9059774717649,-3054.0250958549527,-27249.25861012175,-0.0026954752029269002,0.000000021420419216156006,0.000000007450580596923828,-0.00000011920928955078125,0.0,122880.0,0.0,-262144.0,196608.0
Raw,1773868316000,11841207710,18,0.0,-1457903522158792192,0.0,10.068432807922363,62250.7734375,0.0,0,30,0.0,815,335519923132778,12,38.099998474121094,491.7989501953125,0.09127336740493774,17,-2455.0701077163685,0.06453939809203148,1561098000,,,,0,33.400001525878906,5,2.5999999046325684,33.099998474121094,0.0,0.0,0.0,0.0,C,645237047752987,,18988773.475131545,-14422953.737396192,14500644.668681324,1653.82562547435,-195.42888176476407,-2355.289870508019,122694.98693978332,0.0023975765361683443,0.000000021420419216156006,0.000000007450580596923828,-0.00000011920928955078125,0.0,122880.0,0.0,-262144.0,196608.0
Raw,1773868316000,11841207710,18,0.0,-1457903522158792192,0.0,10.068432807922363,62250.7734375,0.0,0,1,0.0,239,715932778920,11,38.79999923706055,713.3348388671875,0.08753195405006409,17,-3556.8291634127963,0.061893844708800314,1602562600,,,,0,30.600000381469727,3,2.5999999046325684,33.79999923706055,0.0,0.0,0.0,0.0,C,645237047752987,,7573913.098314277,8344037.447149794,22892026.912826013,-1525.551290159264,2737.1723712214803,-491.2898038998983,48682.918448039505,0.0002726596521824831,0.000000021420419216156006,0.000000007450580596923828,-0.00000011920928955078125,0.0,122880.0,0.0,-262144.0,196608.0
Raw,1773868316000,11841207710,18,0.0,-1457903522158792192,0.0,10.068432807922363,62250.7734375,0.0,0,17,0.0,239,715933941227,13,35.79999923706055,255.86306762695312,0.10541407018899918,17,-1265.929481107043,0.07453828903064132,1604250000,,,,0,33.20000076293945,3,2.5999999046325684,30.799999237060547,0.0,0.0,0.0,0.0,C,645237047752987,,15474055.727489011,-8164534.079340225,18548986.54211293,2544.140606959416,-38.64658152885727,-2143.2357975518357,83743.10190980481,0.0008179789565474493,0.000000021420419216156006,0.000000007450580596923828,-0.00000011920928955078125,0.0,122880.0,0.0,-262144.0,196608.0
Raw,1773868316000,11841207710,18,0.0,-1457903522158792192,0.0,10.068432807922363,62250.7734375,0.0,0,2,0.0,239,715933486507,14,35.29999923706055,142.17967224121094,0.10892178863286972,17,-705.4724492162932,0.07701859674230217,1599750000,,,,0,32.70000076293945,3,2.5999999046325684,30.299999237060547,0.0,0.0,0.0,0.0,C,645237047752987,,15283804.974004002,-8024467.963749024,18859465.23949402,-1477.6276518109896,2106.3854448058974,2093.5797407662267,3620.4315748866647,0.0,0.000000021420419216156006,0.000000007450580596923828,-0.00000011920928955078125,0.0,122880.0,0.0,-262144.0,196608.0
Raw,1773868316000,11841207710,18,0.0,-1457903522158792192,0.0,10.068432807922363,62250.7734375,0.0,0,32,0.0,815,335519925430832,15,34.0,158.95700073242188,0.11890606582164764,17,-474.34045273746597,0.08407847914248705,1561098000,,,,0,29.299999237060547,5,2.5999999046325684,29.0,0.0,0.0,0.0,0.0,C,645237047752987,,17398559.500794306,-7154572.2316361675,20616878.091078673,-827.5519959906541,2200.7645184466796,1465.7879835140268,-280669.88335965003,0.001303533441387117,0.000000021420419216156006,0.000000007450580596923828,-0.00000011920928955078125,0.0,122880.0,0.0,-262144.0,196608.0
Raw,1773868316000,11841207710,18,0.0,-1457903522158792192,0.0,10.068432807922363,62250.7734375,0.0,0,11,0.0,239,715924689791,18,30.600000381469727,-121.49705505371094,0.1525878757238388,20,357.01129268918885,0.10789488692432642,1602000000,,,,0,23.899999618530273,3,2.5999999046325684,25.600000381469727,0.0,0.0,0.0,0.0,C,645237047752987,,6273385.252236267,22148573.03753539,11021919.439381227,-600.0761104957164,-1390.2158900323907,3135.6495973897977,6755.284706920553,-0.0005453193043649662,0.000000021420419216156006,0.000000007450580596923828,-0.00000011920928955078125,0.0,122880.0,0.0,-262144.0,196608.0
Raw,1773868316000,11841207710,18,0.0,-1457903522158792192,0.0,10.068432807922363,62250.7734375,0.0,0,24,0.0,239,715929825858,14,35.0,1026.028076171875,0.1111111119389534,20,-5146.04641614412,0.07856666725203394,1603125000,,,,0,21.799999237060547,3,2.5999999046325684,30.0,0.0,0.0,0.0,0.0,C,645237047752987,,25343879.73341868,-781449.9760101476,2730044.414958922,375.186437232828,-142.85251600125753,-3541.1449733107665,-46348.38031091622,-0.0005453193043649662,0.000000021420419216156006,0.000000007450580596923828,-0.00000011920928955078125,0.0,122880.0,0.0,-262144.0,196608.0
Raw,1773868316000,11841207710,18,0.0,-1457903522158792192,0.0,10.068432807922363,62250.7734375,0.0,0,9,0.0,291,10747456,23,27.0,283.5877990722656,0.20661157369613647,20,-848.2361002744292,0.14609504376053808,1561098000,,,,0,23.0,5,2.5999999046325684,22.0,0.0,0.0,0.0,0.0,C,645237047752987,,,,,,,,,,0.000000021420419216156006,0.000000007450580596923828,-0.00000011920928955078125,0.0,122880.0,0.0,-262144.0,196608.0
