# 
# Header Description:
# 
# Version: v3.1.1.2 Platform: 13 Manufacturer: samsung Model: SM-A515F GNSS Hardware Model Name: S.LSI,K102
# 
# Raw,utcTimeMillis,TimeNanos,LeapSecond,TimeUncertaintyNanos,FullBiasNanos,BiasNanos,BiasUncertaintyNanos,DriftNanosPerSecond,DriftUncertaintyNanosPerSecond,HardwareClockDiscontinuityCount,Svid,TimeOffsetNanos,State,ReceivedSvTimeNanos,ReceivedSvTimeUncertaintyNanos,Cn0DbHz,PseudorangeRateMetersPerSecond,PseudorangeRateUncertaintyMetersPerSecond,AccumulatedDeltaRangeState,AccumulatedDeltaRangeMeters,AccumulatedDeltaRangeUncertaintyMeters,CarrierFrequencyHz,CarrierCycles,CarrierPhase,CarrierPhaseUncertainty,MultipathIndicator,SnrInDb,ConstellationType,AgcDb,BasebandCn0DbHz,FullInterSignalBiasNanos,FullInterSignalBiasUncertaintyNanos,SatelliteInterSignalBiasNanos,SatelliteInterSignalBiasUncertaintyNanos,CodeType,ChipsetElapsedRealtimeNanos,IsFullTracking,SvPositionEcefXMeters,SvPositionEcefYMeters,SvPositionEcefZMeters,SvVelocityEcefXMetersPerSecond,SvVelocityEcefYMetersPerSecond,SvVelocityEcefZMetersPerSecond,SvClockBiasMeters,SvClockDriftMetersPerSecond,KlobucharAlpha0,KlobucharAlpha1,KlobucharAlpha2,KlobucharAlpha3,KlobucharBeta0,KlobucharBeta1,KlobucharBeta2,KlobucharBeta3
# 
# UncalAccel,utcTimeMillis,elapsedRealtimeNanos,UncalAccelXMps2,UncalAccelYMps2,UncalAccelZMps2,BiasXMps2,BiasYMps2,BiasZMps2,CalibrationAccuracy
# 
# Accel,utcTimeMillis,elapsedRealtimeNanos,AccelXMps2,AccelYMps2,AccelZMps2,CalibrationAccuracy
# 
# UncalGyro,utcTimeMillis,elapsedRealtimeNanos,UncalGyroXRadPerSec,UncalGyroYRadPerSec,UncalGyroZRadPerSec,DriftXRadPerSec,DriftYRadPerSec,DriftZRadPerSec,CalibrationAccuracy
# 
# Gyro,utcTimeMillis,elapsedRealtimeNanos,GyroXRadPerSec,GyroYRadPerSec,GyroZRadPerSec,CalibrationAccuracy
# 
# UncalMag,utcTimeMillis,elapsedRealtimeNanos,UncalMagXMicroT,UncalMagYMicroT,UncalMagZMicroT,BiasXMicroT,BiasYMicroT,BiasZMicroT,CalibrationAccuracy
# 
# Mag,utcTimeMillis,elapsedRealtimeNanos,MagXMicroT,MagYMicroT,MagZMicroT,CalibrationAccuracy
# 
# Pressure,utcTimeMillis,elapsedRealtimeNanos,PressureHpa,CalibrationAccuracy
# 
# OrientationDeg,utcTimeMillis,elapsedRealtimeNanos,yawDeg,rollDeg,pitchDeg,CalibrationAccuracy
# 
# Fix,Provider,LatitudeDegrees,LongitudeDegrees,AltitudeMeters,SpeedMps,AccuracyMeters,BearingDegrees,UnixTimeMillis,SpeedAccuracyMps,BearingAccuracyDegrees,elapsedRealtimeNanos,VerticalAccuracyMeters,MockLocation,NumberOfUsedSignals,VerticalSpeedAccuracyMps,SolutionType
# 
# Nav,Svid,Type,Status,MessageId,Sub-messageId,Data(Bytes)
# 
# Status,UnixTimeMillis,SignalCount,SignalIndex,ConstellationType,Svid,CarrierFrequencyHz,Cn0DbHz,AzimuthDegrees,ElevationDegrees,UsedInFix,HasAlmanacData,HasEphemerisData,BasebandCn0DbHz
# 
# Agc,utcTimeMillis,TimeNanos,LeapSecond,TimeUncertaintyNanos,FullBiasNanos,BiasNanos,BiasUncertaintyNanos,DriftNanosPerSecond,DriftUncertaintyNanosPerSecond,HardwareClockDiscontinuityCount,AgcDb,CarrierFrequencyHz,ConstellationType
# 
# GameRotationVector,utcTimeMillis,elapsedRealtimeNanos,x,y,z,w
# 
Raw,1773867538999,5648824730,18,0.0,-1457902751351175168,0.0,10.064385414123535,62241.60546875,0.0,0,3,0.0,47,334756927189100,11,39.29999923706055,795.0712280273438,0.08499860018491745,16,0.0,0.060102510190755125,1575420000,,,,0,34.0,1,1.2999999523162842,34.29999923706055,0.0,0.0,0.0,0.0,C,644460001547473,,11798858.360638402,18693919.239930317,14612113.370285315,90.49895735442031,1881.6084555548662,-2436.916909750356,160446.08636044187,-0.004149483924265951,0.000000021420419216156006,0.000000007450580596923828,-0.00000011920928955078125,0.0,122880.0,0.0,-262144.0,196608.0
Raw,1773867538999,5648824730,18,0.0,-1457902751351175168,0.0,10.064385414123535,62241.60546875,0.0,0,4,0.0,47,334756931532292,13,35.70000076293945,556.4345703125,0.10610191524028778,16,0.0,0.07502466426640748,1575420000,,,,0,30.100000381469727,1,1.2999999523162842,30.700000762939453,0.0,0.0,0.0,0.0,C,644460001547473,,14294614.613316689,7583212.248528684,21126704.46664808,-2139.8773974876403,1595.5658398650405,859.537016650244,14821.881534220438,0.0007375107397820102,0.000000021420419216156006,0.000000007450580596923828,-0.00000011920928955078125,0.0,122880.0,0.0,-262144.0,196608.0
Raw,1773867538999,5648824730,18,0.0,-1457902751351175168,0.0,10.064385414123535,62241.60546875,0.0,0,9,0.0,47,334756932860907,15,34.0,154.19924926757812,0.11890606582164764,16,0.0,0.08407847914248705,1575420000,,,,0,29.600000381469727,1,1.2999999523162842,29.0,0.0,0.0,0.0,0.0,C,644460001547473,,20766762.02193938,-2274330.9049265105,16352929.015107796,-1510.3011430683005,1455.8473029873453,2100.5730443906787,229578.8004990265,-0.0007306124025490135,0.000000021420419216156006,0.000000007450580596923828,-0.00000011920928955078125,0.0,122880.0,0.0,-262144.0,196608.0
Raw,1773867538999,5648824730,18,0.0,-1457902751351175168,0.0,10.064385414123535,62241.60546875,0.0,0,7,0.0,47,334756920112824,18,30.700000762939453,-273.654541015625,0.15140274167060852,16,0.0,0.10705687863528728,1575420000,,,,0,22.5,1,1.2999999523162842,25.700000762939453,0.0,0.0,0.0,0.0,C,644460001547473,,25276472.8265301,5686222.338945628,-6115120.1158107845,678.9272606119932,579.1094701985496,3000.5282928238594,-48680.550961751076,-0.0011715302243828773,0.000000021420419216156006,0.000000007450580596923828,-0.00000011920928955078125,0.0,122880.0,0.0,-262144.0,196608.0
Raw,1773867538999,5648824730,18,0.0,-1457902751351175168,0.0,10.064385414123535,62241.60546875,0.0,0,6,0.0,47,334756929170669,21,28.700000762939453,91.07234191894531,0.17803412675857544,16,0.0,0.1258879310309887,1575420000,,,,0,24.399999618530273,1,1.2999999523162842,23.700000762939453,0.0,0.0,0.0,0.0,C,644460001547473,,14832965.736348346,-8266731.745099858,20529959.236493386,2332.9972780910284,1105.5506624827126,-1229.1127057721606,-183681.57599798558,0.00034487058292143047,0.000000021420419216156006,0.000000007450580596923828,-0.00000011920928955078125,0.0,122880.0,0.0,-262144.0,196608.0
Raw,1773867538999,5648824730,18,0.0,-1457902751351175168,0.0,10.064385414123535,62241.60546875,0.0,0,17,0.0,47,334756918995437,21,28.600000381469727,898.6712036132812,0.17954610288143158,16,0.0,0.12695704934746027,1575420000,,,,0,19.100000381469727,1,1.2999999523162842,23.600000381469727,0.0,0.0,0.0,0.0,C,644460001547473,,22993625.410605334,-13150944.055170996,-3010195.778403398,-199.70408237114958,460.1316641732179,-3123.11217949299,-27247.102533096782,-0.002557702042395249,0.000000021420419216156006,0.000000007450580596923828,-0.00000011920928955078125,0.0,122880.0,0.0,-262144.0,196608.0
Raw,1773867538999,5648824730,18,0.0,-1457902751351175168,0.0,10.064385414123535,62241.60546875,0.0,0,19,0.0,47,334756924210030,23,27.200000762939453,799.9218139648438,0.2029055953025818,16,0.0,0.14347454643845556,1575420000,,,,0,24.200000762939453,1,1.2999999523162842,22.200000762939453,0.0,0.0,0.0,0.0,C,644460001547473,,19415386.37860786,-16751777.87957348,5677760.170611599,802.3761516874625,-113.42002917723798,-3090.9914835983122,208106.95249692583,-0.0007221121923066676,0.000000021420419216156006,0.000000007450580596923828,-0.00000011920928955078125,0.0,122880.0,0.0,-262144.0,196608.0
Raw,1773867538999,5648824730,18,0.0,-1457902751351175168,0.0,10.064385414123535,62241.60546875,0.0,0,1,0.0,47,334756918754047,31,23.299999237060547,1048.37255859375,0.2986055314540863,16,0.0,0.21114397129118442,1575420000,,,,0,18.799999237060547,1,1.2999999523162842,18.299999237060547,0.0,0.0,0.0,0.0,C,644460001547473,,20892358.33403966,15297014.12013382,-6099230.399569105,-812.5724105893728,-103.25721756889683,-3037.4378005021495,94477.05494907162,-0.0018850922788260505,0.000000021420419216156006,0.000000007450580596923828,-0.00000011920928955078125,0.0,122880.0,0.0,-262144.0,196608.0
Raw,1773867538999,5648824730,18,0.0,-1457902751351175168,0.0,10.064385414123535,62241.60546875,0.0,0,1,0.0,239,86338933669435,12,38.20000076293945,661.6345825195312,0.09072434157133102,16,0.0,0.06415118192508816,1602562600,,,,0,34.400001525878906,3,1.2999999523162842,33.20000076293945,0.0,0.0,0.0,0.0,C,644460001547473,,8833825.872133816,6244210.747396598,23107229.8667779,-1712.9459786871155,2659.1752490539693,-61.965371711866496,48682.70659173257,0.0002726596521824831,0.000000021420419216156006,0.000000007450580596923828,-0.00000011920928955078125,0.0,122880.0,0.0,-262144.0,196608.0
Raw,1773867538999,5648824730,18,0.0,-1457902751351175168,0.0,10.064385414123535,62241.60546875,0.0,0,17,0.0,239,86338933544549,15,33.900001525878906,124.25643157958984,0.1197303757071495,16,0.0,0.0846613486625254,1604250000,,,,0,28.700000762939453,3,1.2999999523162842,28.899999618530273,0.0,0.0,0.0,0.0,C,644460001547473,,13414498.942298692,-8203554.627195824,20075800.916992754,2748.722704664502,142.86490673541346,-1782.050407916236,83742.4663398311,0.0008179789565474493,0.000000021420419216156006,0.000000007450580596923828,-0.00000011920928955078125,0.0,122880.0,0.0,-262144.0,196608.0
Raw,1773867538999,5648824730,18,0.0,-1457902751351175168,0.0,10.064385414123535,62241.60546875,0.0,0,32,0.0,815,334742924903529,17,31.899999618530273,120.68669128417969,0.13819599151611328,16,0.0,0.09771838560104369,1561098000,,,,0,27.700000762939453,5,1.2999999523162842,26.899999618530273,0.0,0.0,0.0,0.0,C,644460001547473,,18066707.641587287,-8796844.40971758,19366047.028056316,-887.7564863487216,2022.533839612866,1750.8935591171203,-280670.8803665783,0.001298244926147163,0.000000021420419216156006,0.000000007450580596923828,-0.00000011920928955078125,0.0,122880.0,0.0,-262144.0,196608.0
Raw,1773867538999,5648824730,18,0.0,-1457902751351175168,0.0,10.064385414123535,62241.60546875,0.0,0,24,0.0,239,86338931480386,15,33.79999923706055,938.9537963867188,0.12056328356266022,16,0.0,0.08525029780715704,1603125000,,,,0,21.899999618530273,3,1.2999999523162842,28.799999237060547,0.0,0.0,0.0,0.0,C,644460001547473,,24904202.94351063,-688359.9185935037,5455072.409570342,754.4535786053162,-89.36863817525182,-3464.6169969547204,-46347.95659871898,-0.0005453193043649662,0.000000021420419216156006,0.000000007450580596923828,-0.00000011920928955078125,0.0,122880.0,0.0,-262144.0,196608.0
Raw,1773867538999,5648824730,18,0.0,-1457902751351175168,0.0,10.064385414123535,62241.60546875,0.0,0,2,0.0,239,86338932885641,22,27.899999618530273,79.64360046386719,0.19069050252437592,16,0.0,0.1348372543349862,1599750000,,,,0,24.399999618530273,3,1.2999999523162842,22.899999618530273,0.0,0.0,0.0,0.0,C,644460001547473,,16432781.449883418,-9548152.841602294,17101026.39119331,-1471.5133055733463,1812.0356560808534,2427.214907582887,3620.4315748866647,0.0,0.000000021420419216156006,0.000000007450580596923828,-0.00000011920928955078125,0.0,122880.0,0.0,-262144.0,196608.0
Raw,1773867538999,5648824730,18,0.0,-1457902751351175168,0.0,10.064385414123535,62241.60546875,0.0,0,30,0.0,815,334742923415008,20,28.899999618530273,409.6821594238281,0.1750669777393341,16,0.0,0.12378985995948313,1561098000,,,,0,23.100000381469727,5,1.2999999523162842,23.899999618530273,0.0,0.0,0.0,0.0,C,644460001547473,,17622950.746669132,-14290486.858063519,16247117.318248982,1858.4910490327852,-141.45643656579932,-2135.9812895007913,122693.11410595602,0.002390275854850188,0.000000021420419216156006,0.000000007450580596923828,-0.00000011920928955078125,0.0,122880.0,0.0,-262144.0,196608.0
Raw,1773867538999,5648824730,18,0.0,-1457902751351175168,0.0,10.064385414123535,62241.60546875,0.0,0,11,0.0,239,86338923353878,29,24.399999618530273,-211.49790954589844,0.2657030522823334,16,0.0,0.18787862826883792,1602000000,,,,0,19.399999618530273,3,1.2999999523162842,19.399999618530273,0.0,0.0,0.0,0.0,C,644460001547473,,6646192.793296757,23124948.08064158,8511698.21354329,-363.80660282466624,-1116.141692817549,3317.859667105104,6755.708420748544,-0.0005453193043649662,0.000000021420419216156006,0.000000007450580596923828,-0.00000011920928955078125,0.0,122880.0,0.0,-262144.0,196608.0
Raw,1773867540000,6648825829,18,0.0,-1457902751351174144,0.0,10.064385414123535,62239.98828125,0.0,0,3,0.0,47,334757927187535,11,39.20000076293945,795.2526245117188,0.08549638837575912,17,-794.0222887912569,0.060454496220499275,1575420000,,,,0,34.20000076293945,1,2.5999999046325684,34.20000076293945,0.0,0.0,0.0,0.0,C,644461006689819,,11798948.901657099,18695800.6883207,14609676.30066726,90.58335584888786,1881.2942070546092,-2437.2299455004713,160446.08221100963,-0.004149393527768552,0.000000021420419216156006,0.000000007450580596923828,-0.00000011920928955078125,0.0,122880.0,0.0,-262144.0,196608.0
Raw,1773867540000,6648825829,18,0.0,-1457902751351174144,0.0,10.064385414123535,62239.98828125,0.0,0,4,0.0,47,334757931531547,13,35.599998474121094,556.621826171875,0.10679652541875839,17,-555.4273516380963,0.07551582312360405,1575420000,,,,0,30.899999618530273,1,2.5999999046325684,30.600000381469727,0.0,0.0,0.0,0.0,C,644461006689819,,14292474.740741618,7584807.909202344,21127563.77960208,-2139.8709308795883,1595.757880677697,859.0901686028305,14821.882271707422,0.0007374643264483893,0.000000021420419216156006,0.000000007450580596923828,-0.00000011920928955078125,0.0,122880.0,0.0,-262144.0,196608.0
Raw,1773867540000,6648825829,18,0.0,-1457902751351174144,0.0,10.064385414123535,62239.98828125,0.0,0,9,0.0,47,334757932861470,15,34.20000076293945,154.31216430664062,0.11728279292583466,17,-153.1790369706032,0.08293066287785768,1575420000,,,,0,31.600000381469727,1,2.5999999046325684,29.200000762939453,0.0,0.0,0.0,0.0,C,644461006689819,,20765251.65970664,-2272874.928444458,16355029.414772486,-1510.421611564405,1456.1040206325379,2100.223912386438,229578.79976839077,-0.0007306582410819829,0.000000021420419216156006,0.000000007450580596923828,-0.00000011920928955078125,0.0,122880.0,0.0,-262144.0,196608.0
Raw,1773867540000,6648825829,18,0.0,-1457902751351174144,0.0,10.064385414123535,62239.98828125,0.0,0,7,0.0,47,334757920114861,18,30.399999618530273,-273.0643005371094,0.15500031411647797,20,274.5600204697075,0.10960072211176156,1575420000,,,,0,19.899999618530273,1,2.5999999046325684,25.399999618530273,0.0,0.0,0.0,0.0,C,644461006689819,,25277151.59753129,5686801.355133336,-6112119.516791758,678.611970837431,578.9205527059479,3000.6575100312607,-48680.552133135294,-0.0011712334598996677,0.000000021420419216156006,0.000000007450580596923828,-0.00000011920928955078125,0.0,122880.0,0.0,-262144.0,196608.0
Raw,1773867540000,6648825829,18,0.0,-1457902751351174144,0.0,10.064385414123535,62239.98828125,0.0,0,6,0.0,47,334757929171449,21,28.600000381469727,91.5634536743164,0.17954610288143158,20,-90.43879381881925,0.12695704934746027,1575420000,,,,0,24.399999618530273,1,2.5999999046325684,23.600000381469727,0.0,0.0,0.0,0.0,C,644461006689819,,14835298.699203633,-8265626.2985774,20528729.90647899,2332.9247819215175,1105.3406568836856,-1229.5454008823992,-183681.57565309844,0.00034490309190005064,0.000000021420419216156006,0.000000007450580596923828,-0.00000011920928955078125,0.0,122880.0,0.0,-262144.0,196608.0
Raw,1773867540000,6648825829,18,0.0,-1457902751351174144,0.0,10.064385414123535,62239.98828125,0.0,0,17,0.0,47,334757918993524,21,28.399999618530273,897.4127197265625,0.18262839317321777,20,-897.0407637761709,0.12913653681278228,1575420000,,,,0,16.899999618530273,1,2.5999999046325684,23.399999618530273,0.0,0.0,0.0,0.0,C,644461006689819,,22993425.559712816,-13150483.806438213,-3013318.8529252573,-199.99846147386953,460.3675684502467,-3123.048802063047,-27247.105090881018,-0.002557876217906596,0.000000021420419216156006,0.000000007450580596923828,-0.00000011920928955078125,0.0,122880.0,0.0,-262144.0,196608.0
Raw,1773867540000,6648825829,18,0.0,-1457902751351174144,0.0,10.064385414123535,62239.98828125,0.0,0,19,0.0,47,334757924208465,23,27.100000381469727,796.614990234375,0.20474600791931152,20,-796.6049192132232,0.14477590219974518,1575420000,,,,0,22.0,1,2.5999999046325684,22.100000381469727,0.0,0.0,0.0,0.0,C,644461006689819,,19416188.583262365,-16751891.218174748,5674669.121502261,802.0356699127065,-113.25751950101551,-3091.116398738957,208106.9517748095,-0.0007221228152047843,0.000000021420419216156006,0.000000007450580596923828,-0.00000011920928955078125,0.0,122880.0,0.0,-262144.0,196608.0
Raw,1773867540000,6648825829,18,0.0,-1457902751351174144,0.0,10.064385414123535,62239.98828125,0.0,0,1,0.0,47,334757918751665,31,23.299999237060547,1048.8857421875,0.2986055314540863,20,-1047.6000113779482,0.21114397129118442,1575420000,,,,0,17.0,1,2.5999999046325684,18.299999237060547,0.0,0.0,0.0,0.0,C,644461006689819,,20891545.59039683,15296910.801148344,-6102267.765538865,-812.918747966518,-103.38123675058714,-3037.3085982866482,94477.05306398177,-0.00188509639701806,0.000000021420419216156006,0.000000007450580596923828,-0.00000011920928955078125,0.0,122880.0,0.0,-262144.0,196608.0
Raw,1773867540000,6648825829,18,0.0,-1457902751351174144,0.0,10.064385414123535,62239.98828125,0.0,0,1,0.0,239,86339933668319,12,38.20000076293945,661.79296875,0.09072434157133102,17,-663.1842965924916,0.06415118192508816,1602562600,,,,0,33.70000076293945,3,2.5999999046325684,33.20000076293945,0.0,0.0,0.0,0.0,C,644461006689819,,8832113.039513748,6246869.986255856,23107167.624227293,-1712.7230955875505,2659.3084246777194,-62.51986465756313,48682.70686439191,0.0002726596521824831,0.000000021420419216156006,0.000000007450580596923828,-0.00000011920928955078125,0.0,122880.0,0.0,-262144.0,196608.0
Raw,1773867540000,6648825829,18,0.0,-1457902751351174144,0.0,10.064385414123535,62239.98828125,0.0,0,17,0.0,239,86339933545280,15,33.900001525878906,124.17809295654297,0.1197303757071495,20,-109.30956870259615,0.0846613486625254,1604250000,,,,0,28.0,3,2.5999999046325684,28.899999618530273,0.0,0.0,0.0,0.0,C,644461006689819,,13417247.551874872,-8203411.885861257,20074018.62401479,2748.4924499961135,142.6175683609781,-1782.532949172502,83742.46715781065,0.0008179789565474493,0.000000021420419216156006,0.000000007450580596923828,-0.00000011920928955078125,0.0,122880.0,0.0,-262144.0,196608.0
Raw,1773867540000,6648825829,18,0.0,-1457902751351174144,0.0,10.064385414123535,62239.98828125,0.0,0,32,0.0,815,334743924904230,17,31.899999618530273,119.62638092041016,0.13819599151611328,20,-118.81790682243081,0.09771838560104369,1561098000,,,,0,26.299999237060547,5,2.5999999046325684,26.899999618530273,0.0,0.0,0.0,0.0,C,644461006689819,,18065819.91436609,-8794821.75246429,19367797.745252173,-887.6967036052145,2022.7778253272786,1750.5383727796686,-280670.8790683276,0.0012982546468265355,0.000000021420419216156006,0.000000007450580596923828,-0.00000011920928955078125,0.0,122880.0,0.0,-262144.0,196608.0
Raw,1773867540000,6648825829,18,0.0,-1457902751351174144,0.0,10.064385414123535,62239.98828125,0.0,0,24,0.0,239,86339931478347,15,33.400001525878906,940.3837280273438,0.12398333847522736,20,-939.9052223520157,0.08766861863583325,1603125000,,,,0,23.799999237060547,3,2.5999999046325684,28.399999618530273,0.0,0.0,0.0,0.0,C,644461006689819,,24904957.156017292,-688449.3356186562,5451607.7341126595,753.9745181045452,-89.4657480651083,-3464.7480668488906,-46347.95714403717,-0.0005453193043649662,0.000000021420419216156006,0.000000007450580596923828,-0.00000011920928955078125,0.0,122880.0,0.0,-262144.0,196608.0
Raw,1773867540000,6648825829,18,0.0,-1457902751351174144,0.0,10.064385414123535,62239.98828125,0.0,0,2,0.0,239,86339932886477,21,28.100000381469727,78.58493041992188,0.18740276992321014,20,-77.68795791210505,0.1325124986127019,1599750000,,,,0,26.299999237060547,3,2.5999999046325684,23.100000381469727,0.0,0.0,0.0,0.0,C,644461006689819,,16431309.915238708,-9546340.608673993,17103453.404145006,-1471.5535140244547,1812.427193284823,2426.8069546868414,3620.4315748866647,0.0,0.000000021420419216156006,0.000000007450580596923828,-0.00000011920928955078125,0.0,122880.0,0.0,-262144.0,196608.0
Raw,1773867540000,6648825829,18,0.0,-1457902751351174144,0.0,10.064385414123535,62239.98828125,0.0,0,30,0.0,815,334743923414705,21,28.700000762939453,409.1928405761719,0.17803412675857544,20,-408.40603616030785,0.1258879310309887,1561098000,,,,0,23.100000381469727,5,2.5999999046325684,23.700000762939453,0.0,0.0,0.0,0.0,C,644461006689819,,17624809.112081118,-14290628.35692022,16244981.188596608,1858.2408950825147,-141.54135617274994,-2136.2793032118952,122693.11649623532,0.002390284222201444,0.000000021420419216156006,0.000000007450580596923828,-0.00000011920928955078125,0.0,122880.0,0.0,-262144.0,196608.0
Raw,1773867540000,6648825829,18,0.0,-1457902751351174144,0.0,10.064385414123535,62239.98828125,0.0,0,11,0.0,239,86339923355666,29,24.399999618530273,-210.96151733398438,0.2657030522823334,20,207.33332648186115,0.18787862826883792,1602000000,,,,0,18.399999618530273,3,2.5999999046325684,19.399999618530273,0.0,0.0,0.0,0.0,C,644461006689819,,6645828.842647873,23123831.747740004,8515015.9770473,-364.0934205389831,-1116.5201099613107,3317.655497416355,6755.707875428265,-0.0005453193043649662,0.000000021420419216156006,0.000000007450580596923828,-0.00000011920928955078125,0.0,122880.0,0.0,-262144.0,196608.0
Raw,1773867541000,7648826990,18,0.0,-1457902751351173120,0.0,10.064385414123535,62238.97265625,0.0,0,3,0.0,47,334758927186034,11,39.20000076293945,795.4694213867188,0.08549638837575912,17,-1588.2555986972002,0.060454496220499275,1575420000,,,,0,32.70000076293945,1,2.5999999046325684,34.20000076293945,0.0,0.0,0.0,0.0,C,644462015341164,,11799039.527056798,18697681.82256259,14607238.917884462,90.66770772948252,1880.979916998993,-2437.542928220525,160446.07806166745,-0.004149303218582645,0.000000021420419216156006,0.000000007450580596923828,-0.00000011920928955078125,0.0,122880.0,0.0,-262144.0,196608.0
Raw,1773867541000,7648826990,18,0.0,-1457902751351173120,0.0,10.064385414123535,62238.97265625,0.0,0,4,0.0,47,334758931530845,13,35.599998474121094,556.68603515625,0.10679652541875839,17,-1111.0350332142261,0.07551582312360405,1575420000,,,,0,29.399999618530273,1,2.5999999046325684,30.600000381469727,0.0,0.0,0.0,0.0,C,644462015341164,,14290334.874571841,7586403.761972124,21128422.64573591,-2139.8644028084263,1595.9498950710336,858.6433017521499,14821.883009148023,0.000737417911295779,0.000000021420419216156006,0.000000007450580596923828,-0.00000011920928955078125,0.0,122880.0,0.0,-262144.0,196608.0
Raw,1773867541000,7648826990,18,0.0,-1457902751351173120,0.0,10.064385414123535,62238.97265625,0.0,0,9,0.0,47,334758932862133,14,34.400001525878906,154.1444854736328,0.11569254100322723,17,-306.342600494012,0.08180619574338197,1575420000,,,,0,33.0,1,2.5999999046325684,29.399999618530273,0.0,0.0,0.0,0.0,C,644462015341164,,20763741.176884808,-2271418.695101926,16357129.465492316,-1510.5420190174584,1456.3607325962516,2099.874735043638,229578.7990377091,-0.0007307041378226131,0.000000021420419216156006,0.000000007450580596923828,-0.00000011920928955078125,0.0,122880.0,0.0,-262144.0,196608.0
Raw,1773867541000,7648826990,18,0.0,-1457902751351173120,0.0,10.064385414123535,62238.97265625,0.0,0,6,0.0,47,334758929172300,21,28.5,91.36331939697266,0.18107740581035614,20,-180.7396325984446,0.12803983364850283,1575420000,,,,0,24.100000381469727,1,2.5999999046325684,23.5,0.0,0.0,0.0,0.0,C,644462015341164,,14837631.589694798,-8264521.061985673,20527500.143694982,2332.8522186597565,1105.1306442680998,-1229.9780696979144,-183681.5753081788,0.00034493557177484035,0.000000021420419216156006,0.000000007450580596923828,-0.00000011920928955078125,0.0,122880.0,0.0,-262144.0,196608.0
Raw,1773867541000,7648826990,18,0.0,-1457902751351173120,0.0,10.064385414123535,62238.97265625,0.0,0,7,0.0,47,334758920116939,19,30.100000381469727,-273.2298889160156,0.15872763097286224,20,548.9878802603635,0.11223630786091088,1575420000,,,,0,19.5,1,2.5999999046325684,25.100000381469727,0.0,0.0,0.0,0.0,C,644462015341164,,25277830.05325309,5687380.182445905,-6109118.788464515,678.2966475173268,578.7316731034336,3000.7866626737227,-48680.55330422282,-0.0011709367099683732,0.000000021420419216156006,0.000000007450580596923828,-0.00000011920928955078125,0.0,122880.0,0.0,-262144.0,196608.0
Raw,1773867541000,7648826990,18,0.0,-1457902751351173120,0.0,10.064385414123535,62238.97265625,0.0,0,19,0.0,47,334758924206986,23,27.100000381469727,794.47900390625,0.20474600791931152,20,-1591.0388340124337,0.14477590219974518,1575420000,,,,0,22.0,1,2.5999999046325684,22.100000381469727,0.0,0.0,0.0,0.0,C,644462015341164,,19416990.447509624,-16752004.39425053,5671577.947246125,801.6951982890241,-113.0949581415066,-3091.241245906856,208106.95105268247,-0.0007221333798952401,0.000000021420419216156006,0.000000007450580596923828,-0.00000011920928955078125,0.0,122880.0,0.0,-262144.0,196608.0
Raw,1773867541000,7648826990,18,0.0,-1457902751351173120,0.0,10.064385414123535,62238.97265625,0.0,0,17,0.0,47,334758918991709,21,28.200000762939453,895.609130859375,0.18579070270061493,20,-1792.3734221899358,0.1313726058796048,1575420000,,,,0,18.200000762939453,1,2.5999999046325684,23.200000762939453,0.0,0.0,0.0,0.0,C,644462015341164,,22993225.414439633,-13150023.32173792,-3016441.8643428264,-200.29280558316322,460.60350989031787,-3122.985358575581,-27247.107648839683,-0.0025580504043318797,0.000000021420419216156006,0.000000007450580596923828,-0.00000011920928955078125,0.0,122880.0,0.0,-262144.0,196608.0
Raw,1773867541000,7648826990,18,0.0,-1457902751351173120,0.0,10.064385414123535,62238.97265625,0.0,0,1,0.0,47,334758918749351,32,23.200000762939453,1048.2047119140625,0.3018958866596222,20,-2094.849644626811,0.21347058145701883,1575420000,,,,0,16.700000762939453,1,2.5999999046325684,18.200000762939453,0.0,0.0,0.0,0.0,C,644462015341164,,20890732.500359442,15296807.358163124,-6105305.002481051,-813.2650906056934,-103.50520382451958,-3037.1793317248653,94477.05117888769,-0.0018851005006581545,0.000000021420419216156006,0.000000007450580596923828,-0.00000011920928955078125,0.0,122880.0,0.0,-262144.0,196608.0
Raw,1773867541000,7648826990,18,0.0,-1457902751351173120,0.0,10.064385414123535,62238.97265625,0.0,0,1,0.0,239,86340933667263,12,38.29999923706055,661.8003540039062,0.09018027782440186,17,-1326.7872196243552,0.06376647444963454,1602562600,,,,0,33.400001525878906,3,2.5999999046325684,33.29999923706055,0.0,0.0,0.0,0.0,C,644462015341164,,8830400.429020554,6249529.3595922245,23107104.827334255,-1712.5001608717826,2659.441518244651,-63.07435586298999,48682.70713705128,0.0002726596521824831,0.000000021420419216156006,0.000000007450580596923828,-0.00000011920928955078125,0.0,122880.0,0.0,-262144.0,196608.0
Raw,1773867541000,7648826990,18,0.0,-1457902751351173120,0.0,10.064385414123535,62238.97265625,0.0,0,17,0.0,239,86340933546044,15,33.900001525878906,123.66183471679688,0.1197303757071495,20,-227.33725064186729,0.0846613486625254,1604250000,,,,0,28.799999237060547,3,2.5999999046325684,28.899999618530273,0.0,0.0,0.0,0.0,C,644462015341164,,13419995.932499964,-8203269.391520674,20072235.847994853,2748.26210778726,142.37026081759905,-1783.015447634104,83742.46797579023,0.0008179789565474493,0.000000021420419216156006,0.000000007450580596923828,-0.00000011920928955078125,0.0,122880.0,0.0,-262144.0,196608.0
Raw,1773867541000,7648826990,18,0.0,-1457902751351173120,0.0,10.064385414123535,62238.97265625,0.0,0,32,0.0,815,334744924905012,17,31.899999618530273,119.30664825439453,0.13819599151611328,20,-237.20736065445817,0.09771838560104369,1561098000,,,,0,26.399999618530273,5,2.5999999046325684,26.899999618530273,0.0,0.0,0.0,0.0,C,644462015341164,,18064932.246879395,-8792798.851078816,19369548.10738722,-887.6368736075596,2023.0217759505958,1750.1831544274378,-280670.877770067,0.001298264425713569,0.000000021420419216156006,0.000000007450580596923828,-0.00000011920928955078125,0.0,122880.0,0.0,-262144.0,196608.0
Raw,1773867541000,7648826990,18,0.0,-1457902751351173120,0.0,10.064385414123535,62238.97265625,0.0,0,24,0.0,239,86340931476321,16,32.900001525878906,938.7322998046875,0.12846700847148895,20,-1894.2519376011041,0.09083902169018983,1603125000,,,,0,23.399999618530273,3,2.5999999046325684,27.899999618530273,0.0,0.0,0.0,0.0,C,644462015341164,,24905710.889926918,-688538.8491280862,5448142.926426586,753.4954294015486,-89.5627864576204,-3464.8790534446534,-46347.95768935537,-0.0005453193043649662,0.000000021420419216156006,0.000000007450580596923828,-0.00000011920928955078125,0.0,122880.0,0.0,-262144.0,196608.0
Raw,1773867541000,7648826990,18,0.0,-1457902751351173120,0.0,10.064385414123535,62238.97265625,0.0,0,2,0.0,239,86340932887333,21,28.299999237060547,78.98226928710938,0.18419939279556274,20,-168.3859343820659,0.1302473906457424,1599750000,,,,0,25.299999237060547,3,2.5999999046325684,23.299999237060547,0.0,0.0,0.0,0.0,C,644462015341164,,16429838.340256725,-9544527.983235737,17105880.010112215,-1471.5936378434842,1812.8187026522023,2426.398944077693,3620.4315748866647,0.0,0.000000021420419216156006,0.000000007450580596923828,-0.00000011920928955078125,0.0,122880.0,0.0,-262144.0,196608.0
Raw,1773867541000,7648826990,18,0.0,-1457902751351173120,0.0,10.064385414123535,62238.97265625,0.0,0,30,0.0,815,334744923414506,21,28.5,408.9782409667969,0.18107740581035614,20,-816.4394978614,0.12803983364850283,1561098000,,,,0,19.899999618530273,5,2.5999999046325684,23.5,0.0,0.0,0.0,0.0,C,644462015341164,,17626667.22751425,-14290769.94069205,16242844.760728048,1857.9907045998102,-141.62623751969028,-2136.5772776974677,122693.11888652327,0.0023902926041046157,0.000000021420419216156006,0.000000007450580596923828,-0.00000011920928955078125,0.0,122880.0,0.0,-262144.0,196608.0
Raw,1773867541000,7648826990,18,0.0,-1457902751351173120,0.0,10.064385414123535,62238.97265625,0.0,0,11,0.0,239,86340923357501,29,24.299999237060547,-209.66876220703125,0.2684636116027832,20,410.5276985584351,0.189830619764328,1602000000,,,,0,20.100000381469727,3,2.5999999046325684,19.299999237060547,0.0,0.0,0.0,0.0,C,644462015341164,,6645464.604485052,23122715.036356382,8518333.537701618,-364.38028658446865,-1116.898464179102,3317.4512482173827,6755.70733010796,-0.0005453193043649662,0.000000021420419216156006,0.000000007450580596923828,-0.00000011920928955078125,0.0,122880.0,0.0,-262144.0,196608.0
Raw,1773867542000,8648828151,18,0.0,-1457902751351171840,0.0,10.064385414123535,62238.07421875,0.0,0,3,0.0,47,334759927184556,11,39.099998474121094,795.7649536132812,0.08599857985973358,17,-2382.759747560427,0.06080959581881761,1575420000,,,,0,30.100000381469727,1,2.5999999046325684,34.099998474121094,0.0,0.0,0.0,0.0,C,644463006182279,,11799130.23678695,18699562.642537452,14604801.222089859,90.75201298534496,1880.6655854130272,-2437.8558578912093,160446.0739124156,-0.0041492128220852464,0.000000021420419216156006,0.000000007450580596923828,-0.00000011920928955078125,0.0,122880.0,0.0,-262144.0,196608.0
Raw,1773867542000,8648828151,18,0.0,-1457902751351171840,0.0,10.064385414123535,62238.07421875,0.0,0,4,0.0,47,334759931530139,13,35.599998474121094,556.8598022460938,0.10679652541875839,17,-1666.6952985555981,0.07551582312360405,1575420000,,,,0,31.600000381469727,1,2.5999999046325684,30.600000381469727,0.0,0.0,0.0,0.0,C,644463006182279,,14288195.014969423,7587999.806736561,21129281.064990357,-2139.857813278334,1596.1418830238963,858.1964161285599,14821.883746542206,0.0007373714906862006,0.000000021420419216156006,0.000000007450580596923828,-0.00000011920928955078125,0.0,122880.0,0.0,-262144.0,196608.0
Raw,1773867542000,8648828151,18,0.0,-1457902751351171840,0.0,10.064385414123535,62238.07421875,0.0,0,9,0.0,47,334759932862784,14,34.599998474121094,154.13983154296875,0.11413440108299255,17,-459.3745285526966,0.08070443500578403,1575420000,,,,0,30.0,1,2.5999999046325684,29.600000381469727,0.0,0.0,0.0,0.0,C,644463006182279,,20762230.573704097,-2269962.205067547,16359229.166986728,-1510.6623654127652,1456.6174388366185,2099.5255124087403,229578.79830698157,-0.0007307500054594129,0.000000021420419216156006,0.000000007450580596923828,-0.00000011920928955078125,0.0,122880.0,0.0,-262144.0,196608.0
Raw,1773867542000,8648828151,18,0.0,-1457902751351171840,0.0,10.064385414123535,62238.07421875,0.0,0,6,0.0,47,334759929173159,21,28.5,91.51890563964844,0.18107740581035614,20,-271.1017056659912,0.12803983364850283,1575420000,,,,0,24.700000762939453,1,2.5999999046325684,23.5,0.0,0.0,0.0,0.0,C,644463006182279,,14839964.407607779,-8263416.035401382,20526269.948245108,2332.779588310466,1104.920624662349,-1230.4107121824698,-183681.57496322668,0.0003449680807534605,0.000000021420419216156006,0.000000007450580596923828,-0.00000011920928955078125,0.0,122880.0,0.0,-262144.0,196608.0
Raw,1773867542000,8648828151,18,0.0,-1457902751351171840,0.0,10.064385414123535,62238.07421875,0.0,0,7,0.0,47,334759920119004,19,29.799999237060547,-275.0785217285156,0.16259105503559113,20,824.6006079210783,0.11496813501566648,1575420000,,,,0,19.299999237060547,1,2.5999999046325684,24.799999237060547,0.0,0.0,0.0,0.0,C,644463006182279,,25278508.193625346,5687958.82088983,-6106117.931055656,677.9812906793377,578.5428314092688,3000.9157507427017,-48680.55447501358,-0.001170639974588994,0.000000021420419216156006,0.000000007450580596923828,-0.00000011920928955078125,0.0,122880.0,0.0,-262144.0,196608.0
Raw,1773867542000,8648828151,18,0.0,-1457902751351171840,0.0,10.064385414123535,62238.07421875,0.0,0,19,0.0,47,334759924205498,23,27.0,791.6598510742188,0.20661157369613647,20,-2382.8731026792084,0.14609504376053808,1575420000,,,,0,17.5,1,2.5999999046325684,22.0,0.0,0.0,0.0,0.0,C,644463006182279,,19417791.971283663,-16752117.407738324,5668486.648204808,801.3547368622859,-112.93234511861431,-3091.3660250872585,208106.9503305449,-0.0007221439736895263,0.000000021420419216156006,0.000000007450580596923828,-0.00000011920928955078125,0.0,122880.0,0.0,-262144.0,196608.0
Raw,1773867542000,8648828151,18,0.0,-1457902751351171840,0.0,10.064385414123535,62238.07421875,0.0,0,17,0.0,47,334759918989836,22,28.0,895.7244873046875,0.18903592228889465,20,-2687.217104102776,0.1336673006504774,1575420000,,,,0,20.700000762939453,1,2.5999999046325684,23.0,0.0,0.0,0.0,0.0,C,644463006182279,,22993024.974852037,-13149562.601104742,-3019564.812102879,-200.587114643158,460.83948844778564,-3122.9218490411195,-27247.11020697239,-0.002558224598033121,0.000000021420419216156006,0.000000007450580596923828,-0.00000011920928955078125,0.0,122880.0,0.0,-262144.0,196608.0
Raw,1773867542000,8648828151,18,0.0,-1457902751351171840,0.0,10.064385414123535,62238.07421875,0.0,0,1,0.0,47,334759918746985,32,23.100000381469727,1047.2349853515625,0.3052409589290619,20,-3141.33943368803,0.21583588205873966,1575420000,,,,0,16.299999237060547,1,2.5999999046325684,18.100000381469727,0.0,0.0,0.0,0.0,C,644463006182279,,20889919.06401992,15296703.791242544,-6108342.1099669,-813.6114384522889,-103.62911877311274,-3037.0500008350227,94477.04929378958,-0.0018851046334020793,0.000000021420419216156006,0.000000007450580596923828,-0.00000011920928955078125,0.0,122880.0,0.0,-262144.0,196608.0
Raw,1773867542000,8648828151,18,0.0,-1457902751351171840,0.0,10.064385414123535,62238.07421875,0.0,0,1,0.0,239,86341933666211,12,38.29999923706055,661.9895629882812,0.09018027782440186,17,-1988.959484092251,0.06376647444963454,1602562600,,,,0,32.099998474121094,3,2.5999999046325684,33.29999923706055,0.0,0.0,0.0,0.0,C,644463006182279,,8828688.04215565,6252188.86481528,23107041.475799013,-1712.2771748941532,2659.574529583713,-63.628845623776954,48682.707409710645,0.0002726596521824831,0.000000021420419216156006,0.000000007450580596923828,-0.00000011920928955078125,0.0,122880.0,0.0,-262144.0,196608.0
Raw,1773867542000,8648828151,18,0.0,-1457902751351171840,0.0,10.064385414123535,62238.07421875,0.0,0,17,0.0,239,86341933546777,15,33.900001525878906,124.42955017089844,0.1197303757071495,20,-354.37921692366945,0.0846613486625254,1604250000,,,,0,29.700000762939453,3,2.5999999046325684,28.899999618530273,0.0,0.0,0.0,0.0,C,644463006182279,,13422744.081404023,-8203127.144799156,20070452.590012733,2748.0316778539814,142.12298445484862,-1783.4979035748927,83742.46879376979,0.0008179789565474493,0.000000021420419216156006,0.000000007450580596923828,-0.00000011920928955078125,0.0,122880.0,0.0,-262144.0,196608.0
Raw,1773867542000,8648828151,18,0.0,-1457902751351171840,0.0,10.064385414123535,62238.07421875,0.0,0,32,0.0,815,334745924905774,17,31.899999618530273,119.21406555175781,0.13819599151611328,20,-355.3957678147708,0.09771838560104369,1561098000,,,,0,24.5,5,2.5999999046325684,26.899999618530273,0.0,0.0,0.0,0.0,C,644463006182279,,18064044.639264107,-8790775.7058006,19371298.114252653,-887.5769963677087,2023.2656914481363,1749.8279041028386,-280670.8764717968,0.0012982741463929415,0.000000021420419216156006,0.000000007450580596923828,-0.00000011920928955078125,0.0,122880.0,0.0,-262144.0,196608.0
Raw,1773867542000,8648828151,18,0.0,-1457902751351171840,0.0,10.064385414123535,62238.07421875,0.0,0,24,0.0,239,86341931474220,16,32.5,938.731201171875,0.13223139941692352,20,-2870.9188336798106,0.09350082252770661,1603125000,,,,0,20.0,3,2.5999999046325684,27.5,0.0,0.0,0.0,0.0,C,644463006182279,,24906464.14421379,-688628.460220676,5444677.989204264,753.0163121131787,-89.6597532408748,-3465.009956846808,-46347.958234673526,-0.0005453193043649662,0.000000021420419216156006,0.000000007450580596923828,-0.00000011920928955078125,0.0,122880.0,0.0,-262144.0,196608.0
Raw,1773867542000,8648828151,18,0.0,-1457902751351171840,0.0,10.064385414123535,62238.07421875,0.0,0,2,0.0,239,86341932888222,21,28.600000381469727,77.89974975585938,0.17954610288143158,20,-248.49514398287283,0.12695704934746027,1599750000,,,,0,24.700000762939453,3,2.5999999046325684,23.600000381469727,0.0,0.0,0.0,0.0,C,644463006182279,,16428366.725285234,-9542714.967186283,17108306.207175884,-1471.6336774166698,1813.2101843176436,2425.99087554046,3620.4315748866647,0.0,0.000000021420419216156006,0.000000007450580596923828,-0.00000011920928955078125,0.0,122880.0,0.0,-262144.0,196608.0
Raw,1773867542000,8648828151,18,0.0,-1457902751351171840,0.0,10.064385414123535,62238.07421875,0.0,0,30,0.0,815,334745923414305,21,28.299999237060547,407.382080078125,0.18419939279556274,20,-1223.2881397002493,0.1302473906457424,1561098000,,,,0,21.100000381469727,5,2.5999999046325684,23.299999237060547,0.0,0.0,0.0,0.0,C,644463006182279,,17628525.09273492,-14290911.609325856,16240708.034908963,1857.7404776200378,-141.7110805912026,-2136.8752129204686,122693.12127681955,0.0023903009423520416,0.000000021420419216156006,0.000000007450580596923828,-0.00000011920928955078125,0.0,122880.0,0.0,-262144.0,196608.0
Raw,1773867542000,8648828151,18,0.0,-1457902751351171840,0.0,10.064385414123535,62238.07421875,0.0,0,11,0.0,239,86341923359400,29,24.200000762939453,-209.398681640625,0.2712673544883728,20,632.8956506631221,0.1918131463587284,1602000000,,,,0,18.5,3,2.5999999046325684,19.200000762939453,0.0,0.0,0.0,0.0,C,644463006182279,,6645100.080058632,23121597.946620394,8521650.893081661,-364.66720106542743,-1117.2767559043803,3317.246919421436,6755.70678478762,-0.0005453193043649662,0.000000021420419216156006,0.000000007450580596923828,-0.00000011920928955078125,0.0,122880.0,0.0,-262144.0,196608.0
Raw,1773867543000,9648829312,18,0.0,-1457902751351170560,0.0,10.064385414123535,62237.97265625,0.0,0,3,0.0,47,334760927183047,11,39.0,796.9429321289062,0.08650518953800201,17,-3178.139471161441,0.06116781952232122,1575420000,,,,0,29.799999237060547,1,2.5999999046325684,34.0,0.0,0.0,0.0,0.0,C,644464011495894,,11799221.030796126,18701443.1481021,14602363.213468181,90.83627160456827,1880.3512123258238,-2438.1687344891534,160446.06976325417,-0.004149122483795509,0.000000021420419216156006,0.000000007450580596923828,-0.00000011920928955078125,0.0,122880.0,0.0,-262144.0,196608.0
Raw,1773867543000,9648829312,18,0.0,-1457902751351170560,0.0,10.064385414123535,62237.97265625,0.0,0,4,0.0,47,334760931529447,14,35.5,557.2638549804688,0.10749798268079758,17,-2222.6741935678583,0.07601182355359196,1575420000,,,,0,31.899999618530273,1,2.5999999046325684,30.5,0.0,0.0,0.0,0.0,C,644464011495894,,14286055.161957335,7589596.043497902,21130139.037362125,-2139.8511622930637,1596.3338445276356,857.7495117333532,14821.884483889973,0.0007373250664386433,0.000000021420419216156006,0.000000007450580596923828,-0.00000011920928955078125,0.0,122880.0,0.0,-262144.0,196608.0
Raw,1773867543000,9648829312,18,0.0,-1457902751351170560,0.0,10.064385414123535,62237.97265625,0.0,0,9,0.0,47,334760932863408,14,34.599998474121094,153.5782470703125,0.11413440108299255,20,-611.9247650199395,0.08070443500578403,1575420000,,,,0,27.100000381469727,1,2.5999999046325684,29.600000381469727,0.0,0.0,0.0,0.0,C,644464011495894,,20760719.850248232,-2268505.458368985,16361328.519178951,-1510.782650747305,1456.8741393366868,2099.1762444943456,229578.7975762082,-0.0007307958730962127,0.000000021420419216156006,0.000000007450580596923828,-0.00000011920928955078125,0.0,122880.0,0.0,-262144.0,196608.0
Raw,1773867543000,9648829312,18,0.0,-1457902751351170560,0.0,10.064385414123535,62237.97265625,0.0,0,6,0.0,47,334760929174003,21,28.399999618530273,91.47074890136719,0.18262839317321777,20,-361.45208663798985,0.12913653681278228,1575420000,,,,0,23.799999237060547,1,2.5999999046325684,23.399999618530273,0.0,0.0,0.0,0.0,C,644464011495894,,14842297.152821776,-8262311.218856984,20525039.32018402,2332.7068908754745,1104.7105980844267,-1230.8433283171328,-183681.57461824207,0.0003450005897320807,0.000000021420419216156006,0.000000007450580596923828,-0.00000011920928955078125,0.0,122880.0,0.0,-262144.0,196608.0
Raw,1773867543000,9648829312,18,0.0,-1457902751351170560,0.0,10.064385414123535,62237.97265625,0.0,0,7,0.0,47,334760920121078,19,29.5,-276.41900634765625,0.16659724712371826,20,1101.501951579674,0.11780091344118117,1575420000,,,,0,19.700000762939453,1,2.5999999046325684,24.5,0.0,0.0,0.0,0.0,C,644464011495894,,25279186.01862943,5688537.270515986,-6103116.944563745,677.6659003271493,578.3540276273611,3001.044774239468,-48680.5556455076,-0.0011703432392096147,0.000000021420419216156006,0.000000007450580596923828,-0.00000011920928955078125,0.0,122880.0,0.0,-262144.0,196608.0
Raw,1773867543000,9648829312,18,0.0,-1457902751351170560,0.0,10.064385414123535,62237.97265625,0.0,0,17,0.0,47,334760918987962,22,27.799999237060547,897.536865234375,0.19236689805984497,20,-3583.1060572669667,0.13602263361811637,1575420000,,,,0,21.799999237060547,1,2.5999999046325684,22.799999237060547,0.0,0.0,0.0,0.0,C,644464011495894,,22992824.240973633,-13149101.644475393,-3022687.6963173617,-200.88138866067558,461.075504127249,-3122.8582734566758,-27247.112765279293,-0.0025583987990103196,0.000000021420419216156006,0.000000007450580596923828,-0.00000011920928955078125,0.0,122880.0,0.0,-262144.0,196608.0
Raw,1773867543000,9648829312,18,0.0,-1457902751351170560,0.0,10.064385414123535,62237.97265625,0.0,0,19,0.0,47,334760924203990,23,26.899999618530273,790.926513671875,0.20850275456905365,20,-3173.3519266241055,0.14743229775577782,1575420000,,,,0,17.899999618530273,1,2.5999999046325684,21.899999618530273,0.0,0.0,0.0,0.0,C,644464011495894,,19418593.15458595,-16752230.258585148,5665395.224480326,801.014285649761,-112.76968043860148,-3091.4907362759095,208106.94960839677,-0.0007221544801723212,0.000000021420419216156006,0.000000007450580596923828,-0.00000011920928955078125,0.0,122880.0,0.0,-262144.0,196608.0
Raw,1773867543000,9648829312,18,0.0,-1457902751351170560,0.0,10.064385414123535,62237.97265625,0.0,0,1,0.0,47,334760918744662,33,22.899999618530273,1045.94482421875,0.3121001422405243,20,-4186.715803600178,0.22068601057827472,1575420000,,,,0,14.5,1,2.5999999046325684,17.899999618530273,0.0,0.0,0.0,0.0,C,644464011495894,,20889105.281295836,15296600.10042881,-6111379.088220585,-813.957791526147,-103.75298160543889,-3036.9206056075473,94477.04740868727,-0.001885108751594089,0.000000021420419216156006,0.000000007450580596923828,-0.00000011920928955078125,0.0,122880.0,0.0,-262144.0,196608.0
Raw,1773867543000,9648829312,18,0.0,-1457902751351170560,0.0,10.064385414123535,62237.97265625,0.0,0,1,0.0,239,86342933665145,12,38.29999923706055,662.3442993164062,0.09018027782440186,17,-2655.567240528093,0.06376647444963454,1602562600,,,,0,33.599998474121094,3,2.5999999046325684,33.29999923706055,0.0,0.0,0.0,0.0,C,644464011495894,,8826975.878326245,6254848.502971081,23106977.569776293,-1712.0541375124662,2659.707458759145,-64.18333374717679,48682.70768237001,0.0002726596521824831,0.000000021420419216156006,0.000000007450580596923828,-0.00000011920928955078125,0.0,122880.0,0.0,-262144.0,196608.0
Raw,1773867543000,9648829312,18,0.0,-1457902751351170560,0.0,10.064385414123535,62237.97265625,0.0,0,17,0.0,239,86342933547502,15,33.900001525878906,123.12208557128906,0.1197303757071495,20,-484.13872669942793,0.0846613486625254,1604250000,,,,0,30.100000381469727,3,2.5999999046325684,28.899999618530273,0.0,0.0,0.0,0.0,C,644464011495894,,13425491.999812115,-8202985.145339824,20068668.849609956,2747.80116030321,141.875739126741,-1783.9803168366157,83742.46961174934,0.0008179789565474493,0.000000021420419216156006,0.000000007450580596923828,-0.00000011920928955078125,0.0,122880.0,0.0,-262144.0,196608.0
Raw,1773867543000,9648829312,18,0.0,-1457902751351170560,0.0,10.064385414123535,62237.97265625,0.0,0,32,0.0,815,334746924906535,17,31.899999618530273,118.63320922851562,0.13819599151611328,20,-473.1299221806985,0.09771838560104369,1561098000,,,,0,24.0,5,2.5999999046325684,26.899999618530273,0.0,0.0,0.0,0.0,C,644464011495894,,18063157.091550652,-8788752.316626182,19373047.765849743,-887.5170718904542,2023.5095718144883,1749.4726218056526,-280670.87517351675,0.001298283867072314,0.000000021420419216156006,0.000000007450580596923828,-0.00000011920928955078125,0.0,122880.0,0.0,-262144.0,196608.0
Raw,1773867543000,9648829312,18,0.0,-1457902751351170560,0.0,10.064385414123535,62237.97265625,0.0,0,24,0.0,239,86342931472305,16,32.099998474121094,936.0878295898438,0.13616371154785156,20,-3791.9270788461727,0.09628136043548584,1603125000,,,,0,20.5,3,2.5999999046325684,27.100000381469727,0.0,0.0,0.0,0.0,C,644464011495894,,24907216.919510163,-688718.1682607421,5441212.920475855,752.5371663554728,-89.75664848277029,-3465.140777026739,-46347.958779991786,-0.0005453193043649662,0.000000021420419216156006,0.000000007450580596923828,-0.00000011920928955078125,0.0,122880.0,0.0,-262144.0,196608.0
Raw,1773867543000,9648829312,18,0.0,-1457902751351170560,0.0,10.064385414123535,62237.97265625,0.0,0,2,0.0,239,86342932889144,21,28.600000381469727,77.13119506835938,0.17954610288143158,20,-319.3059209541243,0.12695704934746027,1599750000,,,,0,24.299999237060547,3,2.5999999046325684,23.600000381469727,0.0,0.0,0.0,0.0,C,644464011495894,,16426895.070267694,-9540901.559609046,17110731.996221766,-1471.6736325567736,1813.6016381873362,2425.582749194167,3620.4315748866647,0.0,0.000000021420419216156006,0.000000007450580596923828,-0.00000011920928955078125,0.0,122880.0,0.0,-262144.0,196608.0
Raw,1773867543000,9648829312,18,0.0,-1457902751351170560,0.0,10.064385414123535,62237.97265625,0.0,0,30,0.0,815,334746923414093,21,28.100000381469727,409.3663024902344,0.18740276992321014,20,-1631.0646586746734,0.1325124986127019,1561098000,,,,0,24.200000762939453,5,2.5999999046325684,23.100000381469727,0.0,0.0,0.0,0.0,C,644464011495894,,17630382.707689993,-14291053.362782005,16238571.01119787,1857.49021415431,-141.79588538008983,-2137.173108872771,122693.12366712418,0.002390309324255213,0.000000021420419216156006,0.000000007450580596923828,-0.00000011920928955078125,0.0,122880.0,0.0,-262144.0,196608.0
Raw,1773867543000,9648829312,18,0.0,-1457902751351170560,0.0,10.064385414123535,62237.97265625,0.0,0,11,0.0,239,86342923361154,29,24.100000381469727,-209.12545776367188,0.27411526441574097,20,811.9090006693441,0.19382690346837042,1602000000,,,,0,20.0,3,2.5999999046325684,19.100000381469727,0.0,0.0,0.0,0.0,C,644464011495894,,6644735.268745996,23120480.47878541,8524968.0436117,-364.954163850608,-1117.6549848240825,3317.0425111200957,6755.7062394673585,-0.0005453193043649662,0.000000021420419216156006,0.000000007450580596923828,-0.00000011920928955078125,0.0,122880.0,0.0,-262144.0,196608.0
Raw,1773867544000,10648830472,18,0.0,-1457902751351169536,0.0,10.064385414123535,62238.125,0.0,0,3,0.0,47,334761927181562,11,38.900001525878906,798.2449340820312,0.08701629191637039,17,-3974.679077814566,0.0615292200140655,1575420000,,,,0,32.5,1,2.5999999046325684,33.900001525878906,0.0,0.0,0.0,0.0,C,644465011743931,,11799311.909042612,18703323.339318566,14599924.891938377,90.9204835844137,1880.0367977322212,-2438.481558025104,160446.06561418306,-0.004149032116401941,0.000000021420419216156006,0.000000007450580596923828,-0.00000011920928955078125,0.0,122880.0,0.0,-262144.0,196608.0
Raw,1773867544000,10648830472,18,0.0,-1457902751351169536,0.0,10.064385414123535,62238.125,0.0,0,4,0.0,47,334761931528752,14,35.5,557.9100952148438,0.10749798268079758,20,-2779.0949416079093,0.07601182355359196,1575420000,,,,0,29.5,1,2.5999999046325684,30.5,0.0,0.0,0.0,0.0,C,644465011743931,,14283915.31563328,7591192.472202711,21130996.56281787,-2139.8444498566187,1596.5257795668567,857.3025885834603,14821.885221191313,0.0007372786403720966,0.000000021420419216156006,0.000000007450580596923828,-0.00000011920928955078125,0.0,122880.0,0.0,-262144.0,196608.0
Raw,1773867544000,10648830472,18,0.0,-1457902751351169536,0.0,10.064385414123535,62238.125,0.0,0,9,0.0,47,334761932864046,14,34.599998474121094,153.63821411132812,0.11413440108299255,20,-764.4812686250079,0.08070443500578403,1575420000,,,,0,27.899999618530273,1,2.5999999046325684,29.600000381469727,0.0,0.0,0.0,0.0,C,644465011743931,,20759209.00651634,-2267048.4549522046,16363427.522109782,-1510.902875024808,1457.1308340938722,2098.826931293495,229578.79684538892,-0.0007308417407330126,0.000000021420419216156006,0.000000007450580596923828,-0.00000011920928955078125,0.0,122880.0,0.0,-262144.0,196608.0
Raw,1773867544000,10648830472,18,0.0,-1457902751351169536,0.0,10.064385414123535,62238.125,0.0,0,6,0.0,47,334761929174868,21,28.399999618530273,90.3111343383789,0.18262839317321777,20,-451.02549232472666,0.12913653681278228,1575420000,,,,0,24.200000762939453,1,2.5999999046325684,23.399999618530273,0.0,0.0,0.0,0.0,C,644465011743931,,14844629.82535374,-8261206.612319617,20523808.259493742,2332.634126352319,1104.5005645399542,-1231.275918108501,-183681.57427322492,0.00034503309871070087,0.000000021420419216156006,0.000000007450580596923828,-0.00000011920928955078125,0.0,122880.0,0.0,-262144.0,196608.0
Raw,1773867544000,10648830472,18,0.0,-1457902751351169536,0.0,10.064385414123535,62238.125,0.0,0,7,0.0,47,334761920123146,20,29.200000762939453,-275.5924072265625,0.1707533597946167,20,1378.2817653797101,0.12073970071077346,1575420000,,,,0,22.100000381469727,1,2.5999999046325684,24.200000762939453,0.0,0.0,0.0,0.0,C,644465011743931,,25279863.528221715,5689115.531353364,-6100115.829098354,677.3504764761268,578.165261768593,3001.1737331605236,-48680.5568157049,-0.001170046511106193,0.000000021420419216156006,0.000000007450580596923828,-0.00000011920928955078125,0.0,122880.0,0.0,-262144.0,196608.0
Raw,1773867544000,10648830472,18,0.0,-1457902751351169536,0.0,10.064385414123535,62238.125,0.0,0,17,0.0,47,334761918986129,22,27.5,898.2274169921875,0.1975308656692505,20,-4479.8038194880355,0.13967407511472701,1575420000,,,,0,19.600000381469727,1,2.5999999046325684,22.5,0.0,0.0,0.0,0.0,C,644465011743931,,22992623.21283107,-13148640.451793285,-3025810.5170513843,-201.17562763812197,461.3115569297745,-3122.794631820211,-27247.11532376051,-0.002558573010901455,0.000000021420419216156006,0.000000007450580596923828,-0.00000011920928955078125,0.0,122880.0,0.0,-262144.0,196608.0
Raw,1773867544000,10648830472,18,0.0,-1457902751351169536,0.0,10.064385414123535,62238.125,0.0,0,19,0.0,47,334761924202447,24,26.799999237060547,791.017578125,0.21042001247406006,20,-3963.439663469093,0.14878799082040786,1575420000,,,,0,19.5,1,2.5999999046325684,21.799999237060547,0.0,0.0,0.0,0.0,C,644465011743931,,19419393.99741454,-16752342.94673787,5662303.67618704,800.6738446700725,-112.60696410840063,-3091.6153794680586,208106.94888623815,-0.0007221650157589465,0.000000021420419216156006,0.000000007450580596923828,-0.00000011920928955078125,0.0,122880.0,0.0,-262144.0,196608.0
Raw,1773867544000,10648830472,18,0.0,-1457902751351169536,0.0,10.064385414123535,62238.125,0.0,0,1,0.0,47,334761918742298,33,22.700000762939453,1044.481689453125,0.319193035364151,20,-5230.745676542865,0.22570139530599115,1575420000,,,,0,7.0,1,2.5999999046325684,17.700000762939453,0.0,0.0,0.0,0.0,C,644465011743931,,20888291.152250145,15296496.285783026,-6114415.936922663,-814.3041497851174,-103.87679230841016,-3036.7911460560254,94477.04552358088,-0.001885112898889929,0.000000021420419216156006,0.000000007450580596923828,-0.00000011920928955078125,0.0,122880.0,0.0,-262144.0,196608.0
Raw,1773867544000,10648830472,18,0.0,-1457902751351169536,0.0,10.064385414123535,62238.125,0.0,0,1,0.0,239,86343933664128,12,38.29999923706055,662.9446411132812,0.09018027782440186,17,-3307.1514760472346,0.06376647444963454,1602562600,,,,0,34.79999923706055,3,2.5999999046325684,33.29999923706055,0.0,0.0,0.0,0.0,C,644465011743931,,8825263.937475784,6257508.274145196,23106913.109263692,-1711.8310487288488,2659.840305769352,-64.73782025485711,48682.707955029386,0.0002726596521824831,0.000000021420419216156006,0.000000007450580596923828,-0.00000011920928955078125,0.0,122880.0,0.0,-262144.0,196608.0
Raw,1773867544000,10648830472,18,0.0,-1457902751351169536,0.0,10.064385414123535,62238.125,0.0,0,17,0.0,239,86343933548258,15,34.099998474121094,122.75157928466797,0.11809024214744568,22,-604.4553118154872,0.08350161022245883,1604250000,,,,0,31.100000381469727,3,2.5999999046325684,29.100000381469727,0.0,0.0,0.0,0.0,C,644465011743931,,13428239.687743792,-8202843.39310617,20066884.6267596,2747.570555134741,141.62852484101847,-1784.462687426457,83742.47042972891,0.0008179789565474493,0.000000021420419216156006,0.000000007450580596923828,-0.00000011920928955078125,0.0,122880.0,0.0,-262144.0,196608.0
Raw,1773867544000,10648830472,18,0.0,-1457902751351169536,0.0,10.064385414123535,62238.125,0.0,0,32,0.0,815,334747924907289,17,31.799999237060547,117.20635223388672,0.13922923803329468,20,-589.7614171535242,0.09844899421334266,1561098000,,,,0,25.899999618530273,5,2.5999999046325684,26.799999237060547,0.0,0.0,0.0,0.0,C,644465011743931,,18062269.60379149,-8786728.68360307,19374797.06213604,-887.4571001820515,2023.7534170381625,1749.1173075445517,-280670.87387522706,0.0012982935877516866,0.000000021420419216156006,0.000000007450580596923828,-0.00000011920928955078125,0.0,122880.0,0.0,-262144.0,196608.0
Raw,1773867544000,10648830472,18,0.0,-1457902751351169536,0.0,10.064385414123535,62238.125,0.0,0,24,0.0,239,86343931470382,17,31.700000762939453,938.4863891601562,0.14027409255504608,20,-4715.225715036737,0.09918781084567307,1603125000,,,,0,22.399999618530273,3,2.5999999046325684,26.700000762939453,0.0,0.0,0.0,0.0,C,644465011743931,,24907969.21564147,-688807.9731592723,5437747.720996975,752.0579922408087,-89.85347215853312,-3465.271513955848,-46347.95932531004,-0.0005453193043649662,0.000000021420419216156006,0.000000007450580596923828,-0.00000011920928955078125,0.0,122880.0,0.0,-262144.0,196608.0
Raw,1773867544000,10648830472,18,0.0,-1457902751351169536,0.0,10.064385414123535,62238.125,0.0,0,2,0.0,239,86343932890012,20,29.0,76.31431579589844,0.1736111044883728,20,-405.7100850075949,0.1227604119837284,1599750000,,,,0,28.0,3,2.5999999046325684,24.0,0.0,0.0,0.0,0.0,C,644465011743931,,16425423.375416728,-9539087.760689398,17113157.376981027,-1471.7135032637425,1813.993064207686,2425.1745650840166,3620.4315748866647,0.0,0.000000021420419216156006,0.000000007450580596923828,-0.00000011920928955078125,0.0,122880.0,0.0,-262144.0,196608.0
Raw,1773867544000,10648830472,18,0.0,-1457902751351169536,0.0,10.064385414123535,62238.125,0.0,0,30,0.0,815,334747923413902,22,28.0,407.8620910644531,0.18903592228889465,20,-2038.1476572484244,0.1336673006504774,1561098000,,,,0,24.5,5,2.5999999046325684,23.0,0.0,0.0,0.0,0.0,C,644465011743931,,17632240.072402474,-14291195.201026693,16236433.689565627,1857.2399142034762,-141.88065188263425,-2137.4709655584625,122693.12605743723,0.0023903176916064695,0.000000021420419216156006,0.000000007450580596923828,-0.00000011920928955078125,0.0,122880.0,0.0,-262144.0,196608.0
Raw,1773867544000,10648830472,18,0.0,-1457902751351169536,0.0,10.064385414123535,62238.125,0.0,0,11,0.0,239,86343923363038,29,24.100000381469727,-207.44546508789062,0.27411526441574097,20,1029.840630524559,0.19382690346837042,1602000000,,,,0,21.700000762939453,3,2.5999999046325684,19.100000381469727,0.0,0.0,0.0,0.0,C,644465011743931,,6644370.170398438,23119362.632606886,8528284.990124429,-365.2411750044232,-1118.0331510281383,3316.8380232620634,6755.705694147027,-0.0005453193043649662,0.000000021420419216156006,0.000000007450580596923828,-0.00000011920928955078125,0.0,122880.0,0.0,-262144.0,196608.0
Raw,1773867544000,10648830472,18,0.0,-1457902751351169536,0.0,10.064385414123535,62238.125,0.0,0,9,0.0,291,543580,28,24.600000381469727,352.8020935058594,0.2603082060813904,20,-351.8817146718211,0.18406393252015113,1561098000,,,,0,12.699999809265137,5,2.5999999046325684,19.600000381469727,0.0,0.0,0.0,0.0,C,644465011743931,,,,,,,,,,0.000000021420419216156006,0.000000007450580596923828,-0.00000011920928955078125,0.0,122880.0,0.0,-262144.0,196608.0
Raw,1773867545000,11648831572,18,0.0,-1457902751351168512,0.0,10.064385414123535,62237.140625,0.0,0,3,0.0,47,334762927179987,11,38.79999923706055,798.8479614257812,0.08753195405006409,20,-4772.017756810994,0.061893844708800314,1575420000,,,,0,29.700000762939453,1,2.5999999046325684,33.79999923706055,0.0,0.0,0.0,0.0,C,644466012022546,,11799402.871469542,18705203.2159309,14597486.257831538,91.00464890793755,1879.722341680204,-2438.79432845693,160446.06146520269,-0.004148941719904542,0.000000021420419216156006,0.000000007450580596923828,-0.00000011920928955078125,0.0,122880.0,0.0,-262144.0,196608.0
Raw,1773867545000,11648831572,18,0.0,-1457902751351168512,0.0,10.064385414123535,62237.140625,0.0,0,4,0.0,47,334762931527998,14,35.5,558.500244140625,0.10749798268079758,20,-3336.1937517846236,0.07601182355359196,1575420000,,,,0,29.100000381469727,1,2.5999999046325684,30.5,0.0,0.0,0.0,0.0,C,644466012022546,,14281775.47617871,7592789.09273488,21131853.641290832,-2139.83767597325,1596.717688118721,856.8556467132704,14821.885958446182,0.0007372322070295922,0.000000021420419216156006,0.000000007450580596923828,-0.00000011920928955078125,0.0,122880.0,0.0,-262144.0,196608.0
Raw,1773867545000,11648831572,18,0.0,-1457902751351168512,0.0,10.064385414123535,62237.140625,0.0,0,9,0.0,47,334762932864640,14,34.5,152.54002380371094,0.11490950733423233,20,-916.2864973830292,0.08125251263603568,1575420000,,,,0,26.399999618530273,1,2.5999999046325684,29.5,0.0,0.0,0.0,0.0,C,644466012022546,,20757698.042657103,-2265591.1949075107,16365526.175612232,-1511.0230382370937,1457.3875230801855,2098.477572833814,229578.7961145238,-0.0007308875792659819,0.000000021420419216156006,0.000000007450580596923828,-0.00000011920928955078125,0.0,122880.0,0.0,-262144.0,196608.0
Raw,1773867545000,11648831572,18,0.0,-1457902751351168512,0.0,10.064385414123535,62237.140625,0.0,0,6,0.0,47,334762929175647,21,28.700000762939453,90.7119140625,0.17803412675857544,20,-540.6175746681402,0.1258879310309887,1575420000,,,,0,29.399999618530273,1,2.5999999046325684,23.700000762939453,0.0,0.0,0.0,0.0,C,644466012022546,,14846962.424886964,-8260102.215914408,20522576.766332407,2332.561294748953,1104.2905240645848,-1231.7084815013052,-183681.57392817535,0.0003450655785854906,0.000000021420419216156006,0.000000007450580596923828,-0.00000011920928955078125,0.0,122880.0,0.0,-262144.0,196608.0
