# 
# Header Description:
# 
# Version: v2.0.0.1 Platform: 10 Manufacturer: Xiaomi Model: Redmi Note 7
# 
# Raw,ElapsedRealtimeMillis,TimeNanos,LeapSecond,TimeUncertaintyNanos,FullBiasNanos,BiasNanos,BiasUncertaintyNanos,DriftNanosPerSecond,DriftUncertaintyNanosPerSecond,HardwareClockDiscontinuityCount,Svid,TimeOffsetNanos,State,ReceivedSvTimeNanos,ReceivedSvTimeUncertaintyNanos,Cn0DbHz,PseudorangeRateMetersPerSecond,PseudorangeRateUncertaintyMetersPerSecond,AccumulatedDeltaRangeState,AccumulatedDeltaRangeMeters,AccumulatedDeltaRangeUncertaintyMeters,CarrierFrequencyHz,CarrierCycles,CarrierPhase,CarrierPhaseUncertainty,MultipathIndicator,SnrInDb,ConstellationType,AgcDb,CarrierFrequencyHz
# 
# Fix,Provider,Latitude,Longitude,Altitude,Speed,Accuracy,(UTC)TimeInMs
# 
# Nav,Svid,Type,Status,MessageId,Sub-messageId,Data(Bytes)
# 
Fix,gps,45.079671,7.618548,347.715820,0.000000,9.648001,1774176159000
Raw,228848257,228851934000000,,,-1457982524498336742,-0.5501346588134766,35.86107777664438,5.431533351342586,13.736877340166373,947,14,0.0,207,49358365917276,6,39.2,-420.01458740234375,0.22709999978542328,0,0.0,0.0,1.59806246E9,,,,0,,3,-1.79,1.59806246E9
Raw,228848258,228851934000000,,,-1457982524498336742,-0.5501346588134766,35.86107777664438,5.431533351342586,13.736877340166373,947,22,0.0,207,49358354656856,151,12.3,761.0525512695312,3.447500228881836,0,0.0,0.0,1.60031245E9,,,,0,,3,-1.79,1.60031245E9
Raw,228848258,228851934000000,,,-1457982524498336742,-0.5501346588134766,35.86107777664438,5.431533351342586,13.736877340166373,947,12,0.0,207,49358353822484,40,21.4,775.9526977539062,1.065999984741211,0,0.0,0.0,1.60143744E9,,,,0,,3,-1.79,1.60143744E9
Raw,228848259,228851934000000,,,-1457982524498336742,-0.5501346588134766,35.86107777664438,5.431533351342586,13.736877340166373,947,23,0.0,207,49358365088799,53,19.8,478.76129150390625,1.2040001153945923,0,0.0,0.0,1.60368755E9,,,,0,,3,-1.79,1.60368755E9
Raw,228848259,228851934000000,,,-1457982524498336742,-0.5501346588134766,35.86107777664438,5.431533351342586,13.736877340166373,947,5,0.0,15,38576353569633,31,23.2,15.261552810668945,0.7459999918937683,0,0.0,0.0,1.57542003E9,,,,0,,1,-1.75,1.57542003E9
Raw,228848260,228851934000000,,,-1457982524498336742,-0.5501346588134766,35.86107777664438,5.431533351342586,13.736877340166373,947,16,0.0,15,38576357761339,27,24.1,-574.6583862304688,0.6919999718666077,0,0.0,0.0,1.57542003E9,,,,0,,1,-1.75,1.57542003E9
Raw,228848260,228851934000000,,,-1457982524498336742,-0.5501346588134766,35.86107777664438,5.431533351342586,13.736877340166373,947,18,0.0,15,38576362736013,27,24.2,-255.2694549560547,0.6694999933242798,0,0.0,0.0,1.57542003E9,,,,0,,1,-1.75,1.57542003E9
Raw,228848261,228851934000000,,,-1457982524498336742,-0.5501346588134766,35.86107777664438,5.431533351342586,13.736877340166373,947,26,0.0,15,38576363370044,6,39.0,-244.8804931640625,0.02410000190138817,0,0.0,0.0,1.57542003E9,,,,0,,1,-1.75,1.57542003E9
Raw,228848261,228851934000000,,,-1457982524498336742,-0.5501346588134766,35.86107777664438,5.431533351342586,13.736877340166373,947,29,0.0,15,38576359938294,70,17.8,423.4034118652344,1.0749999284744263,0,0.0,0.0,1.57542003E9,,,,0,,1,-1.75,1.57542003E9
Raw,228848262,228851934000000,,,-1457982524498336742,-0.5501346588134766,35.86107777664438,5.431533351342586,13.736877340166373,947,31,0.0,15,38576360448364,16,29.6,278.03082275390625,0.02670000120997429,0,0.0,0.0,1.57542003E9,,,,0,,1,-1.75,1.57542003E9
Raw,228848262,228851934000000,,,-1457982524498336742,-0.5501346588134766,35.86107777664438,5.431533351342586,13.736877340166373,947,8,0.0,15,38562301460847,24,25.6,-241.5489959716797,0.3833000063896179,0,0.0,0.0,1.56109798E9,,,,0,,5,-1.32,1.56109798E9
Raw,228848263,228851934000000,,,-1457982524498336742,-0.5501346588134766,35.86107777664438,5.431533351342586,13.736877340166373,947,13,0.0,7183,38576349282203,84,16.9,287.54327392578125,1.7720000743865967,0,0.0,0.0,1.57542003E9,,,,0,,6,-1.66,1.57542003E9
Raw,228848263,228851934000000,,,-1457982524498336742,-0.5501346588134766,35.86107777664438,5.431533351342586,13.736877340166373,947,21,0.0,7183,38576348886720,21,26.8,344.10296630859375,0.13520000874996185,0,0.0,0.0,1.57542003E9,,,,0,,6,-1.66,1.57542003E9
Raw,228848264,228851934000000,,,-1457982524498336742,-0.5501346588134766,35.86107777664438,5.431533351342586,13.736877340166373,947,23,0.0,7183,38576354454717,14,30.5,-109.16980743408203,0.052800003439188004,0,0.0,0.0,1.57542003E9,,,,0,,6,-1.66,1.57542003E9
Raw,228848264,228851934000000,,,-1457982524498336742,-0.5501346588134766,35.86107777664438,5.431533351342586,13.736877340166373,947,26,0.0,7183,38576352958991,53,19.4,-270.43585205078125,0.8104999661445618,0,0.0,0.0,1.57542003E9,,,,0,,6,-1.66,1.57542003E9
Raw,228848265,228851934000000,,,-1457982524498336742,-0.5501346588134766,35.86107777664438,5.431533351342586,13.736877340166373,947,31,0.0,7183,38576344677397,53,19.5,-451.1101989746094,0.8104999661445618,0,0.0,0.0,1.57542003E9,,,,0,,6,-1.66,1.57542003E9
Fix,gps,45.079671,7.618548,347.715820,0.000000,9.648001,1774176160000
Raw,228849263,228852934000000,,,-1457982524498336736,-0.2618446350097656,36.319313949206844,4.666431030700339,14.60382186796607,947,14,0.0,207,49359365918673,7,37.3,-420.0603332519531,0.2281000018119812,0,0.0,0.0,1.59806246E9,,,,0,,3,-1.96,1.59806246E9
Raw,228849263,228852934000000,,,-1457982524498336736,-0.2618446350097656,36.319313949206844,4.666431030700339,14.60382186796607,947,12,0.0,207,49359353819849,24,25.0,776.3335571289062,0.6013000011444092,0,0.0,0.0,1.60143744E9,,,,0,,3,-1.96,1.60143744E9
Raw,228849264,228852934000000,,,-1457982524498336736,-0.2618446350097656,36.319313949206844,4.666431030700339,14.60382186796607,947,23,0.0,207,49359365087274,27,24.9,478.2004699707031,0.8739999532699585,0,0.0,0.0,1.60368755E9,,,,0,,3,-1.96,1.60368755E9
Raw,228849265,228852934000000,,,-1457982524498336736,-0.2618446350097656,36.319313949206844,4.666431030700339,14.60382186796607,947,5,0.0,15,38577353569510,24,25.0,15.50310230255127,0.40130001306533813,0,0.0,0.0,1.57542003E9,,,,0,,1,-1.64,1.57542003E9
Raw,228849267,228852934000000,,,-1457982524498336736,-0.2618446350097656,36.319313949206844,4.666431030700339,14.60382186796607,947,16,0.0,15,38577357763208,31,23.1,-574.3729248046875,0.7519999742507935,0,0.0,0.0,1.57542003E9,,,,0,,1,-1.64,1.57542003E9
Raw,228849268,228852934000000,,,-1457982524498336736,-0.2618446350097656,36.319313949206844,4.666431030700339,14.60382186796607,947,18,0.0,15,38577362736907,40,21.5,-255.45022583007812,0.7894999980926514,0,0.0,0.0,1.57542003E9,,,,0,,1,-1.64,1.57542003E9
Raw,228849268,228852934000000,,,-1457982524498336736,-0.2618446350097656,36.319313949206844,4.666431030700339,14.60382186796607,947,26,0.0,15,38577363370857,6,38.7,-244.9644012451172,0.02460000105202198,0,0.0,0.0,1.57542003E9,,,,0,,1,-1.64,1.57542003E9
Raw,228849269,228852934000000,,,-1457982524498336736,-0.2618446350097656,36.319313949206844,4.666431030700339,14.60382186796607,947,27,0.0,15,38577350037851,111,15.0,-639.2250366210938,3.621500253677368,0,0.0,0.0,1.57542003E9,,,,0,,1,-1.64,1.57542003E9
Raw,228849269,228852934000000,,,-1457982524498336736,-0.2618446350097656,36.319313949206844,4.666431030700339,14.60382186796607,947,29,0.0,15,38577359936898,21,26.7,423.6396484375,0.10970000177621841,0,0.0,0.0,1.57542003E9,,,,0,,1,-1.64,1.57542003E9
Raw,228849270,228852934000000,,,-1457982524498336736,-0.2618446350097656,36.319313949206844,4.666431030700339,14.60382186796607,947,31,0.0,15,38577360447431,14,30.3,277.95098876953125,0.025800000876188278,0,0.0,0.0,1.57542003E9,,,,0,,1,-1.64,1.57542003E9
Raw,228849271,228852934000000,,,-1457982524498336736,-0.2618446350097656,36.319313949206844,4.666431030700339,14.60382186796607,947,8,0.0,15,38563301461637,40,21.5,-241.528076171875,0.6679999828338623,0,0.0,0.0,1.56109798E9,,,,0,,5,-1.35,1.56109798E9
Raw,228849272,228852934000000,,,-1457982524498336736,-0.2618446350097656,36.319313949206844,4.666431030700339,14.60382186796607,947,13,0.0,15,38563301308364,55,19.3,-277.7275390625,1.5379999876022339,0,0.0,0.0,1.56109798E9,,,,0,,5,-1.35,1.56109798E9
Raw,228849272,228852934000000,,,-1457982524498336736,-0.2618446350097656,36.319313949206844,4.666431030700339,14.60382186796607,947,6,0.0,7183,38577338856655,101,15.6,396.61004638671875,2.6035001277923584,0,0.0,0.0,1.57542003E9,,,,0,,6,-1.52,1.57542003E9
Raw,228849274,228852934000000,,,-1457982524498336736,-0.2618446350097656,36.319313949206844,4.666431030700339,14.60382186796607,947,13,0.0,7183,38577349281066,61,18.9,288.0760803222656,0.871999979019165,0,0.0,0.0,1.57542003E9,,,,0,,6,-1.52,1.57542003E9
Raw,228849277,228852934000000,,,-1457982524498336736,-0.2618446350097656,36.319313949206844,4.666431030700339,14.60382186796607,947,21,0.0,7183,38577348885565,19,27.6,343.8772888183594,0.06530000269412994,0,0.0,0.0,1.57542003E9,,,,0,,6,-1.52,1.57542003E9
Raw,228849277,228852934000000,,,-1457982524498336736,-0.2618446350097656,36.319313949206844,4.666431030700339,14.60382186796607,947,23,0.0,7183,38577354455072,14,30.4,-109.40084838867188,0.052800003439188004,0,0.0,0.0,1.57542003E9,,,,0,,6,-1.52,1.57542003E9
Raw,228849278,228852934000000,,,-1457982524498336736,-0.2618446350097656,36.319313949206844,4.666431030700339,14.60382186796607,947,26,0.0,7183,38577352959908,61,18.0,-269.91253662109375,0.8704999685287476,0,0.0,0.0,1.57542003E9,,,,0,,6,-1.52,1.57542003E9
Raw,228849279,228852934000000,,,-1457982524498336736,-0.2618446350097656,36.319313949206844,4.666431030700339,14.60382186796607,947,31,0.0,7183,38577344678909,35,22.1,-451.5478820800781,0.640500009059906,0,0.0,0.0,1.57542003E9,,,,0,,6,-1.52,1.57542003E9
Fix,gps,45.079671,7.618548,347.715332,0.000000,9.648001,1774176161000
Raw,228850267,228853934000000,,,-1457982524498336728,-0.9304733276367188,36.60146103356965,4.0483109405506355,14.637896382409611,947,14,0.0,207,49360365920068,7,37.9,-419.8363342285156,0.2281000018119812,0,0.0,0.0,1.59806246E9,,,,0,,3,-2.07,1.59806246E9
Raw,228850268,228853934000000,,,-1457982524498336728,-0.9304733276367188,36.60146103356965,4.0483109405506355,14.637896382409611,947,12,0.0,207,49360353817257,31,23.8,776.4301147460938,0.9459999799728394,0,0.0,0.0,1.60143744E9,,,,0,,3,-2.07,1.60143744E9
Raw,228850268,228853934000000,,,-1457982524498336728,-0.9304733276367188,36.60146103356965,4.0483109405506355,14.637896382409611,947,23,0.0,207,49360365085711,40,21.7,478.5930480957031,1.0540000200271606,0,0.0,0.0,1.60368755E9,,,,0,,3,-2.07,1.60368755E9
Raw,228850269,228853934000000,,,-1457982524498336728,-0.9304733276367188,36.60146103356965,4.0483109405506355,14.637896382409611,947,5,0.0,15,38578353569449,24,25.3,15.731471061706543,0.40130001306533813,0,0.0,0.0,1.57542003E9,,,,0,,1,-1.53,1.57542003E9
Raw,228850269,228853934000000,,,-1457982524498336728,-0.9304733276367188,36.60146103356965,4.0483109405506355,14.637896382409611,947,16,0.0,15,38578357765070,40,21.8,-574.4109497070312,0.8119999766349792,0,0.0,0.0,1.57542003E9,,,,0,,1,-1.53,1.57542003E9
Raw,228850270,228853934000000,,,-1457982524498336728,-0.9304733276367188,36.60146103356965,4.0483109405506355,14.637896382409611,947,18,0.0,15,38578362737727,35,22.9,-254.60342407226562,0.7294999957084656,0,0.0,0.0,1.57542003E9,,,,0,,1,-1.53,1.57542003E9
Raw,228850271,228853934000000,,,-1457982524498336728,-0.9304733276367188,36.60146103356965,4.0483109405506355,14.637896382409611,947,21,0.0,15,38578349517534,221,12.1,253.2047576904297,6.990000247955322,0,0.0,0.0,1.57542003E9,,,,0,,1,-1.53,1.57542003E9
Raw,228850271,228853934000000,,,-1457982524498336728,-0.9304733276367188,36.60146103356965,4.0483109405506355,14.637896382409611,947,26,0.0,15,38578363371680,6,38.9,-244.74066162109375,0.02460000105202198,0,0.0,0.0,1.57542003E9,,,,0,,1,-1.53,1.57542003E9
Raw,228850272,228853934000000,,,-1457982524498336728,-0.9304733276367188,36.60146103356965,4.0483109405506355,14.637896382409611,947,29,0.0,15,38578359935460,19,27.7,423.74530029296875,0.0398000031709671,0,0.0,0.0,1.57542003E9,,,,0,,1,-1.53,1.57542003E9
Raw,228850273,228853934000000,,,-1457982524498336728,-0.9304733276367188,36.60146103356965,4.0483109405506355,14.637896382409611,947,31,0.0,15,38578360446507,14,30.9,278.2405090332031,0.025800000876188278,0,0.0,0.0,1.57542003E9,,,,0,,1,-1.53,1.57542003E9
Raw,228850273,228853934000000,,,-1457982524498336728,-0.9304733276367188,36.60146103356965,4.0483109405506355,14.637896382409611,947,8,0.0,15,38564301462466,27,24.2,-241.13438415527344,0.527999997138977,0,0.0,0.0,1.56109798E9,,,,0,,5,-1.33,1.56109798E9
Raw,228850274,228853934000000,,,-1457982524498336728,-0.9304733276367188,36.60146103356965,4.0483109405506355,14.637896382409611,947,13,0.0,15,38564301309274,24,25.1,-277.4256896972656,0.3833000063896179,0,0.0,0.0,1.56109798E9,,,,0,,5,-1.33,1.56109798E9
Raw,228850274,228853934000000,,,-1457982524498336728,-0.9304733276367188,36.60146103356965,4.0483109405506355,14.637896382409611,947,6,0.0,7183,38578338855368,61,18.2,395.6776428222656,0.8734999895095825,0,0.0,0.0,1.57542003E9,,,,0,,6,-1.38,1.57542003E9
Raw,228850275,228853934000000,,,-1457982524498336728,-0.9304733276367188,36.60146103356965,4.0483109405506355,14.637896382409611,947,13,0.0,7183,38578349280118,70,17.7,286.915283203125,0.9419999718666077,0,0.0,0.0,1.57542003E9,,,,0,,6,-1.38,1.57542003E9
Raw,228850277,228853934000000,,,-1457982524498336728,-0.9304733276367188,36.60146103356965,4.0483109405506355,14.637896382409611,947,21,0.0,7183,38578348884416,19,27.4,344.1331481933594,0.06530000269412994,0,0.0,0.0,1.57542003E9,,,,0,,6,-1.38,1.57542003E9
Raw,228850277,228853934000000,,,-1457982524498336728,-0.9304733276367188,36.60146103356965,4.0483109405506355,14.637896382409611,947,23,0.0,7183,38578354455434,16,29.2,-109.12290954589844,0.053700003772974014,0,0.0,0.0,1.57542003E9,,,,0,,6,-1.38,1.57542003E9
Raw,228850278,228853934000000,,,-1457982524498336728,-0.9304733276367188,36.60146103356965,4.0483109405506355,14.637896382409611,947,26,0.0,7183,38578352960800,40,21.3,-269.512939453125,0.6904999613761902,0,0.0,0.0,1.57542003E9,,,,0,,6,-1.38,1.57542003E9
Raw,228850278,228853934000000,,,-1457982524498336728,-0.9304733276367188,36.60146103356965,4.0483109405506355,14.637896382409611,947,31,0.0,7183,38578344680423,31,23.2,-451.46221923828125,0.6004999876022339,0,0.0,0.0,1.57542003E9,,,,0,,6,-1.38,1.57542003E9
Fix,gps,45.079672,7.618550,347.685059,0.250000,9.648001,1774176162000
Raw,228851224,228854934000000,,,-1457982524498336719,-0.6917533874511719,37.20280801644549,4.46215095258209,13.934376871439044,947,14,0.0,207,49361365921478,8,36.5,-419.7498474121094,0.22870001196861267,0,0.0,0.0,1.59806246E9,,,,0,,3,-1.95,1.59806246E9
Raw,228851225,228854934000000,,,-1457982524498336719,-0.6917533874511719,37.20280801644549,4.46215095258209,13.934376871439044,947,22,0.0,207,49361354649127,43,22.0,760.125244140625,2.507499933242798,0,0.0,0.0,1.60031245E9,,,,0,,3,-1.95,1.60031245E9
Raw,228851226,228854934000000,,,-1457982524498336719,-0.6917533874511719,37.20280801644549,4.46215095258209,13.934376871439044,947,12,0.0,207,49361353814580,46,20.2,776.4769287109375,1.1360000371932983,0,0.0,0.0,1.60143744E9,,,,0,,3,-1.95,1.60143744E9
Raw,228851226,228854934000000,,,-1457982524498336719,-0.6917533874511719,37.20280801644549,4.46215095258209,13.934376871439044,947,5,0.0,15,38579353569485,19,27.3,16.013193130493164,0.06080000102519989,0,0.0,0.0,1.57542003E9,,,,0,,1,-1.47,1.57542003E9
Raw,228851227,228854934000000,,,-1457982524498336719,-0.6917533874511719,37.20280801644549,4.46215095258209,13.934376871439044,947,18,0.0,15,38579362738596,21,26.0,-254.93386840820312,0.11420000344514847,0,0.0,0.0,1.57542003E9,,,,0,,1,-1.47,1.57542003E9
Raw,228851230,228854934000000,,,-1457982524498336719,-0.6917533874511719,37.20280801644549,4.46215095258209,13.934376871439044,947,26,0.0,15,38579363372509,8,36.6,-244.623046875,0.025700001046061516,0,0.0,0.0,1.57542003E9,,,,0,,1,-1.47,1.57542003E9
Raw,228851231,228854934000000,,,-1457982524498336719,-0.6917533874511719,37.20280801644549,4.46215095258209,13.934376871439044,947,29,0.0,15,38579359934076,17,28.2,423.5277404785156,0.03180000185966492,0,0.0,0.0,1.57542003E9,,,,0,,1,-1.47,1.57542003E9
Raw,228851231,228854934000000,,,-1457982524498336719,-0.6917533874511719,37.20280801644549,4.46215095258209,13.934376871439044,947,31,0.0,15,38579360445595,12,32.2,278.5094299316406,0.023900000378489494,0,0.0,0.0,1.57542003E9,,,,0,,1,-1.47,1.57542003E9
Raw,228851232,228854934000000,,,-1457982524498336719,-0.6917533874511719,37.20280801644549,4.46215095258209,13.934376871439044,947,8,0.0,15,38565301463274,40,21.6,-241.3648223876953,0.6679999828338623,0,0.0,0.0,1.56109798E9,,,,0,,5,-1.26,1.56109798E9
Raw,228851234,228854934000000,,,-1457982524498336719,-0.6917533874511719,37.20280801644549,4.46215095258209,13.934376871439044,947,13,0.0,15,38565301310240,35,22.7,-277.45867919921875,0.6180000305175781,0,0.0,0.0,1.56109798E9,,,,0,,5,-1.26,1.56109798E9
Raw,228851234,228854934000000,,,-1457982524498336719,-0.6917533874511719,37.20280801644549,4.46215095258209,13.934376871439044,947,6,0.0,7183,38579338853962,70,17.3,396.7527770996094,0.9434999823570251,0,0.0,0.0,1.57542003E9,,,,0,,6,-1.38,1.57542003E9
Raw,228851235,228854934000000,,,-1457982524498336719,-0.6917533874511719,37.20280801644549,4.46215095258209,13.934376871439044,947,13,0.0,7183,38579349279220,35,22.8,287.0865478515625,0.6420000195503235,0,0.0,0.0,1.57542003E9,,,,0,,6,-1.38,1.57542003E9
Raw,228851235,228854934000000,,,-1457982524498336719,-0.6917533874511719,37.20280801644549,4.46215095258209,13.934376871439044,947,21,0.0,7183,38579348883290,21,26.2,344.0718688964844,0.13520000874996185,0,0.0,0.0,1.57542003E9,,,,0,,6,-1.38,1.57542003E9
Raw,228851236,228854934000000,,,-1457982524498336719,-0.6917533874511719,37.20280801644549,4.46215095258209,13.934376871439044,947,23,0.0,7183,38579354455811,13,31.1,-109.15843963623047,0.05220000073313713,0,0.0,0.0,1.57542003E9,,,,0,,6,-1.38,1.57542003E9
Raw,228851236,228854934000000,,,-1457982524498336719,-0.6917533874511719,37.20280801644549,4.46215095258209,13.934376871439044,947,26,0.0,7183,38579352961703,35,22.2,-269.74127197265625,0.640500009059906,0,0.0,0.0,1.57542003E9,,,,0,,6,-1.38,1.57542003E9
Raw,228851237,228854934000000,,,-1457982524498336719,-0.6917533874511719,37.20280801644549,4.46215095258209,13.934376871439044,947,31,0.0,7183,38579344681971,70,17.3,-450.872314453125,0.9404999613761902,0,0.0,0.0,1.57542003E9,,,,0,,6,-1.38,1.57542003E9
Fix,gps,45.079674,7.618553,348.123352,0.310000,9.648001,1774176163000
Raw,228852269,228855934000000,,,-1457982524498336718,-0.6486721038818359,37.77498204726726,4.3590144292164315,13.825029220831542,947,14,0.0,207,49362365922872,8,36.4,-420.23382568359375,0.22870001196861267,0,0.0,0.0,1.59806246E9,,,,0,,3,-2.22,1.59806246E9
Raw,228852270,228855934000000,,,-1457982524498336718,-0.6486721038818359,37.77498204726726,4.3590144292164315,13.825029220831542,947,22,0.0,207,49362354646558,53,19.1,759.7224731445312,1.21750009059906,0,0.0,0.0,1.60031245E9,,,,0,,3,-2.22,1.60031245E9
Raw,228852270,228855934000000,,,-1457982524498336718,-0.6486721038818359,37.77498204726726,4.3590144292164315,13.825029220831542,947,12,0.0,207,49362353812009,61,18.4,774.8013916015625,1.2960000038146973,0,0.0,0.0,1.60143744E9,,,,0,,3,-2.22,1.60143744E9
Raw,228852271,228855934000000,,,-1457982524498336718,-0.6486721038818359,37.77498204726726,4.3590144292164315,13.825029220831542,947,24,0.0,207,49362365326322,327,12.2,-427.5122375488281,10.184000015258789,0,0.0,0.0,1.60312499E9,,,,0,,3,-2.22,1.60312499E9
Raw,228852271,228855934000000,,,-1457982524498336718,-0.6486721038818359,37.77498204726726,4.3590144292164315,13.825029220831542,947,23,0.0,207,49362365082576,64,18.9,478.1163635253906,2.0339999198913574,0,0.0,0.0,1.60368755E9,,,,0,,3,-2.22,1.60368755E9
Raw,228852272,228855934000000,,,-1457982524498336718,-0.6486721038818359,37.77498204726726,4.3590144292164315,13.825029220831542,947,5,0.0,15,38580353569429,24,25.5,15.877442359924316,0.40130001306533813,0,0.0,0.0,1.57542003E9,,,,0,,1,-1.75,1.57542003E9
Raw,228852273,228855934000000,,,-1457982524498336718,-0.6486721038818359,37.77498204726726,4.3590144292164315,13.825029220831542,947,18,0.0,15,38580362739408,16,29.3,-255.41732788085938,0.02970000170171261,0,0.0,0.0,1.57542003E9,,,,0,,1,-1.75,1.57542003E9
Raw,228852273,228855934000000,,,-1457982524498336718,-0.6486721038818359,37.77498204726726,4.3590144292164315,13.825029220831542,947,26,0.0,15,38580363373319,9,35.4,-245.0752716064453,0.026100000366568565,0,0.0,0.0,1.57542003E9,,,,0,,1,-1.75,1.57542003E9
Raw,228852274,228855934000000,,,-1457982524498336718,-0.6486721038818359,37.77498204726726,4.3590144292164315,13.825029220831542,947,29,0.0,15,38580359932707,17,28.4,423.2897644042969,0.03180000185966492,0,0.0,0.0,1.57542003E9,,,,0,,1,-1.75,1.57542003E9
Raw,228852275,228855934000000,,,-1457982524498336718,-0.6486721038818359,37.77498204726726,4.3590144292164315,13.825029220831542,947,31,0.0,15,38580360444647,9,35.0,278.1805725097656,0.02160000056028366,0,0.0,0.0,1.57542003E9,,,,0,,1,-1.75,1.57542003E9
Raw,228852276,228855934000000,,,-1457982524498336718,-0.6486721038818359,37.77498204726726,4.3590144292164315,13.825029220831542,947,8,0.0,15,38566301464004,24,25.7,-241.98675537109375,0.3833000063896179,0,0.0,0.0,1.56109798E9,,,,0,,5,-1.86,1.56109798E9
Raw,228852276,228855934000000,,,-1457982524498336718,-0.6486721038818359,37.77498204726726,4.3590144292164315,13.825029220831542,947,13,0.0,15,38566301311174,40,21.7,-278.6492919921875,0.6679999828338623,0,0.0,0.0,1.56109798E9,,,,0,,5,-1.86,1.56109798E9
Raw,228852277,228855934000000,,,-1457982524498336718,-0.6486721038818359,37.77498204726726,4.3590144292164315,13.825029220831542,947,13,0.0,7183,38580349278262,21,26.0,286.8118896484375,0.13670000433921814,0,0.0,0.0,1.57542003E9,,,,0,,6,-1.66,1.57542003E9
Raw,228852277,228855934000000,,,-1457982524498336718,-0.6486721038818359,37.77498204726726,4.3590144292164315,13.825029220831542,947,21,0.0,7183,38580348882140,21,26.9,343.5935363769531,0.13520000874996185,0,0.0,0.0,1.57542003E9,,,,0,,6,-1.66,1.57542003E9
Raw,228852278,228855934000000,,,-1457982524498336718,-0.6486721038818359,37.77498204726726,4.3590144292164315,13.825029220831542,947,23,0.0,7183,38580354456173,14,30.2,-109.66983032226562,0.052800003439188004,0,0.0,0.0,1.57542003E9,,,,0,,6,-1.66,1.57542003E9
Raw,228852278,228855934000000,,,-1457982524498336718,-0.6486721038818359,37.77498204726726,4.3590144292164315,13.825029220831542,947,26,0.0,7183,38580352962598,24,25.3,-270.1998596191406,0.4058000147342682,0,0.0,0.0,1.57542003E9,,,,0,,6,-1.66,1.57542003E9
Raw,228852279,228855934000000,,,-1457982524498336718,-0.6486721038818359,37.77498204726726,4.3590144292164315,13.825029220831542,947,31,0.0,7183,38580344683409,70,17.7,-450.5868835449219,0.9404999613761902,0,0.0,0.0,1.57542003E9,,,,0,,6,-1.66,1.57542003E9
Fix,gps,45.079678,7.618557,348.528564,0.460000,9.648001,1774176164000
Raw,228853268,228856934000000,,,-1457982524498336712,-0.7478122711181641,36.207806260790676,3.8462313988060335,12.772883352753778,947,14,0.0,207,49363365924291,8,36.4,-419.8522644042969,0.22870001196861267,0,0.0,0.0,1.59806246E9,,,,0,,3,-1.99,1.59806246E9
Raw,228853269,228856934000000,,,-1457982524498336712,-0.7478122711181641,36.207806260790676,3.8462313988060335,12.772883352753778,947,22,0.0,207,49363354644272,40,21.2,759.994140625,1.0674999952316284,0,0.0,0.0,1.60031245E9,,,,0,,3,-1.99,1.60031245E9
Raw,228853269,228856934000000,,,-1457982524498336712,-0.7478122711181641,36.207806260790676,3.8462313988060335,12.772883352753778,947,12,0.0,207,49363353809309,46,20.4,776.3739013671875,1.1360000371932983,0,0.0,0.0,1.60143744E9,,,,0,,3,-1.99,1.60143744E9
Raw,228853270,228856934000000,,,-1457982524498336712,-0.7478122711181641,36.207806260790676,3.8462313988060335,12.772883352753778,947,24,0.0,207,49363365327998,46,20.8,-426.8857727050781,1.124000072479248,0,0.0,0.0,1.60312499E9,,,,0,,3,-1.99,1.60312499E9
Raw,228853270,228856934000000,,,-1457982524498336712,-0.7478122711181641,36.207806260790676,3.8462313988060335,12.772883352753778,947,23,0.0,207,49363365080906,53,19.9,478.5556335449219,1.2040001153945923,0,0.0,0.0,1.60368755E9,,,,0,,3,-1.99,1.60368755E9
Raw,228853271,228856934000000,,,-1457982524498336712,-0.7478122711181641,36.207806260790676,3.8462313988060335,12.772883352753778,947,5,0.0,15,38581353569369,12,32.0,15.712943077087402,0.04340000078082085,0,0.0,0.0,1.57542003E9,,,,0,,1,-1.41,1.57542003E9
Raw,228853271,228856934000000,,,-1457982524498336712,-0.7478122711181641,36.207806260790676,3.8462313988060335,12.772883352753778,947,16,0.0,15,38581357770833,90,16.2,-574.7820434570312,2.7820000648498535,0,0.0,0.0,1.57542003E9,,,,0,,1,-1.41,1.57542003E9
Raw,228853273,228856934000000,,,-1457982524498336712,-0.7478122711181641,36.207806260790676,3.8462313988060335,12.772883352753778,947,18,0.0,15,38581362740285,13,31.6,-254.97608947753906,0.028200000524520874,0,0.0,0.0,1.57542003E9,,,,0,,1,-1.41,1.57542003E9
Raw,228853274,228856934000000,,,-1457982524498336712,-0.7478122711181641,36.207806260790676,3.8462313988060335,12.772883352753778,947,21,0.0,15,38581349515187,102,15.4,253.64244079589844,2.870000123977661,0,0.0,0.0,1.57542003E9,,,,0,,1,-1.41,1.57542003E9
Raw,228853274,228856934000000,,,-1457982524498336712,-0.7478122711181641,36.207806260790676,3.8462313988060335,12.772883352753778,947,26,0.0,15,38581363374130,8,36.6,-244.7526397705078,0.025700001046061516,0,0.0,0.0,1.57542003E9,,,,0,,1,-1.41,1.57542003E9
Raw,228853275,228856934000000,,,-1457982524498336712,-0.7478122711181641,36.207806260790676,3.8462313988060335,12.772883352753778,947,28,0.0,15,38581357365594,150,14.1,547.531982421875,5.252000331878662,0,0.0,0.0,1.57542003E9,,,,0,,1,-1.41,1.57542003E9
Raw,228853275,228856934000000,,,-1457982524498336712,-0.7478122711181641,36.207806260790676,3.8462313988060335,12.772883352753778,947,29,0.0,15,38581359931283,14,30.5,423.21246337890625,0.024300001561641693,0,0.0,0.0,1.57542003E9,,,,0,,1,-1.41,1.57542003E9
Raw,228853276,228856934000000,,,-1457982524498336712,-0.7478122711181641,36.207806260790676,3.8462313988060335,12.772883352753778,947,31,0.0,15,38581360443729,7,37.2,278.6535949707031,0.020600000396370888,0,0.0,0.0,1.57542003E9,,,,0,,1,-1.41,1.57542003E9
Raw,228853276,228856934000000,,,-1457982524498336712,-0.7478122711181641,36.207806260790676,3.8462313988060335,12.772883352753778,947,5,0.0,783,38567298724285,464,20.8,-12.652557373046875,13.573500633239746,0,0.0,0.0,1.56109798E9,,,,0,,5,-1.33,1.56109798E9
Raw,228853277,228856934000000,,,-1457982524498336712,-0.7478122711181641,36.207806260790676,3.8462313988060335,12.772883352753778,947,8,0.0,15,38567301464844,17,28.2,-241.8975372314453,0.03480000048875809,0,0.0,0.0,1.56109798E9,,,,0,,5,-1.33,1.56109798E9
Raw,228853277,228856934000000,,,-1457982524498336712,-0.7478122711181641,36.207806260790676,3.8462313988060335,12.772883352753778,947,13,0.0,15,38567301312153,16,29.4,-277.9518737792969,0.028200000524520874,0,0.0,0.0,1.56109798E9,,,,0,,5,-1.33,1.56109798E9
Raw,228853278,228856934000000,,,-1457982524498336712,-0.7478122711181641,36.207806260790676,3.8462313988060335,12.772883352753778,947,6,0.0,7183,38581338851416,64,18.4,396.29608154296875,1.6234999895095825,0,0.0,0.0,1.57542003E9,,,,0,,6,-1.3,1.57542003E9
Raw,228853279,228856934000000,,,-1457982524498336712,-0.7478122711181641,36.207806260790676,3.8462313988060335,12.772883352753778,947,13,0.0,7183,38581349277331,16,29.9,286.7599182128906,0.05220000073313713,0,0.0,0.0,1.57542003E9,,,,0,,6,-1.3,1.57542003E9
Raw,228853279,228856934000000,,,-1457982524498336712,-0.7478122711181641,36.207806260790676,3.8462313988060335,12.772883352753778,947,21,0.0,7183,38581348880971,17,28.2,343.8060607910156,0.05730000138282776,0,0.0,0.0,1.57542003E9,,,,0,,6,-1.3,1.57542003E9
Raw,228853280,228856934000000,,,-1457982524498336712,-0.7478122711181641,36.207806260790676,3.8462313988060335,12.772883352753778,947,23,0.0,7183,38581354456545,16,29.7,-109.47216796875,0.053700003772974014,0,0.0,0.0,1.57542003E9,,,,0,,6,-1.3,1.57542003E9
Raw,228853281,228856934000000,,,-1457982524498336712,-0.7478122711181641,36.207806260790676,3.8462313988060335,12.772883352753778,947,26,0.0,7183,38581352963504,19,27.5,-269.976806640625,0.06530000269412994,0,0.0,0.0,1.57542003E9,,,,0,,6,-1.3,1.57542003E9
Raw,228853281,228856934000000,,,-1457982524498336712,-0.7478122711181641,36.207806260790676,3.8462313988060335,12.772883352753778,947,31,0.0,7183,38581344684938,46,20.7,-451.7666931152344,0.750499963760376,0,0.0,0.0,1.57542003E9,,,,0,,6,-1.3,1.57542003E9
Fix,gps,45.079686,7.618566,349.638428,0.900000,3.216000,1774176165000
Raw,228854259,228857934000000,,,-1457982524498336710,-0.5424404144287109,30.663773941341788,4.925081535269233,12.368380708833271,947,14,0.0,207,49364365925713,11,33.2,-419.932861328125,0.23040001094341278,0,0.0,0.0,1.59806246E9,,,,0,,3,-2.13,1.59806246E9
Raw,228854259,228857934000000,,,-1457982524498336710,-0.5424404144287109,30.663773941341788,4.925081535269233,12.368380708833271,947,22,0.0,207,49364354641528,31,23.0,760.4811401367188,0.9474999904632568,0,0.0,0.0,1.60031245E9,,,,0,,3,-2.13,1.60031245E9
Raw,228854260,228857934000000,,,-1457982524498336710,-0.5424404144287109,30.663773941341788,4.925081535269233,12.368380708833271,947,12,0.0,207,49364353806685,46,20.2,775.372314453125,1.1360000371932983,0,0.0,0.0,1.60143744E9,,,,0,,3,-2.13,1.60143744E9
Raw,228854260,228857934000000,,,-1457982524498336710,-0.5424404144287109,30.663773941341788,4.925081535269233,12.368380708833271,947,24,0.0,207,49364365329386,16,29.3,-426.927001953125,0.23420000076293945,0,0.0,0.0,1.60312499E9,,,,0,,3,-2.13,1.60312499E9
Raw,228854261,228857934000000,,,-1457982524498336710,-0.5424404144287109,30.663773941341788,4.925081535269233,12.368380708833271,947,23,0.0,207,49364365079448,46,20.5,478.0696105957031,1.124000072479248,0,0.0,0.0,1.60368755E9,,,,0,,3,-2.13,1.60368755E9
Raw,228854261,228857934000000,,,-1457982524498336710,-0.5424404144287109,30.663773941341788,4.925081535269233,12.368380708833271,947,5,0.0,15,38582353569308,12,32.2,15.428228378295898,0.04340000078082085,0,0.0,0.0,1.57542003E9,,,,0,,1,-1.35,1.57542003E9
Raw,228854261,228857934000000,,,-1457982524498336710,-0.5424404144287109,30.663773941341788,4.925081535269233,12.368380708833271,947,16,0.0,15,38582357772833,61,18.6,-574.192138671875,1.0220000743865967,0,0.0,0.0,1.57542003E9,,,,0,,1,-1.35,1.57542003E9
Raw,228854262,228857934000000,,,-1457982524498336710,-0.5424404144287109,30.663773941341788,4.925081535269233,12.368380708833271,947,18,0.0,15,38582362741133,14,30.1,-255.14234924316406,0.028800001367926598,0,0.0,0.0,1.57542003E9,,,,0,,1,-1.35,1.57542003E9
Raw,228854263,228857934000000,,,-1457982524498336710,-0.5424404144287109,30.663773941341788,4.925081535269233,12.368380708833271,947,25,0.0,15,38582353910140,22,26.3,656.14208984375,0.8659999966621399,0,0.0,0.0,1.57542003E9,,,,0,,1,-1.35,1.57542003E9
Raw,228854263,228857934000000,,,-1457982524498336710,-0.5424404144287109,30.663773941341788,4.925081535269233,12.368380708833271,947,26,0.0,15,38582363374944,7,37.6,-244.90927124023438,0.025100000202655792,0,0.0,0.0,1.57542003E9,,,,0,,1,-1.35,1.57542003E9
Raw,228854264,228857934000000,,,-1457982524498336710,-0.5424404144287109,30.663773941341788,4.925081535269233,12.368380708833271,947,29,0.0,15,38582359929896,12,32.6,422.845947265625,0.02240000106394291,0,0.0,0.0,1.57542003E9,,,,0,,1,-1.35,1.57542003E9
Raw,228854264,228857934000000,,,-1457982524498336710,-0.5424404144287109,30.663773941341788,4.925081535269233,12.368380708833271,947,31,0.0,15,38582360442816,14,30.0,279.04644775390625,0.025800000876188278,0,0.0,0.0,1.57542003E9,,,,0,,1,-1.35,1.57542003E9
Raw,228854265,228857934000000,,,-1457982524498336710,-0.5424404144287109,30.663773941341788,4.925081535269233,12.368380708833271,947,5,0.0,783,38568298724318,445,21.3,-12.512603759765625,14.453499794006348,0,0.0,0.0,1.56109798E9,,,,0,,5,-1.52,1.56109798E9
Raw,228854266,228857934000000,,,-1457982524498336710,-0.5424404144287109,30.663773941341788,4.925081535269233,12.368380708833271,947,8,0.0,15,38568301465633,24,25.4,-241.89073181152344,0.3833000063896179,0,0.0,0.0,1.56109798E9,,,,0,,5,-1.52,1.56109798E9
Raw,228854266,228857934000000,,,-1457982524498336710,-0.5424404144287109,30.663773941341788,4.925081535269233,12.368380708833271,947,13,0.0,15,38568301313060,46,20.7,-277.79473876953125,0.7279999852180481,0,0.0,0.0,1.56109798E9,,,,0,,5,-1.52,1.56109798E9
Raw,228854267,228857934000000,,,-1457982524498336710,-0.5424404144287109,30.663773941341788,4.925081535269233,12.368380708833271,947,6,0.0,7183,38582338850092,40,21.6,396.3341369628906,0.6934999823570251,0,0.0,0.0,1.57542003E9,,,,0,,6,-1.27,1.57542003E9
Raw,228854268,228857934000000,,,-1457982524498336710,-0.5424404144287109,30.663773941341788,4.925081535269233,12.368380708833271,947,13,0.0,7183,38582349276380,14,30.3,286.6578674316406,0.05130000039935112,0,0.0,0.0,1.57542003E9,,,,0,,6,-1.27,1.57542003E9
Raw,228854269,228857934000000,,,-1457982524498336710,-0.5424404144287109,30.663773941341788,4.925081535269233,12.368380708833271,947,21,0.0,7183,38582348879833,21,26.8,343.5990905761719,0.13520000874996185,0,0.0,0.0,1.57542003E9,,,,0,,6,-1.27,1.57542003E9
Raw,228854270,228857934000000,,,-1457982524498336710,-0.5424404144287109,30.663773941341788,4.925081535269233,12.368380708833271,947,23,0.0,7183,38582354456911,13,31.2,-109.5299301147461,0.05220000073313713,0,0.0,0.0,1.57542003E9,,,,0,,6,-1.27,1.57542003E9
Raw,228854271,228857934000000,,,-1457982524498336710,-0.5424404144287109,30.663773941341788,4.925081535269233,12.368380708833271,947,26,0.0,7183,38582352964387,31,23.9,-270.3787536621094,0.6004999876022339,0,0.0,0.0,1.57542003E9,,,,0,,6,-1.27,1.57542003E9
Fix,gps,45.079693,7.618575,349.915894,0.840000,3.216000,1774176166000
Raw,228855268,228858934000000,,,-1457982524498336712,-0.09216117858886719,33.36229929118417,5.475272093474076,12.293768449332301,947,14,0.0,207,49365365927091,8,36.5,-419.6741027832031,0.22870001196861267,0,0.0,0.0,1.59806246E9,,,,0,,3,-2.12,1.59806246E9
Raw,228855270,228858934000000,,,-1457982524498336712,-0.09216117858886719,33.36229929118417,5.475272093474076,12.293768449332301,947,22,0.0,207,49365354638900,27,24.4,760.9026489257812,0.887499988079071,0,0.0,0.0,1.60031245E9,,,,0,,3,-2.12,1.60031245E9
Raw,228855270,228858934000000,,,-1457982524498336712,-0.09216117858886719,33.36229929118417,5.475272093474076,12.293768449332301,947,12,0.0,207,49365353804342,46,20.7,775.5408935546875,1.1360000371932983,0,0.0,0.0,1.60143744E9,,,,0,,3,-2.12,1.60143744E9
Raw,228855271,228858934000000,,,-1457982524498336712,-0.09216117858886719,33.36229929118417,5.475272093474076,12.293768449332301,947,24,0.0,207,49365365330825,7,37.0,-426.6324157714844,0.2281000018119812,0,0.0,0.0,1.60312499E9,,,,0,,3,-2.12,1.60312499E9
Raw,228855272,228858934000000,,,-1457982524498336712,-0.09216117858886719,33.36229929118417,5.475272093474076,12.293768449332301,947,23,0.0,207,49365365077845,40,21.2,478.6771545410156,1.0540000200271606,0,0.0,0.0,1.60368755E9,,,,0,,3,-2.12,1.60368755E9
Raw,228855273,228858934000000,,,-1457982524498336712,-0.09216117858886719,33.36229929118417,5.475272093474076,12.293768449332301,947,5,0.0,15,38583353569242,17,28.2,15.870280265808105,0.052799999713897705,0,0.0,0.0,1.57542003E9,,,,0,,1,-1.24,1.57542003E9
Raw,228855273,228858934000000,,,-1457982524498336712,-0.09216117858886719,33.36229929118417,5.475272093474076,12.293768449332301,947,18,0.0,15,38583362741981,21,26.6,-254.87149047851562,0.11420000344514847,0,0.0,0.0,1.57542003E9,,,,0,,1,-1.24,1.57542003E9
Raw,228855274,228858934000000,,,-1457982524498336712,-0.09216117858886719,33.36229929118417,5.475272093474076,12.293768449332301,947,26,0.0,15,38583363375774,10,34.6,-244.6211395263672,0.026600001379847527,0,0.0,0.0,1.57542003E9,,,,0,,1,-1.24,1.57542003E9
Raw,228855275,228858934000000,,,-1457982524498336712,-0.09216117858886719,33.36229929118417,5.475272093474076,12.293768449332301,947,27,0.0,15,38583350050669,562,20.2,-638.9395751953125,1.2014999389648438,0,0.0,0.0,1.57542003E9,,,,0,,1,-1.24,1.57542003E9
Raw,228855276,228858934000000,,,-1457982524498336712,-0.09216117858886719,33.36229929118417,5.475272093474076,12.293768449332301,947,28,0.0,15,38583357362032,73,17.3,547.589111328125,1.9420000314712524,0,0.0,0.0,1.57542003E9,,,,0,,1,-1.24,1.57542003E9
Raw,228855277,228858934000000,,,-1457982524498336712,-0.09216117858886719,33.36229929118417,5.475272093474076,12.293768449332301,947,29,0.0,15,38583359928470,9,35.0,423.0608825683594,0.020100001245737076,0,0.0,0.0,1.57542003E9,,,,0,,1,-1.24,1.57542003E9
Raw,228855277,228858934000000,,,-1457982524498336712,-0.09216117858886719,33.36229929118417,5.475272093474076,12.293768449332301,947,31,0.0,15,38583360441854,16,29.0,278.9610290527344,0.45649999380111694,0,0.0,0.0,1.57542003E9,,,,0,,1,-1.24,1.57542003E9
Raw,228855278,228858934000000,,,-1457982524498336712,-0.09216117858886719,33.36229929118417,5.475272093474076,12.293768449332301,947,5,0.0,783,38569298724371,478,21.1,-12.7142333984375,15.283500671386719,0,0.0,0.0,1.56109798E9,,,,0,,5,-1.33,1.56109798E9
Raw,228855279,228858934000000,,,-1457982524498336712,-0.09216117858886719,33.36229929118417,5.475272093474076,12.293768449332301,947,8,0.0,15,38569301466445,31,23.2,-241.89292907714844,0.578000009059906,0,0.0,0.0,1.56109798E9,,,,0,,5,-1.33,1.56109798E9
Raw,228855279,228858934000000,,,-1457982524498336712,-0.09216117858886719,33.36229929118417,5.475272093474076,12.293768449332301,947,13,0.0,15,38569301313992,31,23.2,-278.6012878417969,0.578000009059906,0,0.0,0.0,1.56109798E9,,,,0,,5,-1.33,1.56109798E9
Raw,228855280,228858934000000,,,-1457982524498336712,-0.09216117858886719,33.36229929118417,5.475272093474076,12.293768449332301,947,6,0.0,7183,38583338848725,24,25.7,396.1905517578125,0.40880000591278076,0,0.0,0.0,1.57542003E9,,,,0,,6,-1.16,1.57542003E9
Raw,228855280,228858934000000,,,-1457982524498336712,-0.09216117858886719,33.36229929118417,5.475272093474076,12.293768449332301,947,13,0.0,7183,38583349275410,17,28.7,286.8436279296875,0.058800000697374344,0,0.0,0.0,1.57542003E9,,,,0,,6,-1.16,1.57542003E9
Raw,228855281,228858934000000,,,-1457982524498336712,-0.09216117858886719,33.36229929118417,5.475272093474076,12.293768449332301,947,21,0.0,7183,38583348878653,46,20.0,344.1365966796875,0.750499963760376,0,0.0,0.0,1.57542003E9,,,,0,,6,-1.16,1.57542003E9
Raw,228855281,228858934000000,,,-1457982524498336712,-0.09216117858886719,33.36229929118417,5.475272093474076,12.293768449332301,947,23,0.0,7183,38583354457277,13,31.7,-109.34866333007812,0.05220000073313713,0,0.0,0.0,1.57542003E9,,,,0,,6,-1.16,1.57542003E9
Raw,228855282,228858934000000,,,-1457982524498336712,-0.09216117858886719,33.36229929118417,5.475272093474076,12.293768449332301,947,26,0.0,7183,38583352965288,14,30.9,-269.7790832519531,0.049800001084804535,0,0.0,0.0,1.57542003E9,,,,0,,6,-1.16,1.57542003E9
Raw,228855282,228858934000000,,,-1457982524498336712,-0.09216117858886719,33.36229929118417,5.475272093474076,12.293768449332301,947,31,0.0,7183,38583344687908,84,16.4,-449.9588928222656,1.7705000638961792,0,0.0,0.0,1.57542003E9,,,,0,,6,-1.16,1.57542003E9
Fix,gps,45.079700,7.618583,349.592285,0.650000,3.216000,1774176167000
Raw,228856250,228859934000000,,,-1457982524498336710,-0.2444171905517578,35.1158669218421,4.935889771476695,14.106088693115808,947,14,0.0,207,49366365928523,9,35.0,-420.0268859863281,0.22910000383853912,0,0.0,0.0,1.59806246E9,,,,0,,3,-2.13,1.59806246E9
Raw,228856251,228859934000000,,,-1457982524498336710,-0.2444171905517578,35.1158669218421,4.935889771476695,14.106088693115808,947,22,0.0,207,49366354636038,53,19.9,759.1885986328125,1.21750009059906,0,0.0,0.0,1.60031245E9,,,,0,,3,-2.13,1.60031245E9
Raw,228856251,228859934000000,,,-1457982524498336710,-0.2444171905517578,35.1158669218421,4.935889771476695,14.106088693115808,947,12,0.0,207,49366353801691,81,16.1,774.7359008789062,1.4760000705718994,0,0.0,0.0,1.60143744E9,,,,0,,3,-2.13,1.60143744E9
Raw,228856252,228859934000000,,,-1457982524498336710,-0.2444171905517578,35.1158669218421,4.935889771476695,14.106088693115808,947,24,0.0,207,49366365332241,10,34.5,-427.0864562988281,0.22960001230239868,0,0.0,0.0,1.60312499E9,,,,0,,3,-2.13,1.60312499E9
Raw,228856252,228859934000000,,,-1457982524498336710,-0.2444171905517578,35.1158669218421,4.935889771476695,14.106088693115808,947,23,0.0,207,49366365076171,24,25.5,477.7103271484375,0.5892999768257141,0,0.0,0.0,1.60368755E9,,,,0,,3,-2.13,1.60368755E9
Raw,228856253,228859934000000,,,-1457982524498336710,-0.2444171905517578,35.1158669218421,4.935889771476695,14.106088693115808,947,5,0.0,15,38584353569214,27,24.7,15.20446491241455,0.6360000371932983,0,0.0,0.0,1.57542003E9,,,,0,,1,-1.41,1.57542003E9
Raw,228856253,228859934000000,,,-1457982524498336710,-0.2444171905517578,35.1158669218421,4.935889771476695,14.106088693115808,947,18,0.0,15,38584362742857,19,27.3,-255.28866577148438,0.04430000111460686,0,0.0,0.0,1.57542003E9,,,,0,,1,-1.41,1.57542003E9
Raw,228856254,228859934000000,,,-1457982524498336710,-0.2444171905517578,35.1158669218421,4.935889771476695,14.106088693115808,947,21,0.0,15,38584349512416,102,15.3,253.89932250976562,2.870000123977661,0,0.0,0.0,1.57542003E9,,,,0,,1,-1.41,1.57542003E9
Raw,228856255,228859934000000,,,-1457982524498336710,-0.2444171905517578,35.1158669218421,4.935889771476695,14.106088693115808,947,25,0.0,15,38584353905693,31,23.7,654.8385620117188,0.6559999585151672,0,0.0,0.0,1.57542003E9,,,,0,,1,-1.41,1.57542003E9
Raw,228856256,228859934000000,,,-1457982524498336710,-0.2444171905517578,35.1158669218421,4.935889771476695,14.106088693115808,947,26,0.0,15,38584363376588,9,35.1,-245.01898193359375,0.026100000366568565,0,0.0,0.0,1.57542003E9,,,,0,,1,-1.41,1.57542003E9
Raw,228856256,228859934000000,,,-1457982524498336710,-0.2444171905517578,35.1158669218421,4.935889771476695,14.106088693115808,947,27,0.0,15,38584350052717,35,23.8,-639.40576171875,1.7015000581741333,0,0.0,0.0,1.57542003E9,,,,0,,1,-1.41,1.57542003E9
Raw,228856257,228859934000000,,,-1457982524498336710,-0.2444171905517578,35.1158669218421,4.935889771476695,14.106088693115808,947,28,0.0,15,38584357360214,53,19.5,547.5795288085938,0.9419999718666077,0,0.0,0.0,1.57542003E9,,,,0,,1,-1.41,1.57542003E9
Raw,228856257,228859934000000,,,-1457982524498336710,-0.2444171905517578,35.1158669218421,4.935889771476695,14.106088693115808,947,29,0.0,15,38584359927057,12,32.4,422.5335388183594,0.02240000106394291,0,0.0,0.0,1.57542003E9,,,,0,,1,-1.41,1.57542003E9
Raw,228856258,228859934000000,,,-1457982524498336710,-0.2444171905517578,35.1158669218421,4.935889771476695,14.106088693115808,947,31,0.0,15,38584360440926,9,35.9,278.4418029785156,0.02160000056028366,0,0.0,0.0,1.57542003E9,,,,0,,1,-1.41,1.57542003E9
Raw,228856258,228859934000000,,,-1457982524498336710,-0.2444171905517578,35.1158669218421,4.935889771476695,14.106088693115808,947,5,0.0,783,38570298724429,561,20.7,-13.69366455078125,16.03350067138672,0,0.0,0.0,1.56109798E9,,,,0,,5,-1.76,1.56109798E9
Raw,228856259,228859934000000,,,-1457982524498336710,-0.2444171905517578,35.1158669218421,4.935889771476695,14.106088693115808,947,8,0.0,15,38570301467319,31,23.3,-242.8723602294922,0.578000009059906,0,0.0,0.0,1.56109798E9,,,,0,,5,-1.76,1.56109798E9
Raw,228856259,228859934000000,,,-1457982524498336710,-0.2444171905517578,35.1158669218421,4.935889771476695,14.106088693115808,947,13,0.0,15,38570301314890,27,24.9,-278.8029479980469,0.527999997138977,0,0.0,0.0,1.56109798E9,,,,0,,5,-1.76,1.56109798E9
Raw,228856260,228859934000000,,,-1457982524498336710,-0.2444171905517578,35.1158669218421,4.935889771476695,14.106088693115808,947,4,0.0,7183,38584337639448,199,13.6,492.213623046875,6.5320000648498535,0,0.0,0.0,1.57542003E9,,,,0,,6,-1.3,1.57542003E9
Raw,228856260,228859934000000,,,-1457982524498336710,-0.2444171905517578,35.1158669218421,4.935889771476695,14.106088693115808,947,6,0.0,7183,38584338847443,27,24.3,396.2009582519531,0.5534999966621399,0,0.0,0.0,1.57542003E9,,,,0,,6,-1.3,1.57542003E9
Raw,228856261,228859934000000,,,-1457982524498336710,-0.2444171905517578,35.1158669218421,4.935889771476695,14.106088693115808,947,13,0.0,7183,38584349274457,12,32.0,286.4908447265625,0.049400001764297485,0,0.0,0.0,1.57542003E9,,,,0,,6,-1.3,1.57542003E9
Raw,228856261,228859934000000,,,-1457982524498336710,-0.2444171905517578,35.1158669218421,4.935889771476695,14.106088693115808,947,21,0.0,7183,38584348877541,35,22.5,343.289794921875,0.640500009059906,0,0.0,0.0,1.57542003E9,,,,0,,6,-1.3,1.57542003E9
Raw,228856262,228859934000000,,,-1457982524498336710,-0.2444171905517578,35.1158669218421,4.935889771476695,14.106088693115808,947,23,0.0,7183,38584354457649,12,32.3,-109.72412872314453,0.05090000107884407,0,0.0,0.0,1.57542003E9,,,,0,,6,-1.3,1.57542003E9
Raw,228856262,228859934000000,,,-1457982524498336710,-0.2444171905517578,35.1158669218421,4.935889771476695,14.106088693115808,947,26,0.0,7183,38584352966211,14,30.2,-270.25994873046875,0.049800001084804535,0,0.0,0.0,1.57542003E9,,,,0,,6,-1.3,1.57542003E9
Fix,gps,45.079705,7.618592,349.573364,0.670000,3.216000,1774176168000
Raw,228857272,228860934000000,,,-1457982524498336715,-0.10219573974609375,31.040533940540627,0.6956552476776946,10.470569587169642,947,14,0.0,207,49367365929904,10,34.3,-420.73974609375,0.22960001230239868,0,0.0,0.0,1.59806246E9,,,,0,,3,-2.25,1.59806246E9
Raw,228857272,228860934000000,,,-1457982524498336715,-0.10219573974609375,31.040533940540627,0.6956552476776946,10.470569587169642,947,22,0.0,207,49367354633786,70,17.1,759.1979370117188,1.3875000476837158,0,0.0,0.0,1.60031245E9,,,,0,,3,-2.25,1.60031245E9
Raw,228857274,228860934000000,,,-1457982524498336715,-0.10219573974609375,31.040533940540627,0.6956552476776946,10.470569587169642,947,12,0.0,207,49367353799100,53,19.9,774.5206298828125,1.2160000801086426,0,0.0,0.0,1.60143744E9,,,,0,,3,-2.25,1.60143744E9
Raw,228857274,228860934000000,,,-1457982524498336715,-0.10219573974609375,31.040533940540627,0.6956552476776946,10.470569587169642,947,24,0.0,207,49367365333672,12,32.5,-427.7606506347656,0.2314000129699707,0,0.0,0.0,1.60312499E9,,,,0,,3,-2.25,1.60312499E9
Raw,228857275,228860934000000,,,-1457982524498336715,-0.10219573974609375,31.040533940540627,0.6956552476776946,10.470569587169642,947,23,0.0,207,49367365074625,24,25.0,477.1695556640625,0.5892999768257141,0,0.0,0.0,1.60368755E9,,,,0,,3,-2.25,1.60368755E9
Raw,228857276,228860934000000,,,-1457982524498336715,-0.10219573974609375,31.040533940540627,0.6956552476776946,10.470569587169642,947,5,0.0,15,38585353569178,19,27.1,14.575176239013672,0.06080000102519989,0,0.0,0.0,1.57542003E9,,,,0,,1,-1.58,1.57542003E9
Raw,228857277,228860934000000,,,-1457982524498336715,-0.10219573974609375,31.040533940540627,0.6956552476776946,10.470569587169642,947,16,0.0,15,38585357778485,70,18.0,-575.819091796875,2.6019999980926514,0,0.0,0.0,1.57542003E9,,,,0,,1,-1.58,1.57542003E9
Raw,228857277,228860934000000,,,-1457982524498336715,-0.10219573974609375,31.040533940540627,0.6956552476776946,10.470569587169642,947,18,0.0,15,38585362743688,24,25.7,-255.90399169921875,0.384799987077713,0,0.0,0.0,1.57542003E9,,,,0,,1,-1.58,1.57542003E9
Raw,228857278,228860934000000,,,-1457982524498336715,-0.10219573974609375,31.040533940540627,0.6956552476776946,10.470569587169642,947,25,0.0,15,38585353903539,21,26.9,654.6986083984375,0.1307000070810318,0,0.0,0.0,1.57542003E9,,,,0,,1,-1.58,1.57542003E9
Raw,228857278,228860934000000,,,-1457982524498336715,-0.10219573974609375,31.040533940540627,0.6956552476776946,10.470569587169642,947,26,0.0,15,38585363377407,11,33.3,-245.67010498046875,0.027400000020861626,0,0.0,0.0,1.57542003E9,,,,0,,1,-1.58,1.57542003E9
Raw,228857279,228860934000000,,,-1457982524498336715,-0.10219573974609375,31.040533940540627,0.6956552476776946,10.470569587169642,947,29,0.0,15,38585359925657,9,35.5,421.8289489746094,0.020100001245737076,0,0.0,0.0,1.57542003E9,,,,0,,1,-1.58,1.57542003E9
Raw,228857279,228860934000000,,,-1457982524498336715,-0.10219573974609375,31.040533940540627,0.6956552476776946,10.470569587169642,947,31,0.0,15,38585360440012,5,40.5,277.7813415527344,0.01940000057220459,0,0.0,0.0,1.57542003E9,,,,0,,1,-1.58,1.57542003E9
Raw,228857280,228860934000000,,,-1457982524498336715,-0.10219573974609375,31.040533940540627,0.6956552476776946,10.470569587169642,947,5,0.0,783,38571298724485,598,20.6,-14.3905029296875,16.733501434326172,0,0.0,0.0,1.56109798E9,,,,0,,5,-1.58,1.56109798E9
Raw,228857281,228860934000000,,,-1457982524498336715,-0.10219573974609375,31.040533940540627,0.6956552476776946,10.470569587169642,947,8,0.0,15,38571301468131,27,24.1,-243.0931854248047,0.527999997138977,0,0.0,0.0,1.56109798E9,,,,0,,5,-1.58,1.56109798E9
Raw,228857282,228860934000000,,,-1457982524498336715,-0.10219573974609375,31.040533940540627,0.6956552476776946,10.470569587169642,947,13,0.0,15,38571301315850,27,24.1,-279.6094970703125,0.527999997138977,0,0.0,0.0,1.56109798E9,,,,0,,5,-1.58,1.56109798E9
Raw,228857282,228860934000000,,,-1457982524498336715,-0.10219573974609375,31.040533940540627,0.6956552476776946,10.470569587169642,947,6,0.0,7183,38585338846123,21,26.6,394.8432312011719,0.13819999992847443,0,0.0,0.0,1.57542003E9,,,,0,,6,-1.45,1.57542003E9
Raw,228857283,228860934000000,,,-1457982524498336715,-0.10219573974609375,31.040533940540627,0.6956552476776946,10.470569587169642,947,13,0.0,7183,38585349273495,19,27.3,285.77935791015625,0.06680000573396683,0,0.0,0.0,1.57542003E9,,,,0,,6,-1.45,1.57542003E9
Raw,228857285,228860934000000,,,-1457982524498336715,-0.10219573974609375,31.040533940540627,0.6956552476776946,10.470569587169642,947,21,0.0,7183,38585348876415,19,27.3,342.40203857421875,0.06530000269412994,0,0.0,0.0,1.57542003E9,,,,0,,6,-1.45,1.57542003E9
Raw,228857286,228860934000000,,,-1457982524498336715,-0.10219573974609375,31.040533940540627,0.6956552476776946,10.470569587169642,947,23,0.0,7183,38585354458002,12,32.2,-110.55022430419922,0.05090000107884407,0,0.0,0.0,1.57542003E9,,,,0,,6,-1.45,1.57542003E9
Raw,228857287,228860934000000,,,-1457982524498336715,-0.10219573974609375,31.040533940540627,0.6956552476776946,10.470569587169642,947,26,0.0,7183,38585352967117,24,25.9,-271.228515625,0.4058000147342682,0,0.0,0.0,1.57542003E9,,,,0,,6,-1.45,1.57542003E9
Fix,gps,45.079709,7.618602,349.579956,0.700000,3.216000,1774176169000
Raw,228858259,228861934000000,,,-1457982524498336718,-0.20163726806640625,30.521878215949982,-1.410613402400605,10.858656086592564,947,14,0.0,207,49368365931286,19,27.5,-419.4676208496094,0.24880000948905945,0,0.0,0.0,1.59806246E9,,,,0,,3,-2.07,1.59806246E9
Raw,228858259,228861934000000,,,-1457982524498336718,-0.20163726806640625,30.521878215949982,-1.410613402400605,10.858656086592564,947,22,0.0,207,49368354631290,35,22.5,760.2189331054688,1.0074999332427979,0,0.0,0.0,1.60031245E9,,,,0,,3,-2.07,1.60031245E9
Raw,228858260,228861934000000,,,-1457982524498336718,-0.20163726806640625,30.521878215949982,-1.410613402400605,10.858656086592564,947,12,0.0,207,49368353796755,61,18.9,775.1383666992188,1.2960000038146973,0,0.0,0.0,1.60143744E9,,,,0,,3,-2.07,1.60143744E9
Raw,228858260,228861934000000,,,-1457982524498336718,-0.20163726806640625,30.521878215949982,-1.410613402400605,10.858656086592564,947,24,0.0,207,49368365335073,10,34.2,-426.9748840332031,0.22960001230239868,0,0.0,0.0,1.60312499E9,,,,0,,3,-2.07,1.60312499E9
Raw,228858261,228861934000000,,,-1457982524498336718,-0.20163726806640625,30.521878215949982,-1.410613402400605,10.858656086592564,947,23,0.0,207,49368365072996,19,27.6,477.8490905761719,0.24880000948905945,0,0.0,0.0,1.60368755E9,,,,0,,3,-2.07,1.60368755E9
Raw,228858261,228861934000000,,,-1457982524498336718,-0.20163726806640625,30.521878215949982,-1.410613402400605,10.858656086592564,947,5,0.0,15,38586353569128,19,27.6,15.351227760314941,0.06080000102519989,0,0.0,0.0,1.57542003E9,,,,0,,1,-1.18,1.57542003E9
Raw,228858262,228861934000000,,,-1457982524498336718,-0.20163726806640625,30.521878215949982,-1.410613402400605,10.858656086592564,947,18,0.0,15,38586362744525,19,27.6,-255.13230895996094,0.04430000111460686,0,0.0,0.0,1.57542003E9,,,,0,,1,-1.18,1.57542003E9
Raw,228858262,228861934000000,,,-1457982524498336718,-0.20163726806640625,30.521878215949982,-1.410613402400605,10.858656086592564,947,25,0.0,15,38586353901367,17,28.4,655.445556640625,0.052799999713897705,0,0.0,0.0,1.57542003E9,,,,0,,1,-1.18,1.57542003E9
Raw,228858263,228861934000000,,,-1457982524498336718,-0.20163726806640625,30.521878215949982,-1.410613402400605,10.858656086592564,947,26,0.0,15,38586363378226,12,32.4,-244.77684020996094,0.0284000001847744,0,0.0,0.0,1.57542003E9,,,,0,,1,-1.18,1.57542003E9
Raw,228858263,228861934000000,,,-1457982524498336718,-0.20163726806640625,30.521878215949982,-1.410613402400605,10.858656086592564,947,29,0.0,15,38586359924239,19,27.6,422.57403564453125,0.0398000031709671,0,0.0,0.0,1.57542003E9,,,,0,,1,-1.18,1.57542003E9
Raw,228858264,228861934000000,,,-1457982524498336718,-0.20163726806640625,30.521878215949982,-1.410613402400605,10.858656086592564,947,31,0.0,15,38586360439085,8,36.9,278.6977844238281,0.02120000123977661,0,0.0,0.0,1.57542003E9,,,,0,,1,-1.18,1.57542003E9
Raw,228858264,228861934000000,,,-1457982524498336718,-0.20163726806640625,30.521878215949982,-1.410613402400605,10.858656086592564,947,5,0.0,783,38572298724512,637,20.3,-12.790374755859375,17.453500747680664,0,0.0,0.0,1.56109798E9,,,,0,,5,-1.17,1.56109798E9
Raw,228858265,228861934000000,,,-1457982524498336718,-0.20163726806640625,30.521878215949982,-1.410613402400605,10.858656086592564,947,8,0.0,15,38572301468893,24,25.3,-241.87863159179688,0.3833000063896179,0,0.0,0.0,1.56109798E9,,,,0,,5,-1.17,1.56109798E9
Raw,228858265,228861934000000,,,-1457982524498336718,-0.20163726806640625,30.521878215949982,-1.410613402400605,10.858656086592564,947,13,0.0,15,38572301316769,35,22.7,-278.5917053222656,0.6180000305175781,0,0.0,0.0,1.56109798E9,,,,0,,5,-1.17,1.56109798E9
Raw,228858266,228861934000000,,,-1457982524498336718,-0.20163726806640625,30.521878215949982,-1.410613402400605,10.858656086592564,947,4,0.0,7183,38586337636209,84,16.7,491.78546142578125,1.7720000743865967,0,0.0,0.0,1.57542003E9,,,,0,,6,-1.08,1.57542003E9
Raw,228858266,228861934000000,,,-1457982524498336718,-0.20163726806640625,30.521878215949982,-1.410613402400605,10.858656086592564,947,6,0.0,7183,38586338844793,35,22.5,395.8108215332031,0.643500030040741,0,0.0,0.0,1.57542003E9,,,,0,,6,-1.08,1.57542003E9
Raw,228858267,228861934000000,,,-1457982524498336718,-0.20163726806640625,30.521878215949982,-1.410613402400605,10.858656086592564,947,13,0.0,7183,38586349272537,14,30.9,286.5072937011719,0.05130000039935112,0,0.0,0.0,1.57542003E9,,,,0,,6,-1.08,1.57542003E9
Raw,228858267,228861934000000,,,-1457982524498336718,-0.20163726806640625,30.521878215949982,-1.410613402400605,10.858656086592564,947,21,0.0,7183,38586348875271,35,22.2,343.7940673828125,0.640500009059906,0,0.0,0.0,1.57542003E9,,,,0,,6,-1.08,1.57542003E9
Raw,228858268,228861934000000,,,-1457982524498336718,-0.20163726806640625,30.521878215949982,-1.410613402400605,10.858656086592564,947,23,0.0,7183,38586354458378,12,32.6,-109.70421600341797,0.05090000107884407,0,0.0,0.0,1.57542003E9,,,,0,,6,-1.08,1.57542003E9
Raw,228858268,228861934000000,,,-1457982524498336718,-0.20163726806640625,30.521878215949982,-1.410613402400605,10.858656086592564,947,26,0.0,7183,38586352968033,53,19.8,-270.4929504394531,0.8104999661445618,0,0.0,0.0,1.57542003E9,,,,0,,6,-1.08,1.57542003E9
Raw,228858269,228861934000000,,,-1457982524498336718,-0.20163726806640625,30.521878215949982,-1.410613402400605,10.858656086592564,947,31,0.0,7183,38586344692516,101,15.8,-451.7191162109375,2.6005001068115234,0,0.0,0.0,1.57542003E9,,,,0,,6,-1.08,1.57542003E9
Fix,gps,45.079712,7.618610,349.501831,0.500000,3.216000,1774176170000
Raw,228859263,228862934000000,,,-1457982524498336712,-0.1219635009765625,29.132883355487138,1.0441009273879305,10.677637117398348,947,14,0.0,207,49369365932706,8,36.4,-419.5427551269531,0.22870001196861267,0,0.0,0.0,1.59806246E9,,,,0,,3,-2.16,1.59806246E9
Raw,228859264,228862934000000,,,-1457982524498336712,-0.1219635009765625,29.132883355487138,1.0441009273879305,10.677637117398348,947,22,0.0,207,49369354628499,70,17.2,758.027099609375,1.3875000476837158,0,0.0,0.0,1.60031245E9,,,,0,,3,-2.16,1.60031245E9
Raw,228859264,228862934000000,,,-1457982524498336712,-0.1219635009765625,29.132883355487138,1.0441009273879305,10.677637117398348,947,12,0.0,207,49369353794047,53,19.2,776.4581909179688,1.2160000801086426,0,0.0,0.0,1.60143744E9,,,,0,,3,-2.16,1.60143744E9
Raw,228859266,228862934000000,,,-1457982524498336712,-0.1219635009765625,29.132883355487138,1.0441009273879305,10.677637117398348,947,24,0.0,207,49369365336510,19,27.3,-426.86480712890625,0.24880000948905945,0,0.0,0.0,1.60312499E9,,,,0,,3,-2.16,1.60312499E9
Raw,228859267,228862934000000,,,-1457982524498336712,-0.1219635009765625,29.132883355487138,1.0441009273879305,10.677637117398348,947,23,0.0,207,49369365071414,21,26.5,478.28826904296875,0.31869998574256897,0,0.0,0.0,1.60368755E9,,,,0,,3,-2.16,1.60368755E9
Raw,228859267,228862934000000,,,-1457982524498336712,-0.1219635009765625,29.132883355487138,1.0441009273879305,10.677637117398348,947,5,0.0,15,38587353569076,24,25.3,16.21075439453125,0.40130001306533813,0,0.0,0.0,1.57542003E9,,,,0,,1,-1.18,1.57542003E9
Raw,228859268,228862934000000,,,-1457982524498336712,-0.1219635009765625,29.132883355487138,1.0441009273879305,10.677637117398348,947,16,0.0,15,38587357782416,64,18.4,-575.3339233398438,1.8519999980926514,0,0.0,0.0,1.57542003E9,,,,0,,1,-1.18,1.57542003E9
Raw,228859269,228862934000000,,,-1457982524498336712,-0.1219635009765625,29.132883355487138,1.0441009273879305,10.677637117398348,947,18,0.0,15,38587362745364,21,26.6,-255.08587646484375,0.11420000344514847,0,0.0,0.0,1.57542003E9,,,,0,,1,-1.18,1.57542003E9
Raw,228859269,228862934000000,,,-1457982524498336712,-0.1219635009765625,29.132883355487138,1.0441009273879305,10.677637117398348,947,25,0.0,15,38587353899154,21,26.6,655.3734130859375,0.1307000070810318,0,0.0,0.0,1.57542003E9,,,,0,,1,-1.18,1.57542003E9
Raw,228859270,228862934000000,,,-1457982524498336712,-0.1219635009765625,29.132883355487138,1.0441009273879305,10.677637117398348,947,26,0.0,15,38587363379050,10,34.0,-244.5872802734375,0.026600001379847527,0,0.0,0.0,1.57542003E9,,,,0,,1,-1.18,1.57542003E9
Raw,228859270,228862934000000,,,-1457982524498336712,-0.1219635009765625,29.132883355487138,1.0441009273879305,10.677637117398348,947,28,0.0,15,38587357354780,79,17.6,547.7698364257812,2.6019999980926514,0,0.0,0.0,1.57542003E9,,,,0,,1,-1.18,1.57542003E9
Raw,228859271,228862934000000,,,-1457982524498336712,-0.1219635009765625,29.132883355487138,1.0441009273879305,10.677637117398348,947,29,0.0,15,38587359922832,10,34.9,422.92950439453125,0.020600000396370888,0,0.0,0.0,1.57542003E9,,,,0,,1,-1.18,1.57542003E9
Raw,228859271,228862934000000,,,-1457982524498336712,-0.1219635009765625,29.132883355487138,1.0441009273879305,10.677637117398348,947,31,0.0,15,38587360438161,11,33.2,278.763427734375,0.02290000021457672,0,0.0,0.0,1.57542003E9,,,,0,,1,-1.18,1.57542003E9
Raw,228859272,228862934000000,,,-1457982524498336712,-0.1219635009765625,29.132883355487138,1.0441009273879305,10.677637117398348,947,5,0.0,783,38573298724563,677,20.9,-12.97406005859375,18.12350082397461,0,0.0,0.0,1.56109798E9,,,,0,,5,-1.05,1.56109798E9
Raw,228859272,228862934000000,,,-1457982524498336712,-0.1219635009765625,29.132883355487138,1.0441009273879305,10.677637117398348,947,8,0.0,15,38573301469721,17,28.3,-242.17312622070312,0.03480000048875809,0,0.0,0.0,1.56109798E9,,,,0,,5,-1.05,1.56109798E9
Raw,228859273,228862934000000,,,-1457982524498336712,-0.1219635009765625,29.132883355487138,1.0441009273879305,10.677637117398348,947,13,0.0,15,38573301317694,19,27.7,-278.4140625,0.04280000180006027,0,0.0,0.0,1.56109798E9,,,,0,,5,-1.05,1.56109798E9
Raw,228859273,228862934000000,,,-1457982524498336712,-0.1219635009765625,29.132883355487138,1.0441009273879305,10.677637117398348,947,6,0.0,7183,38587338843478,19,27.5,395.8449401855469,0.06830000132322311,0,0.0,0.0,1.57542003E9,,,,0,,6,-1.08,1.57542003E9
