# 
# Header Description:
# 
# Version: v2.0.0.1 Platform: 10 Manufacturer: Xiaomi Model: Redmi Note 7
# 
# Raw,ElapsedRealtimeMillis,TimeNanos,LeapSecond,TimeUncertaintyNanos,FullBiasNanos,BiasNanos,BiasUncertaintyNanos,DriftNanosPerSecond,DriftUncertaintyNanosPerSecond,HardwareClockDiscontinuityCount,Svid,TimeOffsetNanos,State,ReceivedSvTimeNanos,ReceivedSvTimeUncertaintyNanos,Cn0DbHz,PseudorangeRateMetersPerSecond,PseudorangeRateUncertaintyMetersPerSecond,AccumulatedDeltaRangeState,AccumulatedDeltaRangeMeters,AccumulatedDeltaRangeUncertaintyMeters,CarrierFrequencyHz,CarrierCycles,CarrierPhase,CarrierPhaseUncertainty,MultipathIndicator,SnrInDb,ConstellationType,AgcDb,CarrierFrequencyHz
# 
# Fix,Provider,Latitude,Longitude,Altitude,Speed,Accuracy,(UTC)TimeInMs
# 
# Nav,Svid,Type,Status,MessageId,Sub-messageId,Data(Bytes)
# 
Fix,gps,45.101785,7.634024,313.573303,0.000000,3.216000,1774177986000
Raw,230675271,230678934000000,,,-1457982524498333525,-0.65765380859375,22.204354536370374,-0.49958627380857246,10.34849509030718,948,14,0.0,207,51185367786594,6,39.4,-181.61190795898438,0.23009999096393585,0,0.0,0.0,1.59806246E9,,,,0,,3,-0.81,1.59806246E9
Raw,230675272,230678934000000,,,-1457982524498333525,-0.65765380859375,22.204354536370374,-0.49958627380857246,10.34849509030718,948,24,0.0,207,51185367259617,14,30.1,-207.7909393310547,0.23629999160766602,0,0.0,0.0,1.60312499E9,,,,0,,3,-0.81,1.60312499E9
Raw,230675273,230678934000000,,,-1457982524498333525,-0.65765380859375,22.204354536370374,-0.49958627380857246,10.34849509030718,948,23,0.0,207,51185361721813,21,26.6,616.2194213867188,0.3127000033855438,0,0.0,0.0,1.60368755E9,,,,0,,3,-0.81,1.60368755E9
Raw,230675273,230678934000000,,,-1457982524498333525,-0.65765380859375,22.204354536370374,-0.49958627380857246,10.34849509030718,948,16,0.0,15,40403360980497,9,35.0,-472.8005676269531,0.02160000056028366,0,0.0,0.0,1.57542003E9,,,,0,,1,-0.4,1.57542003E9
Raw,230675274,230678934000000,,,-1457982524498333525,-0.65765380859375,22.204354536370374,-0.49958627380857246,10.34849509030718,948,18,0.0,15,40403363662534,11,33.3,-47.82433319091797,0.027400000020861626,0,0.0,0.0,1.57542003E9,,,,0,,1,-0.4,1.57542003E9
Raw,230675274,230678934000000,,,-1457982524498333525,-0.65765380859375,22.204354536370374,-0.49958627380857246,10.34849509030718,948,26,0.0,15,40403364312769,10,34.5,-59.4104118347168,0.02810000069439411,0,0.0,0.0,1.57542003E9,,,,0,,1,-0.4,1.57542003E9
Raw,230675275,230678934000000,,,-1457982524498333525,-0.65765380859375,22.204354536370374,-0.49958627380857246,10.34849509030718,948,27,0.0,15,40403353813485,14,30.1,-598.5296020507812,0.04530000314116478,0,0.0,0.0,1.57542003E9,,,,0,,1,-0.4,1.57542003E9
Raw,230675276,230678934000000,,,-1457982524498333525,-0.65765380859375,22.204354536370374,-0.49958627380857246,10.34849509030718,948,28,0.0,15,40403353694417,10,34.0,646.57177734375,0.041600000113248825,0,0.0,0.0,1.57542003E9,,,,0,,1,-0.4,1.57542003E9
Raw,230675277,230678934000000,,,-1457982524498333525,-0.65765380859375,22.204354536370374,-0.49958627380857246,10.34849509030718,948,31,0.0,15,40403358142513,5,40.1,468.1195373535156,0.046400003135204315,0,0.0,0.0,1.57542003E9,,,,0,,1,-0.4,1.57542003E9
Raw,230675277,230678934000000,,,-1457982524498333525,-0.65765380859375,22.204354536370374,-0.49958627380857246,10.34849509030718,948,13,0.0,7183,40403347153909,70,17.3,409.1218566894531,0.9389999508857727,0,0.0,0.0,1.57542003E9,,,,0,,6,-0.31,1.57542003E9
Raw,230675278,230678934000000,,,-1457982524498333525,-0.65765380859375,22.204354536370374,-0.49958627380857246,10.34849509030718,948,21,0.0,7183,40403346561496,19,27.7,418.650146484375,0.053300000727176666,0,0.0,0.0,1.57542003E9,,,,0,,6,-0.31,1.57542003E9
Raw,230675278,230678934000000,,,-1457982524498333525,-0.65765380859375,22.204354536370374,-0.49958627380857246,10.34849509030718,948,23,0.0,7183,40403354831871,53,19.8,-10.390034675598145,0.8134999871253967,0,0.0,0.0,1.57542003E9,,,,0,,6,-0.31,1.57542003E9
Raw,230675279,230678934000000,,,-1457982524498333525,-0.65765380859375,22.204354536370374,-0.49958627380857246,10.34849509030718,948,26,0.0,7183,40403354133200,13,31.6,-114.08448028564453,0.05220000073313713,0,0.0,0.0,1.57542003E9,,,,0,,6,-0.31,1.57542003E9
Raw,230675279,230678934000000,,,-1457982524498333525,-0.65765380859375,22.204354536370374,-0.49958627380857246,10.34849509030718,948,31,0.0,7183,40403347351326,17,28.3,-422.0379638671875,0.06180000305175781,0,0.0,0.0,1.57542003E9,,,,0,,6,-0.31,1.57542003E9
Fix,gps,45.101785,7.634024,313.577148,0.000000,3.216000,1774177987000
Raw,230676260,230679934000000,,,-1457982524498333526,-0.3729095458984375,23.005672119325027,0.14932080986500926,10.32697325606662,948,14,0.0,207,51186367787208,6,38.4,-181.90318298339844,0.2305999994277954,0,0.0,0.0,1.59806246E9,,,,0,,3,-0.67,1.59806246E9
Raw,230676261,230679934000000,,,-1457982524498333526,-0.3729095458984375,23.005672119325027,0.14932080986500926,10.32697325606662,948,24,0.0,207,51186367260332,14,30.0,-208.08396911621094,0.23629999160766602,0,0.0,0.0,1.60312499E9,,,,0,,3,-0.67,1.60312499E9
Raw,230676262,230679934000000,,,-1457982524498333526,-0.3729095458984375,23.005672119325027,0.14932080986500926,10.32697325606662,948,23,0.0,207,51186361719785,24,25.2,615.8291625976562,0.583299994468689,0,0.0,0.0,1.60368755E9,,,,0,,3,-0.67,1.60368755E9
Raw,230676262,230679934000000,,,-1457982524498333526,-0.3729095458984375,23.005672119325027,0.14932080986500926,10.32697325606662,948,16,0.0,15,40404360982056,9,35.3,-473.1603698730469,0.02160000056028366,0,0.0,0.0,1.57542003E9,,,,0,,1,0.56,1.57542003E9
Raw,230676263,230679934000000,,,-1457982524498333526,-0.3729095458984375,23.005672119325027,0.14932080986500926,10.32697325606662,948,18,0.0,15,40404363662690,10,34.1,-48.08530044555664,0.026600001379847527,0,0.0,0.0,1.57542003E9,,,,0,,1,0.56,1.57542003E9
Raw,230676263,230679934000000,,,-1457982524498333526,-0.3729095458984375,23.005672119325027,0.14932080986500926,10.32697325606662,948,26,0.0,15,40404364312943,9,35.8,-59.76163101196289,0.0276000015437603,0,0.0,0.0,1.57542003E9,,,,0,,1,0.56,1.57542003E9
Raw,230676264,230679934000000,,,-1457982524498333526,-0.3729095458984375,23.005672119325027,0.14932080986500926,10.32697325606662,948,27,0.0,15,40404353815427,27,24.9,-598.6068115234375,0.6360000371932983,0,0.0,0.0,1.57542003E9,,,,0,,1,0.56,1.57542003E9
Raw,230676265,230679934000000,,,-1457982524498333526,-0.3729095458984375,23.005672119325027,0.14932080986500926,10.32697325606662,948,28,0.0,15,40404353692239,8,36.7,646.1798706054688,0.04070000350475311,0,0.0,0.0,1.57542003E9,,,,0,,1,0.56,1.57542003E9
Raw,230676266,230679934000000,,,-1457982524498333526,-0.3729095458984375,23.005672119325027,0.14932080986500926,10.32697325606662,948,31,0.0,15,40404358140973,6,38.2,467.71624755859375,0.0471000038087368,0,0.0,0.0,1.57542003E9,,,,0,,1,0.56,1.57542003E9
Raw,230676266,230679934000000,,,-1457982524498333526,-0.3729095458984375,23.005672119325027,0.14932080986500926,10.32697325606662,948,13,0.0,7183,40404347152537,53,19.2,407.5043640136719,0.8089999556541443,0,0.0,0.0,1.57542003E9,,,,0,,6,0.68,1.57542003E9
Raw,230676267,230679934000000,,,-1457982524498333526,-0.3729095458984375,23.005672119325027,0.14932080986500926,10.32697325606662,948,21,0.0,7183,40404346560099,19,27.6,418.20489501953125,0.053300000727176666,0,0.0,0.0,1.57542003E9,,,,0,,6,0.68,1.57542003E9
Raw,230676268,230679934000000,,,-1457982524498333526,-0.3729095458984375,23.005672119325027,0.14932080986500926,10.32697325606662,948,23,0.0,7183,40404354831867,27,24.0,-11.151209831237793,0.5534999966621399,0,0.0,0.0,1.57542003E9,,,,0,,6,0.68,1.57542003E9
Raw,230676268,230679934000000,,,-1457982524498333526,-0.3729095458984375,23.005672119325027,0.14932080986500926,10.32697325606662,948,26,0.0,7183,40404354133581,14,30.9,-114.50501251220703,0.052800003439188004,0,0.0,0.0,1.57542003E9,,,,0,,6,0.68,1.57542003E9
Raw,230676269,230679934000000,,,-1457982524498333526,-0.3729095458984375,23.005672119325027,0.14932080986500926,10.32697325606662,948,31,0.0,7183,40404347352715,14,30.0,-422.47955322265625,0.05430000275373459,0,0.0,0.0,1.57542003E9,,,,0,,6,0.68,1.57542003E9
Fix,gps,45.101786,7.634024,313.666321,0.280000,3.216000,1774177988000
Raw,230677262,230680934000000,,,-1457982524498333525,-0.30002593994140625,23.09052797500044,-0.6842270419592884,10.33217915093539,948,14,0.0,207,51187367787815,6,38.7,-181.60813903808594,0.2305999994277954,0,0.0,0.0,1.59806246E9,,,,0,,3,-0.5,1.59806246E9
Raw,230677263,230680934000000,,,-1457982524498333525,-0.30002593994140625,23.09052797500044,-0.6842270419592884,10.33217915093539,948,24,0.0,207,51187367260978,17,28.2,-207.785888671875,0.24379999935626984,0,0.0,0.0,1.60312499E9,,,,0,,3,-0.5,1.60312499E9
Raw,230677263,230680934000000,,,-1457982524498333525,-0.30002593994140625,23.09052797500044,-0.6842270419592884,10.33217915093539,948,23,0.0,207,51187361717697,24,25.0,615.7422485351562,0.583299994468689,0,0.0,0.0,1.60368755E9,,,,0,,3,-0.5,1.60368755E9
Raw,230677264,230680934000000,,,-1457982524498333525,-0.30002593994140625,23.09052797500044,-0.6842270419592884,10.33217915093539,948,16,0.0,15,40405360983661,10,34.1,-472.81768798828125,0.022099999710917473,0,0.0,0.0,1.57542003E9,,,,0,,1,0.86,1.57542003E9
Raw,230677265,230680934000000,,,-1457982524498333525,-0.30002593994140625,23.09052797500044,-0.6842270419592884,10.33217915093539,948,18,0.0,15,40405363662846,9,35.2,-47.96745300292969,0.026100000366568565,0,0.0,0.0,1.57542003E9,,,,0,,1,0.86,1.57542003E9
Raw,230677265,230680934000000,,,-1457982524498333525,-0.30002593994140625,23.09052797500044,-0.6842270419592884,10.33217915093539,948,26,0.0,15,40405364313148,7,37.1,-59.46847915649414,0.026600001379847527,0,0.0,0.0,1.57542003E9,,,,0,,1,0.86,1.57542003E9
Raw,230677266,230680934000000,,,-1457982524498333525,-0.30002593994140625,23.09052797500044,-0.6842270419592884,10.33217915093539,948,27,0.0,15,40405353817442,27,24.1,-598.3213500976562,0.6859999895095825,0,0.0,0.0,1.57542003E9,,,,0,,1,0.86,1.57542003E9
Raw,230677267,230680934000000,,,-1457982524498333525,-0.30002593994140625,23.09052797500044,-0.6842270419592884,10.33217915093539,948,28,0.0,15,40405353690077,8,36.2,646.3910522460938,0.04070000350475311,0,0.0,0.0,1.57542003E9,,,,0,,1,0.86,1.57542003E9
Raw,230677267,230680934000000,,,-1457982524498333525,-0.30002593994140625,23.09052797500044,-0.6842270419592884,10.33217915093539,948,31,0.0,15,40405358139414,7,37.8,468.12646484375,0.047600001096725464,0,0.0,0.0,1.57542003E9,,,,0,,1,0.86,1.57542003E9
Raw,230677268,230680934000000,,,-1457982524498333525,-0.30002593994140625,23.09052797500044,-0.6842270419592884,10.33217915093539,948,13,0.0,7183,40405347151116,24,25.0,407.1895751953125,0.4043000042438507,0,0.0,0.0,1.57542003E9,,,,0,,6,0.82,1.57542003E9
Raw,230677269,230680934000000,,,-1457982524498333525,-0.30002593994140625,23.09052797500044,-0.6842270419592884,10.33217915093539,948,21,0.0,7183,40405346558715,16,29.2,418.1050109863281,0.038700003176927567,0,0.0,0.0,1.57542003E9,,,,0,,6,0.82,1.57542003E9
Raw,230677269,230680934000000,,,-1457982524498333525,-0.30002593994140625,23.09052797500044,-0.6842270419592884,10.33217915093539,948,23,0.0,7183,40405354831903,27,24.0,-10.922857284545898,0.5534999966621399,0,0.0,0.0,1.57542003E9,,,,0,,6,0.82,1.57542003E9
Raw,230677270,230680934000000,,,-1457982524498333525,-0.30002593994140625,23.09052797500044,-0.6842270419592884,10.33217915093539,948,26,0.0,7183,40405354133954,13,31.2,-114.37218475341797,0.05220000073313713,0,0.0,0.0,1.57542003E9,,,,0,,6,0.82,1.57542003E9
Raw,230677271,230680934000000,,,-1457982524498333525,-0.30002593994140625,23.09052797500044,-0.6842270419592884,10.33217915093539,948,31,0.0,7183,40405347354153,19,27.8,-422.1731872558594,0.06980000436306,0,0.0,0.0,1.57542003E9,,,,0,,6,0.82,1.57542003E9
Fix,gps,45.101788,7.634023,313.706726,0.490000,3.216000,1774177989000
Raw,230678263,230681934000000,,,-1457982524498333526,-0.5219211578369141,22.97891114722006,-0.8088635293991641,10.487656151675534,948,14,0.0,207,51188367788415,6,39.0,-181.2154541015625,0.23009999096393585,0,0.0,0.0,1.59806246E9,,,,0,,3,-0.8,1.59806246E9
Raw,230678264,230681934000000,,,-1457982524498333526,-0.5219211578369141,22.97891114722006,-0.8088635293991641,10.487656151675534,948,24,0.0,207,51188367261662,16,29.3,-207.45864868164062,0.23719999194145203,0,0.0,0.0,1.60312499E9,,,,0,,3,-0.8,1.60312499E9
Raw,230678264,230681934000000,,,-1457982524498333526,-0.5219211578369141,22.97891114722006,-0.8088635293991641,10.487656151675534,948,23,0.0,207,51188361715650,21,26.9,615.905517578125,0.3127000033855438,0,0.0,0.0,1.60368755E9,,,,0,,3,-0.8,1.60368755E9
Raw,230678265,230681934000000,,,-1457982524498333526,-0.5219211578369141,22.97891114722006,-0.8088635293991641,10.487656151675534,948,16,0.0,15,40406360985241,10,34.0,-472.4561462402344,0.022099999710917473,0,0.0,0.0,1.57542003E9,,,,0,,1,0.6,1.57542003E9
Raw,230678266,230681934000000,,,-1457982524498333526,-0.5219211578369141,22.97891114722006,-0.8088635293991641,10.487656151675534,948,18,0.0,15,40406363662989,8,36.0,-47.73247528076172,0.025700001046061516,0,0.0,0.0,1.57542003E9,,,,0,,1,0.6,1.57542003E9
Raw,230678266,230681934000000,,,-1457982524498333526,-0.5219211578369141,22.97891114722006,-0.8088635293991641,10.487656151675534,948,26,0.0,15,40406364313343,7,37.1,-59.17055892944336,0.026600001379847527,0,0.0,0.0,1.57542003E9,,,,0,,1,0.6,1.57542003E9
Raw,230678267,230681934000000,,,-1457982524498333526,-0.5219211578369141,22.97891114722006,-0.8088635293991641,10.487656151675534,948,27,0.0,15,40406353819437,21,26.8,-598.0090942382812,0.1307000070810318,0,0.0,0.0,1.57542003E9,,,,0,,1,0.6,1.57542003E9
Raw,230678267,230681934000000,,,-1457982524498333526,-0.5219211578369141,22.97891114722006,-0.8088635293991641,10.487656151675534,948,28,0.0,15,40406353687915,8,36.8,646.6463623046875,0.04070000350475311,0,0.0,0.0,1.57542003E9,,,,0,,1,0.6,1.57542003E9
Raw,230678268,230681934000000,,,-1457982524498333526,-0.5219211578369141,22.97891114722006,-0.8088635293991641,10.487656151675534,948,31,0.0,15,40406358137851,7,37.8,468.47607421875,0.047600001096725464,0,0.0,0.0,1.57542003E9,,,,0,,1,0.6,1.57542003E9
Raw,230678268,230681934000000,,,-1457982524498333526,-0.5219211578369141,22.97891114722006,-0.8088635293991641,10.487656151675534,948,13,0.0,15,40392302805983,238,12.1,-210.4368896484375,7.359500408172607,0,0.0,0.0,1.56109798E9,,,,0,,5,-0.28,1.56109798E9
Raw,230678269,230681934000000,,,-1457982524498333526,-0.5219211578369141,22.97891114722006,-0.8088635293991641,10.487656151675534,948,13,0.0,7183,40406347149752,35,22.4,407.7041931152344,0.6389999985694885,0,0.0,0.0,1.57542003E9,,,,0,,6,0.68,1.57542003E9
Raw,230678269,230681934000000,,,-1457982524498333526,-0.5219211578369141,22.97891114722006,-0.8088635293991641,10.487656151675534,948,21,0.0,7183,40406346557309,17,28.0,418.1882629394531,0.04529999941587448,0,0.0,0.0,1.57542003E9,,,,0,,6,0.68,1.57542003E9
Raw,230678271,230681934000000,,,-1457982524498333526,-0.5219211578369141,22.97891114722006,-0.8088635293991641,10.487656151675534,948,23,0.0,7183,40406354831911,24,25.1,-10.954955101013184,0.40880000591278076,0,0.0,0.0,1.57542003E9,,,,0,,6,0.68,1.57542003E9
Raw,230678272,230681934000000,,,-1457982524498333526,-0.5219211578369141,22.97891114722006,-0.8088635293991641,10.487656151675534,948,26,0.0,7183,40406354134344,14,30.3,-114.23347473144531,0.052800003439188004,0,0.0,0.0,1.57542003E9,,,,0,,6,0.68,1.57542003E9
Raw,230678273,230681934000000,,,-1457982524498333526,-0.5219211578369141,22.97891114722006,-0.8088635293991641,10.487656151675534,948,31,0.0,7183,40406347355538,17,28.1,-421.9277038574219,0.06180000305175781,0,0.0,0.0,1.57542003E9,,,,0,,6,0.68,1.57542003E9
Fix,gps,45.101790,7.634024,313.736938,0.450000,3.216000,1774177990000
Raw,230679263,230682934000000,,,-1457982524498333524,-0.7337818145751953,23.247377612278797,-0.19444282759155998,10.499463655665247,948,14,0.0,207,51189367789038,6,38.7,-180.79380798339844,0.2305999994277954,0,0.0,0.0,1.59806246E9,,,,0,,3,-0.67,1.59806246E9
Raw,230679264,230682934000000,,,-1457982524498333524,-0.7337818145751953,23.247377612278797,-0.19444282759155998,10.499463655665247,948,24,0.0,207,51189367262344,16,29.4,-207.02761840820312,0.23719999194145203,0,0.0,0.0,1.60312499E9,,,,0,,3,-0.67,1.60312499E9
Raw,230679264,230682934000000,,,-1457982524498333524,-0.7337818145751953,23.247377612278797,-0.19444282759155998,10.499463655665247,948,23,0.0,207,51189361713563,27,24.3,616.8721313476562,0.8679999709129333,0,0.0,0.0,1.60368755E9,,,,0,,3,-0.67,1.60368755E9
Raw,230679266,230682934000000,,,-1457982524498333524,-0.7337818145751953,23.247377612278797,-0.19444282759155998,10.499463655665247,948,16,0.0,15,40407360986818,10,34.5,-472.1237487792969,0.022099999710917473,0,0.0,0.0,1.57542003E9,,,,0,,1,0.14,1.57542003E9
Raw,230679266,230682934000000,,,-1457982524498333524,-0.7337818145751953,23.247377612278797,-0.19444282759155998,10.499463655665247,948,18,0.0,15,40407363663151,9,35.3,-47.3170280456543,0.026100000366568565,0,0.0,0.0,1.57542003E9,,,,0,,1,0.14,1.57542003E9
Raw,230679267,230682934000000,,,-1457982524498333524,-0.7337818145751953,23.247377612278797,-0.19444282759155998,10.499463655665247,948,26,0.0,15,40407364313532,7,37.8,-58.76321029663086,0.026600001379847527,0,0.0,0.0,1.57542003E9,,,,0,,1,0.14,1.57542003E9
Raw,230679267,230682934000000,,,-1457982524498333524,-0.7337818145751953,23.247377612278797,-0.19444282759155998,10.499463655665247,948,27,0.0,15,40407353821479,21,26.7,-597.9976806640625,0.1307000070810318,0,0.0,0.0,1.57542003E9,,,,0,,1,0.14,1.57542003E9
Raw,230679268,230682934000000,,,-1457982524498333524,-0.7337818145751953,23.247377612278797,-0.19444282759155998,10.499463655665247,948,28,0.0,15,40407353685752,7,37.0,646.93115234375,0.04010000079870224,0,0.0,0.0,1.57542003E9,,,,0,,1,0.14,1.57542003E9
Raw,230679268,230682934000000,,,-1457982524498333524,-0.7337818145751953,23.247377612278797,-0.19444282759155998,10.499463655665247,948,31,0.0,15,40407358136274,6,39.1,468.8356628417969,0.04660000279545784,0,0.0,0.0,1.57542003E9,,,,0,,1,0.14,1.57542003E9
Raw,230679269,230682934000000,,,-1457982524498333524,-0.7337818145751953,23.247377612278797,-0.19444282759155998,10.499463655665247,948,13,0.0,7183,40407347148321,70,17.3,408.41778564453125,0.9389999508857727,0,0.0,0.0,1.57542003E9,,,,0,,6,0.06,1.57542003E9
Raw,230679269,230682934000000,,,-1457982524498333524,-0.7337818145751953,23.247377612278797,-0.19444282759155998,10.499463655665247,948,21,0.0,7183,40407346555928,16,29.2,418.5220642089844,0.038700003176927567,0,0.0,0.0,1.57542003E9,,,,0,,6,0.06,1.57542003E9
Raw,230679270,230682934000000,,,-1457982524498333524,-0.7337818145751953,23.247377612278797,-0.19444282759155998,10.499463655665247,948,23,0.0,7183,40407354831944,21,26.3,-10.513325691223145,0.13819999992847443,0,0.0,0.0,1.57542003E9,,,,0,,6,0.06,1.57542003E9
Raw,230679270,230682934000000,,,-1457982524498333524,-0.7337818145751953,23.247377612278797,-0.19444282759155998,10.499463655665247,948,26,0.0,7183,40407354134724,13,31.0,-113.79802703857422,0.05220000073313713,0,0.0,0.0,1.57542003E9,,,,0,,6,0.06,1.57542003E9
Raw,230679271,230682934000000,,,-1457982524498333524,-0.7337818145751953,23.247377612278797,-0.19444282759155998,10.499463655665247,948,31,0.0,7183,40407347356942,16,29.3,-421.5856018066406,0.0552000030875206,0,0.0,0.0,1.57542003E9,,,,0,,6,0.06,1.57542003E9
Fix,gps,45.101789,7.634036,313.861938,0.690000,3.216000,1774177991000
Raw,230680265,230683934000000,,,-1457982524498333522,-0.8562355041503906,23.494976630900055,0.5668861934873276,10.487151944931446,948,14,0.0,207,51190367789614,6,38.3,-180.3361053466797,0.2305999994277954,0,0.0,0.0,1.59806246E9,,,,0,,3,-0.81,1.59806246E9
Raw,230680265,230683934000000,,,-1457982524498333522,-0.8562355041503906,23.494976630900055,0.5668861934873276,10.487151944931446,948,24,0.0,207,51190367263068,14,30.5,-206.54603576660156,0.23629999160766602,0,0.0,0.0,1.60312499E9,,,,0,,3,-0.81,1.60312499E9
Raw,230680266,230683934000000,,,-1457982524498333522,-0.8562355041503906,23.494976630900055,0.5668861934873276,10.487151944931446,948,23,0.0,207,51190361711596,40,21.9,617.05908203125,1.0479999780654907,0,0.0,0.0,1.60368755E9,,,,0,,3,-0.81,1.60368755E9
Raw,230680267,230683934000000,,,-1457982524498333522,-0.8562355041503906,23.494976630900055,0.5668861934873276,10.487151944931446,948,16,0.0,15,40408360988390,11,33.9,-471.63397216796875,0.02290000021457672,0,0.0,0.0,1.57542003E9,,,,0,,1,0.24,1.57542003E9
Raw,230680267,230683934000000,,,-1457982524498333522,-0.8562355041503906,23.494976630900055,0.5668861934873276,10.487151944931446,948,18,0.0,15,40408363663328,11,33.7,-47.0252685546875,0.027400000020861626,0,0.0,0.0,1.57542003E9,,,,0,,1,0.24,1.57542003E9
Raw,230680268,230683934000000,,,-1457982524498333522,-0.8562355041503906,23.494976630900055,0.5668861934873276,10.487151944931446,948,26,0.0,15,40408364313734,7,37.9,-58.29888916015625,0.026600001379847527,0,0.0,0.0,1.57542003E9,,,,0,,1,0.24,1.57542003E9
Raw,230680269,230683934000000,,,-1457982524498333522,-0.8562355041503906,23.494976630900055,0.5668861934873276,10.487151944931446,948,27,0.0,15,40408353823473,24,25.4,-597.3548583984375,0.40130001306533813,0,0.0,0.0,1.57542003E9,,,,0,,1,0.24,1.57542003E9
Raw,230680270,230683934000000,,,-1457982524498333522,-0.8562355041503906,23.494976630900055,0.5668861934873276,10.487151944931446,948,28,0.0,15,40408353683593,8,36.6,647.3406372070312,0.04070000350475311,0,0.0,0.0,1.57542003E9,,,,0,,1,0.24,1.57542003E9
Raw,230680270,230683934000000,,,-1457982524498333522,-0.8562355041503906,23.494976630900055,0.5668861934873276,10.487151944931446,948,31,0.0,15,40408358134713,6,38.1,469.3159484863281,0.0471000038087368,0,0.0,0.0,1.57542003E9,,,,0,,1,0.24,1.57542003E9
Raw,230680271,230683934000000,,,-1457982524498333522,-0.8562355041503906,23.494976630900055,0.5668861934873276,10.487151944931446,948,13,0.0,7183,40408347147012,80,16.5,407.8088684082031,1.0190000534057617,0,0.0,0.0,1.57542003E9,,,,0,,6,0.32,1.57542003E9
Raw,230680272,230683934000000,,,-1457982524498333522,-0.8562355041503906,23.494976630900055,0.5668861934873276,10.487151944931446,948,21,0.0,7183,40408346554523,17,28.2,418.705078125,0.04529999941587448,0,0.0,0.0,1.57542003E9,,,,0,,6,0.32,1.57542003E9
Raw,230680272,230683934000000,,,-1457982524498333522,-0.8562355041503906,23.494976630900055,0.5668861934873276,10.487151944931446,948,23,0.0,7183,40408354832021,35,22.3,-10.532754898071289,0.643500030040741,0,0.0,0.0,1.57542003E9,,,,0,,6,0.32,1.57542003E9
Raw,230680273,230683934000000,,,-1457982524498333522,-0.8562355041503906,23.494976630900055,0.5668861934873276,10.487151944931446,948,26,0.0,7183,40408354135095,13,31.8,-113.47976684570312,0.05220000073313713,0,0.0,0.0,1.57542003E9,,,,0,,6,0.32,1.57542003E9
Raw,230680274,230683934000000,,,-1457982524498333522,-0.8562355041503906,23.494976630900055,0.5668861934873276,10.487151944931446,948,31,0.0,7183,40408347358322,14,30.1,-421.105224609375,0.05430000275373459,0,0.0,0.0,1.57542003E9,,,,0,,6,0.32,1.57542003E9
Fix,gps,45.101788,7.634046,314.054504,0.530000,3.216000,1774177992000
Raw,230681261,230684934000000,,,-1457982524498333519,-0.011735916137695312,23.800621420377865,1.6160783464854922,10.324424387589012,948,14,0.0,207,51191367790229,6,38.3,-180.12142944335938,0.2305999994277954,0,0.0,0.0,1.59806246E9,,,,0,,3,-0.46,1.59806246E9
Raw,230681262,230684934000000,,,-1457982524498333519,-0.011735916137695312,23.800621420377865,1.6160783464854922,10.324424387589012,948,24,0.0,207,51191367263741,13,31.5,-206.44805908203125,0.23569999635219574,0,0.0,0.0,1.60312499E9,,,,0,,3,-0.46,1.60312499E9
Raw,230681263,230684934000000,,,-1457982524498333519,-0.011735916137695312,23.800621420377865,1.6160783464854922,10.324424387589012,948,23,0.0,207,51191361709490,31,23.0,616.7880249023438,0.9279999732971191,0,0.0,0.0,1.60368755E9,,,,0,,3,-0.46,1.60368755E9
Raw,230681263,230684934000000,,,-1457982524498333519,-0.011735916137695312,23.800621420377865,1.6160783464854922,10.324424387589012,948,16,0.0,15,40409360989954,9,35.7,-471.5636901855469,0.02160000056028366,0,0.0,0.0,1.57542003E9,,,,0,,1,0.14,1.57542003E9
Raw,230681264,230684934000000,,,-1457982524498333519,-0.011735916137695312,23.800621420377865,1.6160783464854922,10.324424387589012,948,18,0.0,15,40409363663466,9,35.5,-46.736549377441406,0.026100000366568565,0,0.0,0.0,1.57542003E9,,,,0,,1,0.14,1.57542003E9
Raw,230681264,230684934000000,,,-1457982524498333519,-0.011735916137695312,23.800621420377865,1.6160783464854922,10.324424387589012,948,26,0.0,15,40409364313927,6,38.5,-58.17652130126953,0.026100000366568565,0,0.0,0.0,1.57542003E9,,,,0,,1,0.14,1.57542003E9
Raw,230681266,230684934000000,,,-1457982524498333519,-0.011735916137695312,23.800621420377865,1.6160783464854922,10.324424387589012,948,27,0.0,15,40409353825463,19,27.8,-597.26611328125,0.06080000102519989,0,0.0,0.0,1.57542003E9,,,,0,,1,0.14,1.57542003E9
Raw,230681267,230684934000000,,,-1457982524498333519,-0.011735916137695312,23.800621420377865,1.6160783464854922,10.324424387589012,948,28,0.0,15,40409353681436,7,37.6,647.37890625,0.04010000079870224,0,0.0,0.0,1.57542003E9,,,,0,,1,0.14,1.57542003E9
Raw,230681267,230684934000000,,,-1457982524498333519,-0.011735916137695312,23.800621420377865,1.6160783464854922,10.324424387589012,948,31,0.0,15,40409358133156,8,36.2,469.41851806640625,0.04820000380277634,0,0.0,0.0,1.57542003E9,,,,0,,1,0.14,1.57542003E9
Raw,230681268,230684934000000,,,-1457982524498333519,-0.011735916137695312,23.800621420377865,1.6160783464854922,10.324424387589012,948,13,0.0,7183,40409347145717,53,19.0,409.0648193359375,0.8089999556541443,0,0.0,0.0,1.57542003E9,,,,0,,6,0.19,1.57542003E9
Raw,230681269,230684934000000,,,-1457982524498333519,-0.011735916137695312,23.800621420377865,1.6160783464854922,10.324424387589012,948,21,0.0,7183,40409346553110,21,26.4,418.8925476074219,0.12319999933242798,0,0.0,0.0,1.57542003E9,,,,0,,6,0.19,1.57542003E9
Raw,230681269,230684934000000,,,-1457982524498333519,-0.011735916137695312,23.800621420377865,1.6160783464854922,10.324424387589012,948,23,0.0,7183,40409354832011,27,24.8,-10.09507942199707,0.5534999966621399,0,0.0,0.0,1.57542003E9,,,,0,,6,0.19,1.57542003E9
Raw,230681270,230684934000000,,,-1457982524498333519,-0.011735916137695312,23.800621420377865,1.6160783464854922,10.324424387589012,948,26,0.0,7183,40409354135467,13,31.7,-113.3026123046875,0.05220000073313713,0,0.0,0.0,1.57542003E9,,,,0,,6,0.19,1.57542003E9
Raw,230681271,230684934000000,,,-1457982524498333519,-0.011735916137695312,23.800621420377865,1.6160783464854922,10.324424387589012,948,31,0.0,7183,40409347359737,12,32.0,-421.1429443359375,0.052400000393390656,0,0.0,0.0,1.57542003E9,,,,0,,6,0.19,1.57542003E9
Fix,gps,45.101787,7.634052,314.331421,0.280000,3.216000,1774177993000
Raw,230682249,230685934000000,,,-1457982524498333514,-0.7798061370849609,22.937911126064137,1.7288436082237144,10.344560050922718,948,14,0.0,207,51192367790816,7,37.9,-180.04464721679688,0.23109999299049377,0,0.0,0.0,1.59806246E9,,,,0,,3,-0.82,1.59806246E9
Raw,230682250,230685934000000,,,-1457982524498333514,-0.7798061370849609,22.937911126064137,1.7288436082237144,10.344560050922718,948,24,0.0,207,51192367264479,19,27.1,-206.4848175048828,0.251800000667572,0,0.0,0.0,1.60312499E9,,,,0,,3,-0.82,1.60312499E9
Raw,230682250,230685934000000,,,-1457982524498333514,-0.7798061370849609,22.937911126064137,1.7288436082237144,10.344560050922718,948,16,0.0,15,40410360991524,6,38.0,-471.6369934082031,0.020100001245737076,0,0.0,0.0,1.57542003E9,,,,0,,1,0.17,1.57542003E9
Raw,230682251,230685934000000,,,-1457982524498333514,-0.7798061370849609,22.937911126064137,1.7288436082237144,10.344560050922718,948,18,0.0,15,40410363663627,10,34.8,-46.62553405761719,0.026600001379847527,0,0.0,0.0,1.57542003E9,,,,0,,1,0.17,1.57542003E9
Raw,230682252,230685934000000,,,-1457982524498333514,-0.7798061370849609,22.937911126064137,1.7288436082237144,10.344560050922718,948,26,0.0,15,40410364314122,6,38.7,-58.1782112121582,0.026100000366568565,0,0.0,0.0,1.57542003E9,,,,0,,1,0.17,1.57542003E9
Raw,230682253,230685934000000,,,-1457982524498333514,-0.7798061370849609,22.937911126064137,1.7288436082237144,10.344560050922718,948,27,0.0,15,40410353827374,27,24.3,-597.1701049804688,0.6859999895095825,0,0.0,0.0,1.57542003E9,,,,0,,1,0.17,1.57542003E9
Raw,230682253,230685934000000,,,-1457982524498333514,-0.7798061370849609,22.937911126064137,1.7288436082237144,10.344560050922718,948,28,0.0,15,40410353679268,8,36.3,647.3485107421875,0.04070000350475311,0,0.0,0.0,1.57542003E9,,,,0,,1,0.17,1.57542003E9
Raw,230682254,230685934000000,,,-1457982524498333514,-0.7798061370849609,22.937911126064137,1.7288436082237144,10.344560050922718,948,31,0.0,15,40410358131585,8,36.9,469.3393249511719,0.04820000380277634,0,0.0,0.0,1.57542003E9,,,,0,,1,0.17,1.57542003E9
Raw,230682255,230685934000000,,,-1457982524498333514,-0.7798061370849609,22.937911126064137,1.7288436082237144,10.344560050922718,948,13,0.0,15,40396302808869,123,14.6,-210.3888702392578,3.4195001125335693,0,0.0,0.0,1.56109798E9,,,,0,,5,-1.33,1.56109798E9
Raw,230682256,230685934000000,,,-1457982524498333514,-0.7798061370849609,22.937911126064137,1.7288436082237144,10.344560050922718,948,13,0.0,7183,40410347144287,61,18.6,408.30364990234375,0.8689999580383301,0,0.0,0.0,1.57542003E9,,,,0,,6,-0.02,1.57542003E9
Raw,230682256,230685934000000,,,-1457982524498333514,-0.7798061370849609,22.937911126064137,1.7288436082237144,10.344560050922718,948,21,0.0,7183,40410346551765,40,21.9,418.83636474609375,0.6784999966621399,0,0.0,0.0,1.57542003E9,,,,0,,6,-0.02,1.57542003E9
Raw,230682256,230685934000000,,,-1457982524498333514,-0.7798061370849609,22.937911126064137,1.7288436082237144,10.344560050922718,948,23,0.0,7183,40410354832019,21,26.8,-10.04323959350586,0.13819999992847443,0,0.0,0.0,1.57542003E9,,,,0,,6,-0.02,1.57542003E9
Raw,230682257,230685934000000,,,-1457982524498333514,-0.7798061370849609,22.937911126064137,1.7288436082237144,10.344560050922718,948,26,0.0,7183,40410354135861,14,30.3,-113.18866729736328,0.052800003439188004,0,0.0,0.0,1.57542003E9,,,,0,,6,-0.02,1.57542003E9
Raw,230682257,230685934000000,,,-1457982524498333514,-0.7798061370849609,22.937911126064137,1.7288436082237144,10.344560050922718,948,31,0.0,7183,40410347361161,16,29.6,-421.2793273925781,0.0552000030875206,0,0.0,0.0,1.57542003E9,,,,0,,6,-0.02,1.57542003E9
Fix,gps,45.101785,7.634054,314.417847,0.000000,3.216000,1774177994000
Raw,230683258,230686934000000,,,-1457982524498333511,-0.9187831878662109,23.51169314351864,2.1923982859304525,10.531220727755045,948,14,0.0,207,51193367791422,6,38.5,-179.86343383789062,0.2305999994277954,0,0.0,0.0,1.59806246E9,,,,0,,3,-0.73,1.59806246E9
Raw,230683259,230686934000000,,,-1457982524498333511,-0.9187831878662109,23.51169314351864,2.1923982859304525,10.531220727755045,948,24,0.0,207,51193367265203,27,24.9,-205.9112548828125,0.8769999742507935,0,0.0,0.0,1.60312499E9,,,,0,,3,-0.73,1.60312499E9
Raw,230683259,230686934000000,,,-1457982524498333511,-0.9187831878662109,23.51169314351864,2.1923982859304525,10.531220727755045,948,23,0.0,207,51193361705245,56,19.2,618.330322265625,1.9480000734329224,0,0.0,0.0,1.60368755E9,,,,0,,3,-0.73,1.60368755E9
Raw,230683260,230686934000000,,,-1457982524498333511,-0.9187831878662109,23.51169314351864,2.1923982859304525,10.531220727755045,948,16,0.0,15,40411360993100,6,38.1,-471.6214294433594,0.020100001245737076,0,0.0,0.0,1.57542003E9,,,,0,,1,0.17,1.57542003E9
Raw,230683260,230686934000000,,,-1457982524498333511,-0.9187831878662109,23.51169314351864,2.1923982859304525,10.531220727755045,948,18,0.0,15,40411363663790,9,35.1,-46.30337905883789,0.026100000366568565,0,0.0,0.0,1.57542003E9,,,,0,,1,0.17,1.57542003E9
Raw,230683261,230686934000000,,,-1457982524498333511,-0.9187831878662109,23.51169314351864,2.1923982859304525,10.531220727755045,948,26,0.0,15,40411364314319,7,37.5,-57.971900939941406,0.026600001379847527,0,0.0,0.0,1.57542003E9,,,,0,,1,0.17,1.57542003E9
Raw,230683261,230686934000000,,,-1457982524498333511,-0.9187831878662109,23.51169314351864,2.1923982859304525,10.531220727755045,948,27,0.0,15,40411353829498,35,22.0,-596.9893188476562,0.8059999942779541,0,0.0,0.0,1.57542003E9,,,,0,,1,0.17,1.57542003E9
Raw,230683262,230686934000000,,,-1457982524498333511,-0.9187831878662109,23.51169314351864,2.1923982859304525,10.531220727755045,948,28,0.0,15,40411353677076,9,35.1,647.429443359375,0.04110000282526016,0,0.0,0.0,1.57542003E9,,,,0,,1,0.17,1.57542003E9
Raw,230683262,230686934000000,,,-1457982524498333511,-0.9187831878662109,23.51169314351864,2.1923982859304525,10.531220727755045,948,31,0.0,15,40411358130020,7,37.7,469.4309387207031,0.047600001096725464,0,0.0,0.0,1.57542003E9,,,,0,,1,0.17,1.57542003E9
Raw,230683263,230686934000000,,,-1457982524498333511,-0.9187831878662109,23.51169314351864,2.1923982859304525,10.531220727755045,948,13,0.0,7183,40411347142935,61,18.4,408.7793884277344,0.8689999580383301,0,0.0,0.0,1.57542003E9,,,,0,,6,0.32,1.57542003E9
Raw,230683264,230686934000000,,,-1457982524498333511,-0.9187831878662109,23.51169314351864,2.1923982859304525,10.531220727755045,948,21,0.0,7183,40411346550351,46,20.5,420.0827941894531,0.7384999990463257,0,0.0,0.0,1.57542003E9,,,,0,,6,0.32,1.57542003E9
Raw,230683264,230686934000000,,,-1457982524498333511,-0.9187831878662109,23.51169314351864,2.1923982859304525,10.531220727755045,948,23,0.0,7183,40411354832073,40,21.4,-9.600316047668457,0.6934999823570251,0,0.0,0.0,1.57542003E9,,,,0,,6,0.32,1.57542003E9
Raw,230683265,230686934000000,,,-1457982524498333511,-0.9187831878662109,23.51169314351864,2.1923982859304525,10.531220727755045,948,26,0.0,7183,40411354136236,16,29.6,-112.88668060302734,0.053700003772974014,0,0.0,0.0,1.57542003E9,,,,0,,6,0.32,1.57542003E9
Raw,230683265,230686934000000,,,-1457982524498333511,-0.9187831878662109,23.51169314351864,2.1923982859304525,10.531220727755045,948,31,0.0,7183,40411347362574,17,28.0,-421.2464294433594,0.06180000305175781,0,0.0,0.0,1.57542003E9,,,,0,,6,0.32,1.57542003E9
Fix,gps,45.101785,7.634055,314.605591,0.000000,3.216000,1774177995000
Raw,230684252,230687934000000,,,-1457982524498333511,-0.4121437072753906,29.523611374315806,2.320743555942971,13.039048844118039,948,14,0.0,207,51194367792024,6,38.2,-179.67575073242188,0.2305999994277954,0,0.0,0.0,1.59806246E9,,,,0,,3,-0.87,1.59806246E9
Raw,230684253,230687934000000,,,-1457982524498333511,-0.4121437072753906,29.523611374315806,2.320743555942971,13.039048844118039,948,24,0.0,207,51194367265801,24,25.4,-206.12020874023438,0.5922999978065491,0,0.0,0.0,1.60312499E9,,,,0,,3,-0.87,1.60312499E9
Raw,230684254,230687934000000,,,-1457982524498333511,-0.4121437072753906,29.523611374315806,2.320743555942971,13.039048844118039,948,16,0.0,15,40412360994670,7,37.5,-471.5505065917969,0.020600000396370888,0,0.0,0.0,1.57542003E9,,,,0,,1,0.07,1.57542003E9
Raw,230684254,230687934000000,,,-1457982524498333511,-0.4121437072753906,29.523611374315806,2.320743555942971,13.039048844118039,948,18,0.0,15,40412363663941,10,34.7,-46.163238525390625,0.026600001379847527,0,0.0,0.0,1.57542003E9,,,,0,,1,0.07,1.57542003E9
Raw,230684255,230687934000000,,,-1457982524498333511,-0.4121437072753906,29.523611374315806,2.320743555942971,13.039048844118039,948,26,0.0,15,40412364314521,8,36.9,-57.830204010009766,0.0272000003606081,0,0.0,0.0,1.57542003E9,,,,0,,1,0.07,1.57542003E9
Raw,230684256,230687934000000,,,-1457982524498333511,-0.4121437072753906,29.523611374315806,2.320743555942971,13.039048844118039,948,27,0.0,15,40412353831483,46,20.5,-597.6743774414062,0.8659999966621399,0,0.0,0.0,1.57542003E9,,,,0,,1,0.07,1.57542003E9
Raw,230684257,230687934000000,,,-1457982524498333511,-0.4121437072753906,29.523611374315806,2.320743555942971,13.039048844118039,948,28,0.0,15,40412353674933,9,35.1,647.480712890625,0.04110000282526016,0,0.0,0.0,1.57542003E9,,,,0,,1,0.07,1.57542003E9
Raw,230684257,230687934000000,,,-1457982524498333511,-0.4121437072753906,29.523611374315806,2.320743555942971,13.039048844118039,948,31,0.0,15,40412358128441,6,38.2,469.52996826171875,0.0471000038087368,0,0.0,0.0,1.57542003E9,,,,0,,1,0.07,1.57542003E9
Raw,230684258,230687934000000,,,-1457982524498333511,-0.4121437072753906,29.523611374315806,2.320743555942971,13.039048844118039,948,13,0.0,7183,40412347141564,53,19.7,409.16943359375,0.8089999556541443,0,0.0,0.0,1.57542003E9,,,,0,,6,0.06,1.57542003E9
Raw,230684258,230687934000000,,,-1457982524498333511,-0.4121437072753906,29.523611374315806,2.320743555942971,13.039048844118039,948,21,0.0,7183,40412346548973,35,22.2,419.4263000488281,0.6285000443458557,0,0.0,0.0,1.57542003E9,,,,0,,6,0.06,1.57542003E9
Raw,230684259,230687934000000,,,-1457982524498333511,-0.4121437072753906,29.523611374315806,2.320743555942971,13.039048844118039,948,23,0.0,7183,40412354832126,35,22.6,-9.514683723449707,0.643500030040741,0,0.0,0.0,1.57542003E9,,,,0,,6,0.06,1.57542003E9
Raw,230684259,230687934000000,,,-1457982524498333511,-0.4121437072753906,29.523611374315806,2.320743555942971,13.039048844118039,948,26,0.0,7183,40412354136599,16,29.5,-112.7578353881836,0.053700003772974014,0,0.0,0.0,1.57542003E9,,,,0,,6,0.06,1.57542003E9
Raw,230684260,230687934000000,,,-1457982524498333511,-0.4121437072753906,29.523611374315806,2.320743555942971,13.039048844118039,948,31,0.0,7183,40412347364002,21,26.7,-421.2960510253906,0.1397000104188919,0,0.0,0.0,1.57542003E9,,,,0,,6,0.06,1.57542003E9
Fix,gps,45.101786,7.634054,314.746704,0.000000,3.216000,1774177996000
Raw,230685256,230688934000000,,,-1457982524498333508,-0.5511207580566406,31.810730433790013,2.3244427951702997,13.52386032941318,948,14,0.0,207,51195367792604,6,38.4,-179.544921875,0.2305999994277954,0,0.0,0.0,1.59806246E9,,,,0,,3,-0.8,1.59806246E9
Raw,230685257,230688934000000,,,-1457982524498333508,-0.5511207580566406,31.810730433790013,2.3244427951702997,13.52386032941318,948,24,0.0,207,51195367266487,19,27.7,-206.01583862304688,0.251800000667572,0,0.0,0.0,1.60312499E9,,,,0,,3,-0.8,1.60312499E9
Raw,230685258,230688934000000,,,-1457982524498333508,-0.5511207580566406,31.810730433790013,2.3244427951702997,13.52386032941318,948,16,0.0,15,40413360996255,8,36.2,-471.5101623535156,0.02120000123977661,0,0.0,0.0,1.57542003E9,,,,0,,1,0.28,1.57542003E9
Raw,230685259,230688934000000,,,-1457982524498333508,-0.5511207580566406,31.810730433790013,2.3244427951702997,13.52386032941318,948,18,0.0,15,40413363664083,9,35.2,-46.00087356567383,0.026100000366568565,0,0.0,0.0,1.57542003E9,,,,0,,1,0.28,1.57542003E9
Raw,230685259,230688934000000,,,-1457982524498333508,-0.5511207580566406,31.810730433790013,2.3244427951702997,13.52386032941318,948,26,0.0,15,40413364314721,8,36.9,-57.765907287597656,0.0272000003606081,0,0.0,0.0,1.57542003E9,,,,0,,1,0.28,1.57542003E9
Raw,230685260,230688934000000,,,-1457982524498333508,-0.5511207580566406,31.810730433790013,2.3244427951702997,13.52386032941318,948,27,0.0,15,40413353833487,35,22.3,-597.45556640625,0.8059999942779541,0,0.0,0.0,1.57542003E9,,,,0,,1,0.28,1.57542003E9
Raw,230685260,230688934000000,,,-1457982524498333508,-0.5511207580566406,31.810730433790013,2.3244427951702997,13.52386032941318,948,28,0.0,15,40413353672779,8,36.2,647.5108032226562,0.04070000350475311,0,0.0,0.0,1.57542003E9,,,,0,,1,0.28,1.57542003E9
Raw,230685261,230688934000000,,,-1457982524498333508,-0.5511207580566406,31.810730433790013,2.3244427951702997,13.52386032941318,948,31,0.0,15,40413358126890,6,39.1,469.55780029296875,0.04660000279545784,0,0.0,0.0,1.57542003E9,,,,0,,1,0.28,1.57542003E9
Raw,230685262,230688934000000,,,-1457982524498333508,-0.5511207580566406,31.810730433790013,2.3244427951702997,13.52386032941318,948,13,0.0,7183,40413347140143,46,20.5,409.1123962402344,0.7489999532699585,0,0.0,0.0,1.57542003E9,,,,0,,6,0.24,1.57542003E9
Raw,230685262,230688934000000,,,-1457982524498333508,-0.5511207580566406,31.810730433790013,2.3244427951702997,13.52386032941318,948,21,0.0,7183,40413346547527,24,25.3,419.67791748046875,0.3937999904155731,0,0.0,0.0,1.57542003E9,,,,0,,6,0.24,1.57542003E9
Raw,230685263,230688934000000,,,-1457982524498333508,-0.5511207580566406,31.810730433790013,2.3244427951702997,13.52386032941318,948,23,0.0,7183,40413354832187,53,19.9,-9.961874008178711,0.8134999871253967,0,0.0,0.0,1.57542003E9,,,,0,,6,0.24,1.57542003E9
Raw,230685264,230688934000000,,,-1457982524498333508,-0.5511207580566406,31.810730433790013,2.3244427951702997,13.52386032941318,948,26,0.0,7183,40413354136987,21,26.9,-112.63294982910156,0.13819999992847443,0,0.0,0.0,1.57542003E9,,,,0,,6,0.24,1.57542003E9
Raw,230685264,230688934000000,,,-1457982524498333508,-0.5511207580566406,31.810730433790013,2.3244427951702997,13.52386032941318,948,31,0.0,7183,40413347365391,27,24.8,-421.1199035644531,0.5550000071525574,0,0.0,0.0,1.57542003E9,,,,0,,6,0.24,1.57542003E9
Fix,gps,45.101785,7.634049,314.620850,0.320000,3.216000,1774177997000
Raw,230686247,230689934000000,,,-1457982524498333507,-0.18021392822265625,34.33701567701064,2.5196807524232536,13.63662608820064,948,14,0.0,207,51196367793224,6,38.1,-179.26385498046875,0.2305999994277954,0,0.0,0.0,1.59806246E9,,,,0,,3,-0.81,1.59806246E9
Raw,230686249,230689934000000,,,-1457982524498333507,-0.18021392822265625,34.33701567701064,2.5196807524232536,13.63662608820064,948,24,0.0,207,51196367267175,19,27.7,-205.77024841308594,0.251800000667572,0,0.0,0.0,1.60312499E9,,,,0,,3,-0.81,1.60312499E9
Raw,230686249,230689934000000,,,-1457982524498333507,-0.18021392822265625,34.33701567701064,2.5196807524232536,13.63662608820064,948,16,0.0,15,40414360997813,9,35.7,-471.4757995605469,0.02160000056028366,0,0.0,0.0,1.57542003E9,,,,0,,1,0.14,1.57542003E9
Raw,230686250,230689934000000,,,-1457982524498333507,-0.18021392822265625,34.33701567701064,2.5196807524232536,13.63662608820064,948,18,0.0,15,40414363664254,9,35.4,-45.64323043823242,0.026100000366568565,0,0.0,0.0,1.57542003E9,,,,0,,1,0.14,1.57542003E9
Raw,230686250,230689934000000,,,-1457982524498333507,-0.18021392822265625,34.33701567701064,2.5196807524232536,13.63662608820064,948,26,0.0,15,40414364314890,8,36.9,-57.48816680908203,0.0272000003606081,0,0.0,0.0,1.57542003E9,,,,0,,1,0.14,1.57542003E9
Raw,230686251,230689934000000,,,-1457982524498333507,-0.18021392822265625,34.33701567701064,2.5196807524232536,13.63662608820064,948,27,0.0,15,40414353835391,24,25.3,-597.8777465820312,0.40130001306533813,0,0.0,0.0,1.57542003E9,,,,0,,1,0.14,1.57542003E9
Raw,230686251,230689934000000,,,-1457982524498333507,-0.18021392822265625,34.33701567701064,2.5196807524232536,13.63662608820064,948,28,0.0,15,40414353670652,11,33.4,647.5552978515625,0.04240000247955322,0,0.0,0.0,1.57542003E9,,,,0,,1,0.14,1.57542003E9
Raw,230686251,230689934000000,,,-1457982524498333507,-0.18021392822265625,34.33701567701064,2.5196807524232536,13.63662608820064,948,31,0.0,15,40414358125327,6,38.5,469.6884460449219,0.0471000038087368,0,0.0,0.0,1.57542003E9,,,,0,,1,0.14,1.57542003E9
Raw,230686252,230689934000000,,,-1457982524498333507,-0.18021392822265625,34.33701567701064,2.5196807524232536,13.63662608820064,948,13,0.0,7183,40414347138862,61,18.7,408.93157958984375,0.8689999580383301,0,0.0,0.0,1.57542003E9,,,,0,,6,0.11,1.57542003E9
Raw,230686253,230689934000000,,,-1457982524498333507,-0.18021392822265625,34.33701567701064,2.5196807524232536,13.63662608820064,948,21,0.0,7183,40414346546105,53,19.3,419.473876953125,0.7985000014305115,0,0.0,0.0,1.57542003E9,,,,0,,6,0.11,1.57542003E9
Raw,230686253,230689934000000,,,-1457982524498333507,-0.18021392822265625,34.33701567701064,2.5196807524232536,13.63662608820064,948,23,0.0,7183,40414354832182,40,21.4,-9.438566207885742,0.6934999823570251,0,0.0,0.0,1.57542003E9,,,,0,,6,0.11,1.57542003E9
Raw,230686254,230689934000000,,,-1457982524498333507,-0.18021392822265625,34.33701567701064,2.5196807524232536,13.63662608820064,948,26,0.0,7183,40414354137355,14,30.1,-112.28072357177734,0.052800003439188004,0,0.0,0.0,1.57542003E9,,,,0,,6,0.11,1.57542003E9
Raw,230686255,230689934000000,,,-1457982524498333507,-0.18021392822265625,34.33701567701064,2.5196807524232536,13.63662608820064,948,31,0.0,7183,40414347366779,17,28.5,-421.2183837890625,0.06180000305175781,0,0.0,0.0,1.57542003E9,,,,0,,6,0.11,1.57542003E9
Fix,gps,45.101783,7.634043,314.776367,0.800000,3.216000,1774177998000
Raw,230687240,230690934000000,,,-1457982524498333505,-0.7199001312255859,32.108218874782324,2.5816186540684907,13.566619288092436,948,14,0.0,207,51197367793803,7,37.2,-179.40628051757812,0.23109999299049377,0,0.0,0.0,1.59806246E9,,,,0,,3,-0.65,1.59806246E9
Raw,230687240,230690934000000,,,-1457982524498333505,-0.7199001312255859,32.108218874782324,2.5816186540684907,13.566619288092436,948,24,0.0,207,51197367267838,16,29.8,-206.02630615234375,0.23719999194145203,0,0.0,0.0,1.60312499E9,,,,0,,3,-0.65,1.60312499E9
Raw,230687241,230690934000000,,,-1457982524498333505,-0.7199001312255859,32.108218874782324,2.5816186540684907,13.566619288092436,948,23,0.0,207,51197361696972,126,14.9,617.7040405273438,3.9280002117156982,0,0.0,0.0,1.60368755E9,,,,0,,3,-0.65,1.60368755E9
Raw,230687241,230690934000000,,,-1457982524498333505,-0.7199001312255859,32.108218874782324,2.5816186540684907,13.566619288092436,948,16,0.0,15,40415360999382,9,35.0,-471.74993896484375,0.02160000056028366,0,0.0,0.0,1.57542003E9,,,,0,,1,0.07,1.57542003E9
Raw,230687242,230690934000000,,,-1457982524498333505,-0.7199001312255859,32.108218874782324,2.5816186540684907,13.566619288092436,948,18,0.0,15,40415363664394,9,35.2,-45.59019470214844,0.026100000366568565,0,0.0,0.0,1.57542003E9,,,,0,,1,0.07,1.57542003E9
Raw,230687242,230690934000000,,,-1457982524498333505,-0.7199001312255859,32.108218874782324,2.5816186540684907,13.566619288092436,948,26,0.0,15,40415364315093,11,33.5,-57.78414535522461,0.02890000119805336,0,0.0,0.0,1.57542003E9,,,,0,,1,0.07,1.57542003E9
Raw,230687243,230690934000000,,,-1457982524498333505,-0.7199001312255859,32.108218874782324,2.5816186540684907,13.566619288092436,948,27,0.0,15,40415353837426,11,33.6,-598.2539672851562,0.04240000247955322,0,0.0,0.0,1.57542003E9,,,,0,,1,0.07,1.57542003E9
Raw,230687243,230690934000000,,,-1457982524498333505,-0.7199001312255859,32.108218874782324,2.5816186540684907,13.566619288092436,948,28,0.0,15,40415353668491,10,34.7,647.0443115234375,0.041600000113248825,0,0.0,0.0,1.57542003E9,,,,0,,1,0.07,1.57542003E9
Raw,230687244,230690934000000,,,-1457982524498333505,-0.7199001312255859,32.108218874782324,2.5816186540684907,13.566619288092436,948,31,0.0,15,40415358123756,7,37.8,469.179443359375,0.047600001096725464,0,0.0,0.0,1.57542003E9,,,,0,,1,0.07,1.57542003E9
Raw,230687244,230690934000000,,,-1457982524498333505,-0.7199001312255859,32.108218874782324,2.5816186540684907,13.566619288092436,948,13,0.0,15,40401302812389,134,14.3,-209.8511505126953,4.169500350952148,0,0.0,0.0,1.56109798E9,,,,0,,5,-1.18,1.56109798E9
Raw,230687245,230690934000000,,,-1457982524498333505,-0.7199001312255859,32.108218874782324,2.5816186540684907,13.566619288092436,948,21,0.0,7183,40415346544711,21,26.0,420.4175720214844,0.12319999933242798,0,0.0,0.0,1.57542003E9,,,,0,,6,0.06,1.57542003E9
Raw,230687246,230690934000000,,,-1457982524498333505,-0.7199001312255859,32.108218874782324,2.5816186540684907,13.566619288092436,948,23,0.0,7183,40415354832195,27,24.6,-9.676433563232422,0.5534999966621399,0,0.0,0.0,1.57542003E9,,,,0,,6,0.06,1.57542003E9
Raw,230687246,230690934000000,,,-1457982524498333505,-0.7199001312255859,32.108218874782324,2.5816186540684907,13.566619288092436,948,26,0.0,7183,40415354137722,17,28.2,-112.2295150756836,0.06030000001192093,0,0.0,0.0,1.57542003E9,,,,0,,6,0.06,1.57542003E9
Raw,230687247,230690934000000,,,-1457982524498333505,-0.7199001312255859,32.108218874782324,2.5816186540684907,13.566619288092436,948,31,0.0,7183,40415347368167,16,29.6,-421.65545654296875,0.0552000030875206,0,0.0,0.0,1.57542003E9,,,,0,,6,0.06,1.57542003E9
Fix,gps,45.101781,7.634048,314.871643,1.490000,3.216000,1774177999000
Raw,230688266,230691934000000,,,-1457982524498333501,-0.011133193969726562,30.688253900734708,2.15344751967086,13.428053095248654,948,14,0.0,207,51198367794430,7,37.0,-179.48025512695312,0.23109999299049377,0,0.0,0.0,1.59806246E9,,,,0,,3,-0.71,1.59806246E9
Raw,230688266,230691934000000,,,-1457982524498333501,-0.011133193969726562,30.688253900734708,2.15344751967086,13.428053095248654,948,24,0.0,207,51198367268586,40,21.2,-206.47225952148438,1.056999921798706,0,0.0,0.0,1.60312499E9,,,,0,,3,-0.71,1.60312499E9
Raw,230688267,230691934000000,,,-1457982524498333501,-0.011133193969726562,30.688253900734708,2.15344751967086,13.428053095248654,948,23,0.0,207,51198361694970,27,24.4,618.2742309570312,0.8679999709129333,0,0.0,0.0,1.60368755E9,,,,0,,3,-0.71,1.60368755E9
Raw,230688268,230691934000000,,,-1457982524498333501,-0.011133193969726562,30.688253900734708,2.15344751967086,13.428053095248654,948,16,0.0,15,40416361000962,12,32.3,-471.8691101074219,0.02540000155568123,0,0.0,0.0,1.57542003E9,,,,0,,1,0.14,1.57542003E9
Raw,230688268,230691934000000,,,-1457982524498333501,-0.011133193969726562,30.688253900734708,2.15344751967086,13.428053095248654,948,18,0.0,15,40416363664525,16,29.8,-45.74468994140625,0.031200001016259193,0,0.0,0.0,1.57542003E9,,,,0,,1,0.14,1.57542003E9
Raw,230688269,230691934000000,,,-1457982524498333501,-0.011133193969726562,30.688253900734708,2.15344751967086,13.428053095248654,948,26,0.0,15,40416364315283,6,38.4,-57.89399719238281,0.026100000366568565,0,0.0,0.0,1.57542003E9,,,,0,,1,0.14,1.57542003E9
Raw,230688271,230691934000000,,,-1457982524498333501,-0.011133193969726562,30.688253900734708,2.15344751967086,13.428053095248654,948,27,0.0,15,40416353839440,11,33.4,-598.943359375,0.04240000247955322,0,0.0,0.0,1.57542003E9,,,,0,,1,0.14,1.57542003E9
Raw,230688271,230691934000000,,,-1457982524498333501,-0.011133193969726562,30.688253900734708,2.15344751967086,13.428053095248654,948,28,0.0,15,40416353666321,14,30.0,646.2212524414062,0.04530000314116478,0,0.0,0.0,1.57542003E9,,,,0,,1,0.14,1.57542003E9
Raw,230688272,230691934000000,,,-1457982524498333501,-0.011133193969726562,30.688253900734708,2.15344751967086,13.428053095248654,948,31,0.0,15,40416358122169,16,29.4,468.5392150878906,0.053700003772974014,0,0.0,0.0,1.57542003E9,,,,0,,1,0.14,1.57542003E9
Raw,230688273,230691934000000,,,-1457982524498333501,-0.011133193969726562,30.688253900734708,2.15344751967086,13.428053095248654,948,13,0.0,7183,40416347136138,42,21.1,409.8450012207031,1.4390000104904175,0,0.0,0.0,1.57542003E9,,,,0,,6,0.15,1.57542003E9
Raw,230688273,230691934000000,,,-1457982524498333501,-0.011133193969726562,30.688253900734708,2.15344751967086,13.428053095248654,948,21,0.0,7183,40416346543307,21,26.8,420.3848876953125,0.12319999933242798,0,0.0,0.0,1.57542003E9,,,,0,,6,0.15,1.57542003E9
Raw,230688274,230691934000000,,,-1457982524498333501,-0.011133193969726562,30.688253900734708,2.15344751967086,13.428053095248654,948,23,0.0,7183,40416354832212,21,26.1,-9.629020690917969,0.13819999992847443,0,0.0,0.0,1.57542003E9,,,,0,,6,0.15,1.57542003E9
Raw,230688275,230691934000000,,,-1457982524498333501,-0.011133193969726562,30.688253900734708,2.15344751967086,13.428053095248654,948,26,0.0,7183,40416354138085,17,28.4,-112.30078887939453,0.06030000001192093,0,0.0,0.0,1.57542003E9,,,,0,,6,0.15,1.57542003E9
Raw,230688275,230691934000000,,,-1457982524498333501,-0.011133193969726562,30.688253900734708,2.15344751967086,13.428053095248654,948,31,0.0,7183,40416347369571,21,26.7,-421.8858642578125,0.1397000104188919,0,0.0,0.0,1.57542003E9,,,,0,,6,0.15,1.57542003E9
Fix,gps,45.101779,7.634047,315.072815,2.260000,3.216000,1774178000000
Raw,230689260,230692934000000,,,-1457982524498333501,-0.24955177307128906,30.587369110435247,1.3391952806942529,11.882618865400612,948,14,0.0,207,51199367795003,9,35.0,-179.5108184814453,0.2320999950170517,0,0.0,0.0,1.59806246E9,,,,0,,3,-0.93,1.59806246E9
Raw,230689261,230692934000000,,,-1457982524498333501,-0.24955177307128906,30.587369110435247,1.3391952806942529,11.882618865400612,948,24,0.0,207,51199367269197,21,26.7,-206.4568328857422,0.32170000672340393,0,0.0,0.0,1.60312499E9,,,,0,,3,-0.93,1.60312499E9
Raw,230689261,230692934000000,,,-1457982524498333501,-0.24955177307128906,30.587369110435247,1.3391952806942529,11.882618865400612,948,23,0.0,207,51199361692979,14,30.5,619.0689697265625,0.2273000031709671,0,0.0,0.0,1.60368755E9,,,,0,,3,-0.93,1.60368755E9
Raw,230689262,230692934000000,,,-1457982524498333501,-0.24955177307128906,30.587369110435247,1.3391952806942529,11.882618865400612,948,16,0.0,15,40417361002574,19,27.7,-471.6903076171875,0.04280000180006027,0,0.0,0.0,1.57542003E9,,,,0,,1,-0.24,1.57542003E9
Raw,230689262,230692934000000,,,-1457982524498333501,-0.24955177307128906,30.587369110435247,1.3391952806942529,11.882618865400612,948,18,0.0,15,40417363664555,40,21.9,-46.04155349731445,0.7910000085830688,0,0.0,0.0,1.57542003E9,,,,0,,1,-0.24,1.57542003E9
Raw,230689263,230692934000000,,,-1457982524498333501,-0.24955177307128906,30.587369110435247,1.3391952806942529,11.882618865400612,948,26,0.0,15,40417364315471,5,40.7,-57.945770263671875,0.02540000155568123,0,0.0,0.0,1.57542003E9,,,,0,,1,-0.24,1.57542003E9
Raw,230689263,230692934000000,,,-1457982524498333501,-0.24955177307128906,30.587369110435247,1.3391952806942529,11.882618865400612,948,27,0.0,15,40417353841438,16,29.0,-599.8003540039062,0.04620000347495079,0,0.0,0.0,1.57542003E9,,,,0,,1,-0.24,1.57542003E9
Raw,230689264,230692934000000,,,-1457982524498333501,-0.24955177307128906,30.587369110435247,1.3391952806942529,11.882618865400612,948,28,0.0,15,40417353664161,17,28.8,646.1943969726562,0.052799999713897705,0,0.0,0.0,1.57542003E9,,,,0,,1,-0.24,1.57542003E9
Raw,230689264,230692934000000,,,-1457982524498333501,-0.24955177307128906,30.587369110435247,1.3391952806942529,11.882618865400612,948,31,0.0,15,40417358120637,13,31.3,468.1252136230469,0.05220000073313713,0,0.0,0.0,1.57542003E9,,,,0,,1,-0.24,1.57542003E9
Raw,230689265,230692934000000,,,-1457982524498333501,-0.24955177307128906,30.587369110435247,1.3391952806942529,11.882618865400612,948,13,0.0,15,40403302813713,55,19.8,-207.83473205566406,1.5394999980926514,0,0.0,0.0,1.56109798E9,,,,0,,5,-1.69,1.56109798E9
Raw,230689265,230692934000000,,,-1457982524498333501,-0.24955177307128906,30.587369110435247,1.3391952806942529,11.882618865400612,948,13,0.0,7183,40417347134788,19,27.3,410.5909729003906,0.06379999965429306,0,0.0,0.0,1.57542003E9,,,,0,,6,-0.1,1.57542003E9
Raw,230689266,230692934000000,,,-1457982524498333501,-0.24955177307128906,30.587369110435247,1.3391952806942529,11.882618865400612,948,21,0.0,7183,40417346541891,31,23.8,420.6061096191406,0.5885000228881836,0,0.0,0.0,1.57542003E9,,,,0,,6,-0.1,1.57542003E9
Raw,230689266,230692934000000,,,-1457982524498333501,-0.24955177307128906,30.587369110435247,1.3391952806942529,11.882618865400612,948,23,0.0,7183,40417354832280,27,24.0,-9.105552673339844,0.5534999966621399,0,0.0,0.0,1.57542003E9,,,,0,,6,-0.1,1.57542003E9
Raw,230689267,230692934000000,,,-1457982524498333501,-0.24955177307128906,30.587369110435247,1.3391952806942529,11.882618865400612,948,26,0.0,7183,40417354138465,14,30.1,-112.12848663330078,0.052800003439188004,0,0.0,0.0,1.57542003E9,,,,0,,6,-0.1,1.57542003E9
Raw,230689268,230692934000000,,,-1457982524498333501,-0.24955177307128906,30.587369110435247,1.3391952806942529,11.882618865400612,948,31,0.0,7183,40417347370997,19,27.8,-422.36962890625,0.06980000436306,0,0.0,0.0,1.57542003E9,,,,0,,6,-0.1,1.57542003E9
Fix,gps,45.101774,7.634038,315.422119,2.710000,3.216000,1774178001000
Raw,230690255,230693934000000,,,-1457982524498333497,-0.4646568298339844,29.929333322797902,2.2713080331181206,11.020540648432265,948,14,0.0,207,51200367795607,7,37.2,-179.44796752929688,0.23109999299049377,0,0.0,0.0,1.59806246E9,,,,0,,3,-0.98,1.59806246E9
Raw,230690256,230693934000000,,,-1457982524498333497,-0.4646568298339844,29.929333322797902,2.2713080331181206,11.020540648432265,948,24,0.0,207,51200367270149,61,18.1,-206.6405792236328,1.2869999408721924,0,0.0,0.0,1.60312499E9,,,,0,,3,-0.98,1.60312499E9
Raw,230690257,230693934000000,,,-1457982524498333497,-0.4646568298339844,29.929333322797902,2.2713080331181206,11.020540648432265,948,23,0.0,207,51200361690850,35,22.0,619.6295166015625,0.9879999756813049,0,0.0,0.0,1.60368755E9,,,,0,,3,-0.98,1.60368755E9
Raw,230690258,230693934000000,,,-1457982524498333497,-0.4646568298339844,29.929333322797902,2.2713080331181206,11.020540648432265,948,16,0.0,15,40418361004100,14,30.5,-472.6248474121094,0.027300000190734863,0,0.0,0.0,1.57542003E9,,,,0,,1,-0.0,1.57542003E9
Raw,230690258,230693934000000,,,-1457982524498333497,-0.4646568298339844,29.929333322797902,2.2713080331181206,11.020540648432265,948,18,0.0,15,40418363664848,14,30.4,-45.042510986328125,0.42100000381469727,0,0.0,0.0,1.57542003E9,,,,0,,1,-0.0,1.57542003E9
Raw,230690259,230693934000000,,,-1457982524498333497,-0.4646568298339844,29.929333322797902,2.2713080331181206,11.020540648432265,948,26,0.0,15,40418364315674,5,40.3,-57.97356414794922,0.02540000155568123,0,0.0,0.0,1.57542003E9,,,,0,,1,-0.0,1.57542003E9
Raw,230690260,230693934000000,,,-1457982524498333497,-0.4646568298339844,29.929333322797902,2.2713080331181206,11.020540648432265,948,27,0.0,15,40418353843436,10,34.7,-600.1187744140625,0.041600000113248825,0,0.0,0.0,1.57542003E9,,,,0,,1,-0.0,1.57542003E9
Raw,230690260,230693934000000,,,-1457982524498333497,-0.4646568298339844,29.929333322797902,2.2713080331181206,11.020540648432265,948,28,0.0,15,40418353662000,14,30.4,646.388916015625,0.04530000314116478,0,0.0,0.0,1.57542003E9,,,,0,,1,-0.0,1.57542003E9
Raw,230690262,230693934000000,,,-1457982524498333497,-0.4646568298339844,29.929333322797902,2.2713080331181206,11.020540648432265,948,31,0.0,15,40418358119076,13,31.1,468.0839538574219,0.05220000073313713,0,0.0,0.0,1.57542003E9,,,,0,,1,-0.0,1.57542003E9
Raw,230690262,230693934000000,,,-1457982524498333497,-0.4646568298339844,29.929333322797902,2.2713080331181206,11.020540648432265,948,13,0.0,15,40404302814477,24,25.1,-207.02081298828125,0.384799987077713,0,0.0,0.0,1.56109798E9,,,,0,,5,-1.76,1.56109798E9
Raw,230690263,230693934000000,,,-1457982524498333497,-0.4646568298339844,29.929333322797902,2.2713080331181206,11.020540648432265,948,13,0.0,7183,40418347133424,13,31.1,410.6781311035156,0.047700002789497375,0,0.0,0.0,1.57542003E9,,,,0,,6,0.06,1.57542003E9
Raw,230690264,230693934000000,,,-1457982524498333497,-0.4646568298339844,29.929333322797902,2.2713080331181206,11.020540648432265,948,21,0.0,7183,40418346540527,21,26.2,421.257080078125,0.12319999933242798,0,0.0,0.0,1.57542003E9,,,,0,,6,0.06,1.57542003E9
Raw,230690264,230693934000000,,,-1457982524498333497,-0.4646568298339844,29.929333322797902,2.2713080331181206,11.020540648432265,948,23,0.0,7183,40418354832339,53,19.5,-9.762064933776855,0.8134999871253967,0,0.0,0.0,1.57542003E9,,,,0,,6,0.06,1.57542003E9
Raw,230690265,230693934000000,,,-1457982524498333497,-0.4646568298339844,29.929333322797902,2.2713080331181206,11.020540648432265,948,26,0.0,7183,40418354138826,31,23.9,-111.06490325927734,0.6035000085830688,0,0.0,0.0,1.57542003E9,,,,0,,6,0.06,1.57542003E9
Raw,230690266,230693934000000,,,-1457982524498333497,-0.4646568298339844,29.929333322797902,2.2713080331181206,11.020540648432265,948,31,0.0,7183,40418347372376,24,25.3,-422.8227233886719,0.4253000020980835,0,0.0,0.0,1.57542003E9,,,,0,,6,0.06,1.57542003E9
Fix,gps,45.101767,7.634023,315.909912,3.340000,3.216000,1774178002000
Raw,230691252,230694934000000,,,-1457982524498333495,-0.5275058746337891,26.688841899158433,2.284428343547587,10.370130649412733,948,14,0.0,207,51201367796228,8,36.8,-179.439697265625,0.23170000314712524,0,0.0,0.0,1.59806246E9,,,,0,,3,-1.07,1.59806246E9
Raw,230691253,230694934000000,,,-1457982524498333495,-0.5275058746337891,26.688841899158433,2.284428343547587,10.370130649412733,948,24,0.0,207,51201367270678,70,17.1,-206.7995147705078,1.3769999742507935,0,0.0,0.0,1.60312499E9,,,,0,,3,-1.07,1.60312499E9
Raw,230691254,230694934000000,,,-1457982524498333495,-0.5275058746337891,26.688841899158433,2.284428343547587,10.370130649412733,948,23,0.0,207,51201361688927,31,23.0,619.0032348632812,0.9279999732971191,0,0.0,0.0,1.60368755E9,,,,0,,3,-1.07,1.60368755E9
