# 
# Header Description:
# 
# Version: v3.1.1.2 Platform: 13 Manufacturer: samsung Model: SM-A515F GNSS Hardware Model Name: S.LSI,K102
# 
# Raw,utcTimeMillis,TimeNanos,LeapSecond,TimeUncertaintyNanos,FullBiasNanos,BiasNanos,BiasUncertaintyNanos,DriftNanosPerSecond,DriftUncertaintyNanosPerSecond,HardwareClockDiscontinuityCount,Svid,TimeOffsetNanos,State,ReceivedSvTimeNanos,ReceivedSvTimeUncertaintyNanos,Cn0DbHz,PseudorangeRateMetersPerSecond,PseudorangeRateUncertaintyMetersPerSecond,AccumulatedDeltaRangeState,AccumulatedDeltaRangeMeters,AccumulatedDeltaRangeUncertaintyMeters,CarrierFrequencyHz,CarrierCycles,CarrierPhase,CarrierPhaseUncertainty,MultipathIndicator,SnrInDb,ConstellationType,AgcDb,BasebandCn0DbHz,FullInterSignalBiasNanos,FullInterSignalBiasUncertaintyNanos,SatelliteInterSignalBiasNanos,SatelliteInterSignalBiasUncertaintyNanos,CodeType,ChipsetElapsedRealtimeNanos,IsFullTracking,SvPositionEcefXMeters,SvPositionEcefYMeters,SvPositionEcefZMeters,SvVelocityEcefXMetersPerSecond,SvVelocityEcefYMetersPerSecond,SvVelocityEcefZMetersPerSecond,SvClockBiasMeters,SvClockDriftMetersPerSecond,KlobucharAlpha0,KlobucharAlpha1,KlobucharAlpha2,KlobucharAlpha3,KlobucharBeta0,KlobucharBeta1,KlobucharBeta2,KlobucharBeta3
# 
# UncalAccel,utcTimeMillis,elapsedRealtimeNanos,UncalAccelXMps2,UncalAccelYMps2,UncalAccelZMps2,BiasXMps2,BiasYMps2,BiasZMps2,CalibrationAccuracy
# 
# Accel,utcTimeMillis,elapsedRealtimeNanos,AccelXMps2,AccelYMps2,AccelZMps2,CalibrationAccuracy
# 
# UncalGyro,utcTimeMillis,elapsedRealtimeNanos,UncalGyroXRadPerSec,UncalGyroYRadPerSec,UncalGyroZRadPerSec,DriftXRadPerSec,DriftYRadPerSec,DriftZRadPerSec,CalibrationAccuracy
# 
# Gyro,utcTimeMillis,elapsedRealtimeNanos,GyroXRadPerSec,GyroYRadPerSec,GyroZRadPerSec,CalibrationAccuracy
# 
# UncalMag,utcTimeMillis,elapsedRealtimeNanos,UncalMagXMicroT,UncalMagYMicroT,UncalMagZMicroT,BiasXMicroT,BiasYMicroT,BiasZMicroT,CalibrationAccuracy
# 
# Mag,utcTimeMillis,elapsedRealtimeNanos,MagXMicroT,MagYMicroT,MagZMicroT,CalibrationAccuracy
# 
# Pressure,utcTimeMillis,elapsedRealtimeNanos,PressureHpa,CalibrationAccuracy
# 
# OrientationDeg,utcTimeMillis,elapsedRealtimeNanos,yawDeg,rollDeg,pitchDeg,CalibrationAccuracy
# 
# Fix,Provider,LatitudeDegrees,LongitudeDegrees,AltitudeMeters,SpeedMps,AccuracyMeters,BearingDegrees,UnixTimeMillis,SpeedAccuracyMps,BearingAccuracyDegrees,elapsedRealtimeNanos,VerticalAccuracyMeters,MockLocation,NumberOfUsedSignals,VerticalSpeedAccuracyMps,SolutionType
# 
# Nav,Svid,Type,Status,MessageId,Sub-messageId,Data(Bytes)
# 
# Status,UnixTimeMillis,SignalCount,SignalIndex,ConstellationType,Svid,CarrierFrequencyHz,Cn0DbHz,AzimuthDegrees,ElevationDegrees,UsedInFix,HasAlmanacData,HasEphemerisData,BasebandCn0DbHz
# 
# Agc,utcTimeMillis,TimeNanos,LeapSecond,TimeUncertaintyNanos,FullBiasNanos,BiasNanos,BiasUncertaintyNanos,DriftNanosPerSecond,DriftUncertaintyNanosPerSecond,HardwareClockDiscontinuityCount,AgcDb,CarrierFrequencyHz,ConstellationType
# 
# GameRotationVector,utcTimeMillis,elapsedRealtimeNanos,x,y,z,w
# 
Raw,1774277049000,5650770298,18,0.0,-1458312261349229824,0.0,50.034610748291016,62206.890625,0.0,0,8,0.0,47,139466932694499,17,31.399999618530273,208.22946166992188,0.14348027110099792,16,0.0,0.10145489969551563,1575420000,,,,0,0.0,1,3.9000000953674316,26.399999618530273,0.0,0.0,0.0,0.0,C,1053971547437441,,17103319.995504387,-2659053.9066758854,20072206.92406412,1640.8067682045614,2000.7531358246326,-1074.646380679986,142029.6715383319,-0.0020516586664598435,0.000000016763806343078613,0.000000007450580596923828,-0.00000011920928955078125,-0.000000059604644775390625,110592.0,16384.0,-262144.0,-65536.0
Raw,1774277049000,5650770298,18,0.0,-1458312261349229824,0.0,50.034610748291016,62206.890625,0.0,0,2,0.0,47,139466928388418,19,29.600000381469727,36.205936431884766,0.16524554789066315,20,-24.423466235961314,0.1168451269134879,1575420000,,,,0,23.600000381469727,1,3.9000000953674316,24.600000381469727,0.0,0.0,0.0,0.0,C,1053971547437441,,16146611.028062588,-11871881.385914018,17525564.12521182,-426.2427311544393,2137.070476468445,1938.1865174828624,19118.99974602965,0.0025922433196683414,0.000000016763806343078613,0.000000007450580596923828,-0.00000011920928955078125,-0.000000059604644775390625,110592.0,16384.0,-262144.0,-65536.0
Raw,1774277049000,5650770298,18,0.0,-1458312261349229824,0.0,50.034610748291016,62206.890625,0.0,0,27,0.0,47,139466931582064,25,25.799999237060547,630.8577880859375,0.23113907873630524,20,-440.96037723552763,0.16343844257444143,1575420000,,,,0,20.899999618530273,1,3.9000000953674316,20.799999237060547,0.0,0.0,0.0,0.0,C,1053971547437441,,20487274.997962236,8389034.38247778,14622677.23301972,1055.3845272440578,1600.1112620222798,-2295.6425975462525,-23545.19754676702,-0.0041297822463093325,0.000000016763806343078613,0.000000007450580596923828,-0.00000011920928955078125,-0.000000059604644775390625,110592.0,16384.0,-262144.0,-65536.0
Raw,1774277049000,5650770298,18,0.0,-1458312261349229824,0.0,50.034610748291016,62206.890625,0.0,0,32,0.0,47,139466920387149,24,26.799999237060547,-173.5533905029297,0.21042001247406006,20,122.55775074604571,0.14878799082040786,1575420000,,,,0,27.799999237060547,1,3.9000000953674316,21.799999237060547,0.0,0.0,0.0,0.0,C,1053971547437441,,16003263.219069462,21283985.865775958,1590957.7054852233,-294.0214605754485,24.17038055149441,3170.330354074383,-10342.911400083141,0.006090872520871926,0.000000016763806343078613,0.000000007450580596923828,-0.00000011920928955078125,-0.000000059604644775390625,110592.0,16384.0,-262144.0,-65536.0
Raw,1774277049000,5650770298,18,0.0,-1458312261349229824,0.0,50.034610748291016,62206.890625,0.0,0,1,0.0,47,139466920715518,32,23.0,-230.7699737548828,0.3086419701576233,20,162.40776219535292,0.2182407370984554,1575420000,,,,0,17.100000381469727,1,3.9000000953674316,18.0,0.0,0.0,0.0,0.0,C,1053971547437441,,15244483.53986155,-20546429.442407794,6973426.885751557,-128.14253111351988,923.5851307175656,3006.1311804511924,93618.87666386351,-0.0022736807441106066,0.000000016763806343078613,0.000000007450580596923828,-0.00000011920928955078125,-0.000000059604644775390625,110592.0,16384.0,-262144.0,-65536.0
Raw,1774277049000,5650770298,18,0.0,-1458312261349229824,0.0,50.034610748291016,62206.890625,0.0,0,36,0.0,815,139452917520972,14,35.099998474121094,577.9760131835938,0.11037405580282211,22,-403.8165933122891,0.07804549485817551,1561098000,,,,0,34.0,5,3.9000000953674316,30.100000381469727,0.0,0.0,0.0,0.0,C,1053971547437441,,12713728.87350222,-21230957.899617985,12931023.92087663,1265.6348507298103,-773.0737228821306,-2515.3859765294965,88190.25578973057,-0.0007139057561289519,0.000000016763806343078613,0.000000007450580596923828,-0.00000011920928955078125,-0.000000059604644775390625,110592.0,16384.0,-262144.0,-65536.0
Raw,1774277049000,5650770298,18,0.0,-1458312261349229824,0.0,50.034610748291016,62206.890625,0.0,0,19,0.0,239,63848932726782,15,33.29999923706055,38.92933654785156,0.12486109882593155,22,-23.900729716386195,0.0882892829798162,1603687600,,,,0,28.399999618530273,3,3.9000000953674316,28.299999237060547,0.0,0.0,0.0,0.0,C,1053971547437441,,11164476.305640116,-7841519.037524643,21556090.76842012,-333.70742607458465,2933.0415017655228,1234.4947467489792,11774.964640072692,0.0005453193043649662,0.000000016763806343078613,0.000000007450580596923828,-0.00000011920928955078125,-0.000000059604644775390625,110592.0,16384.0,-262144.0,-65536.0
Raw,1774277049000,5650770298,18,0.0,-1458312261349229824,0.0,50.034610748291016,62206.890625,0.0,0,30,0.0,815,139452924784246,25,26.200000762939453,-7.659127235412598,0.2224990874528885,20,6.087307489846353,0.15732910473793743,1561098000,,,,0,24.600000381469727,5,3.9000000953674316,21.200000762939453,0.0,0.0,0.0,0.0,C,1053971547437441,,13902443.5284779,-11042829.479594423,21508692.98575192,446.5415511458579,2423.791809360522,957.0035720759191,123678.11483445468,0.002315645047929138,0.000000016763806343078613,0.000000007450580596923828,-0.00000011920928955078125,-0.000000059604644775390625,110592.0,16384.0,-262144.0,-65536.0
Raw,1774277049000,5650770298,18,0.0,-1458312261349229824,0.0,50.034610748291016,62206.890625,0.0,0,9,0.0,239,63848929144716,24,26.299999237060547,624.17236328125,0.22041483223438263,16,0.0,0.15585532787293194,1600875000,,,,0,0.0,3,3.9000000953674316,21.299999237060547,0.0,0.0,0.0,0.0,C,1053971547437441,,14787942.738914846,-15764530.441801436,13492352.124404937,1578.8576088683908,-959.4134183298895,-2863.955158018632,94598.72369319384,0.0005453193043649662,0.000000016763806343078613,0.000000007450580596923828,-0.00000011920928955078125,-0.000000059604644775390625,110592.0,16384.0,-262144.0,-65536.0
Raw,1774277050000,6650771397,18,0.0,-1458312261349228544,0.0,50.034610748291016,62205.7421875,0.0,0,8,0.0,47,139467932694952,17,31.399999618530273,207.9073486328125,0.14348027110099792,20,-206.79173814447495,0.10145489969551563,1575420000,,,,0,25.700000762939453,1,2.5999999046325684,26.399999618530273,0.0,0.0,0.0,0.0,C,1053972558015595,,17104960.81133656,-2657053.2509003403,20071132.06234275,1640.8234006556486,2000.5565968216629,-1075.0760840221928,142029.669486756,-0.002051491232123226,0.000000016763806343078613,0.000000007450580596923828,-0.00000011920928955078125,-0.000000059604644775390625,110592.0,16384.0,-262144.0,-65536.0
Raw,1774277050000,6650771397,18,0.0,-1458312261349228544,0.0,50.034610748291016,62205.7421875,0.0,0,32,0.0,47,139467920388808,19,29.700000762939453,-173.7269287109375,0.16391023993492126,20,297.4007126391116,0.11590093065798282,1575420000,,,,0,27.5,1,2.5999999046325684,24.700000762939453,0.0,0.0,0.0,0.0,C,1053972558015595,,16002969.07340752,21284009.890767667,1594128.0243823547,-294.26889337504326,23.879529322506357,3170.296910160002,-10342.905309140744,0.006090992063036538,0.000000016763806343078613,0.000000007450580596923828,-0.00000011920928955078125,-0.000000059604644775390625,110592.0,16384.0,-262144.0,-65536.0
Raw,1774277050000,6650771397,18,0.0,-1458312261349228544,0.0,50.034610748291016,62205.7421875,0.0,0,2,0.0,47,139467928389376,20,29.399999618530273,36.61658477783203,0.1679656058549881,20,-59.81076359374492,0.11876847990006208,1575420000,,,,0,31.200000762939453,1,2.5999999046325684,24.399999618530273,0.0,0.0,0.0,0.0,C,1053972558015595,,16146184.813187912,-11869744.188507967,17527502.12846983,-426.1861939678646,2137.320233480017,1937.8162790020947,19119.002338396436,0.0025924852743628435,0.000000016763806343078613,0.000000007450580596923828,-0.00000011920928955078125,-0.000000059604644775390625,110592.0,16384.0,-262144.0,-65536.0
Raw,1774277050000,6650771397,18,0.0,-1458312261349228544,0.0,50.034610748291016,62205.7421875,0.0,0,27,0.0,47,139467931581063,26,25.600000381469727,630.7090454101562,0.235648974776268,20,-1070.6118989251372,0.1666273900642991,1575420000,,,,0,18.299999237060547,1,2.5999999046325684,20.600000381469727,0.0,0.0,0.0,0.0,C,1053972558015595,,20488330.333963774,8390634.347963752,14620381.43666509,1055.2895791971623,1599.8229112626873,-2295.954699352422,-23545.20167644013,-0.004129572247620672,0.000000016763806343078613,0.000000007450580596923828,-0.00000011920928955078125,-0.000000059604644775390625,110592.0,16384.0,-262144.0,-65536.0
Raw,1774277050000,6650771397,18,0.0,-1458312261349228544,0.0,50.034610748291016,62205.7421875,0.0,0,1,0.0,47,139467920717241,33,22.799999237060547,-230.43917846679688,0.31561675667762756,20,393.96302523093254,0.22317260864675043,1575420000,,,,0,16.299999237060547,1,2.5999999046325684,17.799999237060547,0.0,0.0,0.0,0.0,C,1053972558015595,,15244355.342052411,-20545505.68134696,6976432.947547886,-128.2526366356611,923.9338077998689,3005.9820425731405,93618.87439018137,-0.002273675738251768,0.000000016763806343078613,0.000000007450580596923828,-0.00000011920928955078125,-0.000000059604644775390625,110592.0,16384.0,-262144.0,-65536.0
Raw,1774277050000,6650771397,18,0.0,-1458312261349228544,0.0,50.034610748291016,62205.7421875,0.0,0,36,0.0,815,139453917520148,14,35.5,577.9772338867188,0.10749798268079758,17,-980.7203922644076,0.07601182355359196,1561098000,,,,0,30.200000762939453,5,2.5999999046325684,30.5,0.0,0.0,0.0,0.0,C,1053972558015595,,12714994.368336288,-21231730.92704822,12928508.418566784,1265.356902385577,-772.9824031368347,-2515.622781026262,88190.25507582394,-0.0007139086374081671,0.000000016763806343078613,0.000000007450580596923828,-0.00000011920928955078125,-0.000000059604644775390625,110592.0,16384.0,-262144.0,-65536.0
Raw,1774277050000,6650771397,18,0.0,-1458312261349228544,0.0,50.034610748291016,62205.7421875,0.0,0,19,0.0,239,63849932727698,15,34.29999923706055,39.06345748901367,0.11648360639810562,17,-77.69441317392557,0.08236555808410048,1603687600,,,,0,30.700000762939453,3,2.5999999046325684,29.299999237060547,0.0,0.0,0.0,0.0,C,1053972558015595,,11164142.707490737,-7838585.895771575,21557325.00553261,-333.488250321069,2933.2366461435513,1233.977229237785,11774.965185392497,0.0005453193043649662,0.000000016763806343078613,0.000000007450580596923828,-0.00000011920928955078125,-0.000000059604644775390625,110592.0,16384.0,-262144.0,-65536.0
Raw,1774277050000,6650771397,18,0.0,-1458312261349228544,0.0,50.034610748291016,62205.7421875,0.0,0,9,0.0,239,63849929143732,18,31.100000381469727,623.9849853515625,0.14679761230945587,20,-623.5500964479324,0.10380059166401624,1600875000,,,,0,28.899999618530273,3,2.5999999046325684,26.100000381469727,0.0,0.0,0.0,0.0,C,1053972558015595,,14789521.386161845,-15765489.821392355,13489488.009512726,1578.4400164870758,-959.3476422637887,-2864.2802721010003,94598.72423851262,0.0005453193043649662,0.000000016763806343078613,0.000000007450580596923828,-0.00000011920928955078125,-0.000000059604644775390625,110592.0,16384.0,-262144.0,-65536.0
Raw,1774277050000,6650771397,18,0.0,-1458312261349228544,0.0,50.034610748291016,62205.7421875,0.0,0,28,0.0,815,139453917756641,20,28.799999237060547,813.2054443359375,0.17654122412204742,16,0.0,0.12483229957669972,1561098000,,,,0,0.0,5,2.5999999046325684,23.799999237060547,0.0,0.0,0.0,0.0,C,1053972558015595,,9872951.502798012,24256638.595602628,9646195.038017754,-17.250966834768626,1112.9654687129832,-2780.5866099251434,149320.33613360912,0.0014214941184036434,0.000000016763806343078613,0.000000007450580596923828,-0.00000011920928955078125,-0.000000059604644775390625,110592.0,16384.0,-262144.0,-65536.0
Raw,1774277050000,6650771397,18,0.0,-1458312261349228544,0.0,50.034610748291016,62205.7421875,0.0,0,30,0.0,815,139453924785402,22,27.799999237060547,-8.23210620880127,0.19236689805984497,20,15.435257658380579,0.13602263361811637,1561098000,,,,0,25.5,5,2.5999999046325684,22.799999237060547,0.0,0.0,0.0,0.0,C,1053972558015595,,13902890.156558998,-11040405.645481698,21509649.79282826,446.71357940590735,2423.8708027727125,956.608365568912,123678.11715010414,0.0023156485112849623,0.000000016763806343078613,0.000000007450580596923828,-0.00000011920928955078125,-0.000000059604644775390625,110592.0,16384.0,-262144.0,-65536.0
Raw,1774277051000,7650772558,18,0.0,-1458312261349227520,0.0,50.034610748291016,62207.88671875,0.0,0,2,0.0,47,139468928390442,19,30.0,36.368377685546875,0.1599999964237213,20,-95.10649079790164,0.11313599747121333,1575420000,,,,0,26.0,1,3.9000000953674316,25.0,0.0,0.0,0.0,0.0,C,1053973538294325,,16145758.654827282,-11867606.74113574,17529439.76167914,-426.1296111287714,2137.5699466632645,1937.446002248902,19119.004931005453,0.002592727221781388,0.000000016763806343078613,0.000000007450580596923828,-0.00000011920928955078125,-0.000000059604644775390625,110592.0,16384.0,-262144.0,-65536.0
Raw,1774277051000,7650772558,18,0.0,-1458312261349227520,0.0,50.034610748291016,62207.88671875,0.0,0,32,0.0,47,139468920390492,19,30.200000762939453,-174.4753875732422,0.15747039020061493,20,472.74441761190246,0.11134731291085481,1575420000,,,,0,24.0,1,3.9000000953674316,25.200000762939453,0.0,0.0,0.0,0.0,C,1053973538294325,,16002674.680286767,21284033.624926873,1597298.3098815454,-294.5163627716411,23.588715410565356,3170.263399782118,-10342.899218078654,0.006091111597925192,0.000000016763806343078613,0.000000007450580596923828,-0.00000011920928955078125,-0.000000059604644775390625,110592.0,16384.0,-262144.0,-65536.0
Raw,1774277051000,7650772558,18,0.0,-1458312261349227520,0.0,50.034610748291016,62207.88671875,0.0,0,8,0.0,47,139468932695461,17,31.200000762939453,207.29403686523438,0.14567914605140686,20,-413.1728526269799,0.10300972417294979,1575420000,,,,0,18.700000762939453,1,3.9000000953674316,26.200000762939453,0.0,0.0,0.0,0.0,C,1053973538294325,,17106601.643866446,-2655052.791569313,20070056.770870198,1640.839979868223,2000.3600229193382,-1075.5057622333118,142029.66743534742,-0.002051323826890439,0.000000016763806343078613,0.000000007450580596923828,-0.00000011920928955078125,-0.000000059604644775390625,110592.0,16384.0,-262144.0,-65536.0
Raw,1774277051000,7650772558,18,0.0,-1458312261349227520,0.0,50.034610748291016,62207.88671875,0.0,0,27,0.0,47,139468931580094,26,25.399999618530273,630.5440063476562,0.24029220640659332,20,-1700.1132477704232,0.16991061915010214,1575420000,,,,0,13.600000381469727,1,3.9000000953674316,20.399999618530273,0.0,0.0,0.0,0.0,C,1053973538294325,,20489385.57502301,8392234.025145099,14618085.328160953,1055.1945749150764,1599.534549828181,-2296.2667502097274,-23545.20580590338,-0.00412936225256999,0.000000016763806343078613,0.000000007450580596923828,-0.00000011920928955078125,-0.000000059604644775390625,110592.0,16384.0,-262144.0,-65536.0
Raw,1774277051000,7650772558,18,0.0,-1458312261349227520,0.0,50.034610748291016,62207.88671875,0.0,0,1,0.0,47,139468920719235,33,22.600000381469727,-229.46646118164062,0.32283055782318115,20,624.8715849895234,0.22827348743677137,1575420000,,,,0,18.0,1,3.9000000953674316,17.600000381469727,0.0,0.0,0.0,0.0,C,1053973538294325,,15244227.034129208,-20544581.57135743,6979438.860988529,-128.3626892198328,924.282486117342,3005.8328404058375,93618.87211650361,-0.0022736707323929295,0.000000016763806343078613,0.000000007450580596923828,-0.00000011920928955078125,-0.000000059604644775390625,110592.0,16384.0,-262144.0,-65536.0
Raw,1774277051000,7650772558,18,0.0,-1458312261349227520,0.0,50.034610748291016,62207.88671875,0.0,0,36,0.0,815,139454917519391,14,35.400001525878906,578.33837890625,0.1082063764333725,20,-1557.8353959802334,0.0765127287760377,1561098000,,,,0,22.299999237060547,5,3.9000000953674316,30.399999618530273,0.0,0.0,0.0,0.0,C,1053973538294325,,12716259.585305436,-21232503.863185275,12925992.679307094,1265.078950874502,-772.8910327573371,-2515.859539494602,88190.2543619144,-0.0007139115332392976,0.000000016763806343078613,0.000000007450580596923828,-0.00000011920928955078125,-0.000000059604644775390625,110592.0,16384.0,-262144.0,-65536.0
Raw,1774277051000,7650772558,18,0.0,-1458312261349227520,0.0,50.034610748291016,62207.88671875,0.0,0,19,0.0,239,63850932728771,15,34.29999923706055,39.05879211425781,0.11648360639810562,20,-103.15548450833012,0.08236555808410048,1603687600,,,,0,26.799999237060547,3,3.9000000953674316,29.299999237060547,0.0,0.0,0.0,0.0,C,1053973538294325,,11163809.328482296,-7835652.558456725,21558558.725305818,-333.2690399778469,2933.431703868471,1233.459681769826,11774.965730712385,0.0005453193043649662,0.000000016763806343078613,0.000000007450580596923828,-0.00000011920928955078125,-0.000000059604644775390625,110592.0,16384.0,-262144.0,-65536.0
Raw,1774277051000,7650772558,18,0.0,-1458312261349227520,0.0,50.034610748291016,62207.88671875,0.0,0,9,0.0,239,63850929142803,17,31.600000381469727,624.5527954101562,0.1413307636976242,20,-1249.1018680734342,0.09993498301059008,1600875000,,,,0,27.399999618530273,3,3.9000000953674316,26.600000381469727,0.0,0.0,0.0,0.0,C,1053973538294325,,14791099.615893329,-15766449.135220502,13486623.569383625,1578.022403745049,-959.2817869581738,-2864.6053174490685,94598.7247838314,0.0005453193043649662,0.000000016763806343078613,0.000000007450580596923828,-0.00000011920928955078125,-0.000000059604644775390625,110592.0,16384.0,-262144.0,-65536.0
Raw,1774277051000,7650772558,18,0.0,-1458312261349227520,0.0,50.034610748291016,62207.88671875,0.0,0,30,0.0,815,139454924786569,21,28.600000381469727,-7.8247389793396,0.17954610288143158,20,24.513392184322583,0.12695704934746027,1561098000,,,,0,21.899999618530273,5,3.9000000953674316,23.600000381469727,0.0,0.0,0.0,0.0,C,1053973538294325,,13903336.956676327,-11037981.732377183,21510606.2046994,446.8856133854202,2423.9497394313566,956.2131415302117,123678.1194657571,0.0023156520182965323,0.000000016763806343078613,0.000000007450580596923828,-0.00000011920928955078125,-0.000000059604644775390625,110592.0,16384.0,-262144.0,-65536.0
Raw,1774277051000,7650772558,18,0.0,-1458312261349227520,0.0,50.034610748291016,62207.88671875,0.0,0,28,0.0,815,139454917755071,21,28.600000381469727,813.5431518554688,0.17954610288143158,20,-812.4264856386944,0.12695704934746027,1561098000,,,,0,20.100000381469727,5,3.9000000953674316,23.600000381469727,0.0,0.0,0.0,0.0,C,1053973538294325,,9872934.268741274,24257751.4026768,9643414.36732794,-17.217208305275904,1112.6521706203098,-2780.763492545705,149320.33755510117,0.0014214943803381175,0.000000016763806343078613,0.000000007450580596923828,-0.00000011920928955078125,-0.000000059604644775390625,110592.0,16384.0,-262144.0,-65536.0
Raw,1774277052000,8650773658,18,0.0,-1458312261349226240,0.0,10.052260398864746,62208.43359375,0.0,0,2,0.0,47,139469928391422,19,30.0,37.11162185668945,0.1599999964237213,16,0.0,0.11313599747121333,1575420000,,,,0,23.799999237060547,1,3.9000000953674316,25.0,0.0,0.0,0.0,0.0,C,1053974543030747,,16145332.553109013,-11865469.04425586,17531377.0244256,-426.07298265563793,2137.8196159598606,1937.0756873034454,19119.007523856184,0.0025929691691999324,0.000000016763806343078613,0.000000007450580596923828,-0.00000011920928955078125,-0.000000059604644775390625,110592.0,16384.0,-262144.0,-65536.0
Raw,1774277052000,8650773658,18,0.0,-1458312261349226240,0.0,10.052260398864746,62208.43359375,0.0,0,32,0.0,47,139469920392205,19,30.200000762939453,-174.0151824951172,0.15747039020061493,16,0.0,0.11134731291085481,1575420000,,,,0,21.799999237060547,1,3.9000000953674316,25.200000762939453,0.0,0.0,0.0,0.0,C,1053974543030747,,16002380.039669327,21284057.068291042,1600468.561929018,-294.76386875705134,23.29793882428295,3170.2298229417647,-10342.893126896863,0.00609123112008092,0.000000016763806343078613,0.000000007450580596923828,-0.00000011920928955078125,-0.000000059604644775390625,110592.0,16384.0,-262144.0,-65536.0
Raw,1774277052000,8650773658,18,0.0,-1458312261349226240,0.0,10.052260398864746,62208.43359375,0.0,0,8,0.0,47,139469932695845,18,30.799999237060547,207.76585388183594,0.15023136138916016,16,0.0,0.10622859563827514,1575420000,,,,0,19.799999237060547,1,3.9000000953674316,25.799999237060547,0.0,0.0,0.0,0.0,C,1053974543030747,,17108242.492743824,-2653052.529079783,20068981.04986629,1640.8565058343215,2000.1634141645895,-1075.935415226567,142029.6653841065,-0.0020511564216576517,0.000000016763806343078613,0.000000007450580596923828,-0.00000011920928955078125,-0.000000059604644775390625,110592.0,16384.0,-262144.0,-65536.0
Raw,1774277052000,8650773658,18,0.0,-1458312261349226240,0.0,10.052260398864746,62208.43359375,0.0,0,27,0.0,47,139469931579068,27,25.100000381469727,629.8120727539062,0.2475186139345169,16,0.0,0.1750204119130969,1575420000,,,,0,17.799999237060547,1,3.9000000953674316,20.100000381469727,0.0,0.0,0.0,0.0,C,1053974543030747,,20490440.720989794,8393833.413868826,14615788.907762663,1055.099514406508,1599.2461777576816,-2296.5787500843485,-23545.209935156392,-0.00412915225388133,0.000000016763806343078613,0.000000007450580596923828,-0.00000011920928955078125,-0.000000059604644775390625,110592.0,16384.0,-262144.0,-65536.0
Raw,1774277052000,8650773658,18,0.0,-1458312261349226240,0.0,10.052260398864746,62208.43359375,0.0,0,1,0.0,47,139469920721122,34,22.399999618530273,-229.10955810546875,0.3302946388721466,16,0.0,0.23355133914649484,1575420000,,,,0,14.199999809265137,1,3.9000000953674316,17.399999618530273,0.0,0.0,0.0,0.0,C,1053974543030747,,15244098.616193451,-20543657.112787243,6982444.624872979,-128.472688822456,924.6311655248172,3005.6835740088945,93618.86984283107,-0.002273665726534091,0.000000016763806343078613,0.000000007450580596923828,-0.00000011920928955078125,-0.000000059604644775390625,110592.0,16384.0,-262144.0,-65536.0
Raw,1774277052000,8650773658,18,0.0,-1458312261349226240,0.0,10.052260398864746,62208.43359375,0.0,0,23,0.0,47,139469922670073,41,20.399999618530273,916.6407470703125,0.4216562807559967,16,0.0,0.29815315612256527,1575420000,,,,0,18.0,1,3.9000000953674316,15.399999618530273,0.0,0.0,0.0,0.0,C,1053974543030747,,-1494072.03871508,14943007.458665522,21954795.223173805,-2730.815597941507,435.20190736394215,-509.54768115041384,188127.30512438976,0.0015100949967745692,0.000000016763806343078613,0.000000007450580596923828,-0.00000011920928955078125,-0.000000059604644775390625,110592.0,16384.0,-262144.0,-65536.0
Raw,1774277052000,8650773658,18,0.0,-1458312261349226240,0.0,10.052260398864746,62208.43359375,0.0,0,19,0.0,239,63851932729810,15,34.20000076293945,37.666866302490234,0.11728279292583466,16,0.0,0.08293066287785768,1603687600,,,,0,21.100000381469727,3,3.9000000953674316,29.200000762939453,0.0,0.0,0.0,0.0,C,1053974543030747,,11163476.168713009,-7832719.02622708,21559791.927474145,-333.0497951034995,2933.6266748942617,1232.9421044563348,11774.966276032257,0.0005453193043649662,0.000000016763806343078613,0.000000007450580596923828,-0.00000011920928955078125,-0.000000059604644775390625,110592.0,16384.0,-262144.0,-65536.0
Raw,1774277052000,8650773658,18,0.0,-1458312261349226240,0.0,10.052260398864746,62208.43359375,0.0,0,9,0.0,239,63851929141768,17,31.600000381469727,625.8400268554688,0.1413307636976242,16,0.0,0.09993498301059008,1600875000,,,,0,21.0,3,3.9000000953674316,26.600000381469727,0.0,0.0,0.0,0.0,C,1053974543030747,,14792677.427835157,-15767408.383052044,13483758.804547526,1577.6047707289174,-959.2158524218992,-2864.9302940025414,94598.72532915014,0.0005453193043649662,0.000000016763806343078613,0.000000007450580596923828,-0.00000011920928955078125,-0.000000059604644775390625,110592.0,16384.0,-262144.0,-65536.0
Raw,1774277052000,8650773658,18,0.0,-1458312261349226240,0.0,10.052260398864746,62208.43359375,0.0,0,30,0.0,815,139455924787714,21,28.600000381469727,-8.745593070983887,0.17954610288143158,16,0.0,0.12695704934746027,1561098000,,,,0,22.899999618530273,5,3.9000000953674316,23.600000381469727,0.0,0.0,0.0,0.0,C,1053974543030747,,13903783.928820847,-11035557.74041764,21511562.221316244,447.0576530682037,2424.0286193319916,955.8178999801394,123678.12178141352,0.0023156554816523567,0.000000016763806343078613,0.000000007450580596923828,-0.00000011920928955078125,-0.000000059604644775390625,110592.0,16384.0,-262144.0,-65536.0
Raw,1774277052000,8650773658,18,0.0,-1458312261349226240,0.0,10.052260398864746,62208.43359375,0.0,0,28,0.0,815,139455917753482,21,28.200000762939453,813.4940795898438,0.18579070270061493,16,0.0,0.1313726058796048,1561098000,,,,0,18.100000381469727,5,3.9000000953674316,23.200000762939453,0.0,0.0,0.0,0.0,C,1053974543030747,,9872917.068420608,24258863.896422535,9640633.519834118,-17.183495248718536,1112.3388531217092,-2780.940324166317,149320.33897659343,0.0014214946422725916,0.000000016763806343078613,0.000000007450580596923828,-0.00000011920928955078125,-0.000000059604644775390625,110592.0,16384.0,-262144.0,-65536.0
Raw,1774277052000,8650773658,18,0.0,-1458312261349226240,0.0,10.052260398864746,62208.43359375,0.0,0,36,0.0,814,139455917518538,14,35.099998474121094,577.84228515625,0.11037405580282211,16,0.0,0.07804549485817551,1561098000,,,,0,21.899999618530273,5,3.9000000953674316,30.100000381469727,0.0,0.0,0.0,0.0,C,1053974543030747,,12717524.52420022,-21233276.70785254,12923476.703553697,1264.800996252875,-772.7996117592527,-2516.09625189158,88190.25364800202,-0.000713914429070428,0.000000016763806343078613,0.000000007450580596923828,-0.00000011920928955078125,-0.000000059604644775390625,110592.0,16384.0,-262144.0,-65536.0
Raw,1774277053000,9650774757,18,0.0,-1458312261349225216,0.0,10.052260398864746,62208.671875,0.0,0,2,0.0,47,139470928392402,19,29.899999618530273,36.28823471069336,0.16128772497177124,20,-35.36930961476537,0.11404655032753944,1575420000,,,,0,21.700000762939453,1,3.9000000953674316,24.899999618530273,0.0,0.0,0.0,0.0,C,1053975548439208,,16144906.508042082,-11863331.097728364,17533313.916837644,-426.0163085511102,2138.0692413814013,1936.7053341422122,19119.01011694886,0.0025932110984285828,0.000000016763806343078613,0.000000007450580596923828,-0.00000011920928955078125,-0.000000059604644775390625,110592.0,16384.0,-262144.0,-65536.0
Raw,1774277053000,9650774757,18,0.0,-1458312261349225216,0.0,10.052260398864746,62208.671875,0.0,0,32,0.0,47,139470920393910,19,30.0,-174.1746826171875,0.1599999964237213,20,175.26095688028363,0.11313599747121333,1575420000,,,,0,24.399999618530273,1,3.9000000953674316,25.0,0.0,0.0,0.0,0.0,C,1053975548439208,,16002085.15152958,21284080.2208966,1603638.7803409942,-295.01141131292906,23.00719958419019,3170.19617964136,-10342.887035595595,0.0060913506349606905,0.000000016763806343078613,0.000000007450580596923828,-0.00000011920928955078125,-0.000000059604644775390625,110592.0,16384.0,-262144.0,-65536.0
Raw,1774277053000,9650774757,18,0.0,-1458312261349225216,0.0,10.052260398864746,62208.671875,0.0,0,8,0.0,47,139470932696219,18,30.399999618530273,209.36866760253906,0.15500031411647797,20,-207.6890834452388,0.10960072211176156,1575420000,,,,0,18.799999237060547,1,3.9000000953674316,25.399999618530273,0.0,0.0,0.0,0.0,C,1053975548439208,,17109883.358104154,-2651052.4632364614,20067904.89923257,1640.872978550875,1999.9667705461675,-1076.3650430423693,142029.66333303304,-0.0020509890164248645,0.000000016763806343078613,0.000000007450580596923828,-0.00000011920928955078125,-0.000000059604644775390625,110592.0,16384.0,-262144.0,-65536.0
Raw,1774277053000,9650774757,18,0.0,-1458312261349225216,0.0,10.052260398864746,62208.671875,0.0,0,27,0.0,47,139470931578058,28,24.799999237060547,629.99560546875,0.25507602095603943,20,-628.908849343079,0.18036425441801546,1575420000,,,,0,17.799999237060547,1,3.9000000953674316,19.799999237060547,0.0,0.0,0.0,0.0,C,1053975548439208,,20491495.771884922,8395432.51424104,14613492.175353544,1055.0043976647771,1598.9577950433822,-2296.890698993015,-23545.214064199477,-0.00412894225155469,0.000000016763806343078613,0.000000007450580596923828,-0.00000011920928955078125,-0.000000059604644775390625,110592.0,16384.0,-262144.0,-65536.0
Raw,1774277053000,9650774757,18,0.0,-1458312261349225216,0.0,10.052260398864746,62208.671875,0.0,0,1,0.0,47,139470920722996,35,22.200000762939453,-228.63372802734375,0.33802053332328796,20,229.9841030394855,0.2390143191128969,1575420000,,,,0,13.199999809265137,1,3.9000000953674316,17.200000762939453,0.0,0.0,0.0,0.0,C,1053975548439208,,15243970.088286014,-20542732.305548474,6985450.239419553,-128.58263545191414,924.9798460417016,3005.5342433715205,93618.86756916359,-0.0022736607206752524,0.000000016763806343078613,0.000000007450580596923828,-0.00000011920928955078125,-0.000000059604644775390625,110592.0,16384.0,-262144.0,-65536.0
Raw,1774277053000,9650774757,18,0.0,-1458312261349225216,0.0,10.052260398864746,62208.671875,0.0,0,10,0.0,47,139470928877637,50,18.700000762939453,547.369384765625,0.5327934622764587,20,-545.8509518684623,0.37673825717568393,1575420000,,,,0,18.5,1,3.9000000953674316,13.699999809265137,0.0,0.0,0.0,0.0,C,1053975548439208,,13035796.720225966,11582300.128585842,20404824.24446599,-2480.780707209944,403.6082320790497,1341.9096663302487,-176986.79036418506,0.0010824752098415047,0.000000016763806343078613,0.000000007450580596923828,-0.00000011920928955078125,-0.000000059604644775390625,110592.0,16384.0,-262144.0,-65536.0
Raw,1774277053000,9650774757,18,0.0,-1458312261349225216,0.0,10.052260398864746,62208.671875,0.0,0,23,0.0,47,139470922668217,41,20.399999618530273,916.7723388671875,0.4216562807559967,20,-915.6575405442891,0.29815315612256527,1575420000,,,,0,14.699999809265137,1,3.9000000953674316,15.399999618530273,0.0,0.0,0.0,0.0,C,1053975548439208,,-1496802.8056513076,14943442.740419298,21954285.44395542,-2730.728400029153,435.36321254183713,-510.01264633940565,188127.30663443916,0.0015100094897206873,0.000000016763806343078613,0.000000007450580596923828,-0.00000011920928955078125,-0.000000059604644775390625,110592.0,16384.0,-262144.0,-65536.0
Raw,1774277053000,9650774757,18,0.0,-1458312261349225216,0.0,10.052260398864746,62208.671875,0.0,0,19,0.0,239,63852932730734,15,34.0,39.3775749206543,0.11890606582164764,20,-51.648188035356725,0.08407847914248705,1603687600,,,,0,27.100000381469727,3,3.9000000953674316,29.0,0.0,0.0,0.0,0.0,C,1053975548439208,,11163143.22824436,-7829785.299407021,21561024.611907918,-332.8305157325367,2933.821559196407,1232.4244973516345,11774.966821352065,0.0005453193043649662,0.000000016763806343078613,0.000000007450580596923828,-0.00000011920928955078125,-0.000000059604644775390625,110592.0,16384.0,-262144.0,-65536.0
Raw,1774277053000,9650774757,18,0.0,-1458312261349225216,0.0,10.052260398864746,62208.671875,0.0,0,9,0.0,239,63852929140881,17,31.5,623.8028564453125,0.14239943027496338,20,-594.7903054574308,0.1006906371474266,1600875000,,,,0,23.600000381469727,3,3.9000000953674316,26.5,0.0,0.0,0.0,0.0,C,1053975548439208,,14794254.82236762,-15768367.565051422,13480893.714345574,1577.1871173519658,-959.1498386364872,-2865.2552018359756,94598.72587446896,0.0005453193043649662,0.000000016763806343078613,0.000000007450580596923828,-0.00000011920928955078125,-0.000000059604644775390625,110592.0,16384.0,-262144.0,-65536.0
Raw,1774277053000,9650774757,18,0.0,-1458312261349225216,0.0,10.052260398864746,62208.671875,0.0,0,36,0.0,815,139456917517708,15,34.099998474121094,576.9970092773438,0.11809024214744568,20,-576.2068679326949,0.08350161022245883,1561098000,,,,0,26.299999237060547,5,3.9000000953674316,29.100000381469727,0.0,0.0,0.0,0.0,C,1053975548439208,,12718789.185168203,-21234049.46109131,12920960.491053237,1264.5230384986048,-772.7081401324164,-2516.332918241036,88190.25293408675,-0.000713917295797728,0.000000016763806343078613,0.000000007450580596923828,-0.00000011920928955078125,-0.000000059604644775390625,110592.0,16384.0,-262144.0,-65536.0
Raw,1774277053000,9650774757,18,0.0,-1458312261349225216,0.0,10.052260398864746,62208.671875,0.0,0,30,0.0,815,139456924788853,21,28.5,-7.736209869384766,0.18107740581035614,20,9.101285163891589,0.12803983364850283,1561098000,,,,0,22.799999237060547,5,3.9000000953674316,23.5,0.0,0.0,0.0,0.0,C,1053975548439208,,13904231.073005429,-11033133.669621002,21512517.842676595,447.22969844649197,2424.107442474029,955.4226409196461,123678.12409707338,0.0023156589741120115,0.000000016763806343078613,0.000000007450580596923828,-0.00000011920928955078125,-0.000000059604644775390625,110592.0,16384.0,-262144.0,-65536.0
Raw,1774277053000,9650774757,18,0.0,-1458312261349225216,0.0,10.052260398864746,62208.671875,0.0,0,28,0.0,815,139456917751855,22,27.700000762939453,813.6229858398438,0.19406546652317047,20,-812.4705225856778,0.13722369137853382,1561098000,,,,0,18.899999618530273,5,3.9000000953674316,22.700000762939453,0.0,0.0,0.0,0.0,C,1053975548439208,,9872899.901790887,24259976.076799296,9637852.495640142,-17.14982766900203,1112.0255162338467,-2781.1171047803796,149320.3403980859,0.0014214949042070657,0.000000016763806343078613,0.000000007450580596923828,-0.00000011920928955078125,-0.000000059604644775390625,110592.0,16384.0,-262144.0,-65536.0
Raw,1774277054000,10650775918,18,0.0,-1458312261349224192,0.0,10.052260398864746,62207.41796875,0.0,0,32,0.0,47,139471920395644,19,29.899999618530273,-173.45388793945312,0.16128772497177124,20,350.06298797300406,0.11404655032753944,1575420000,,,,0,28.799999237060547,1,3.9000000953674316,24.899999618530273,0.0,0.0,0.0,0.0,C,1053976743829592,,16001790.015819982,21284103.08278177,1606808.9651683143,-295.25899043924744,22.716497689300382,3170.162469880832,-10342.880944174645,0.006091470138926525,0.000000016763806343078613,0.000000007450580596923828,-0.00000011920928955078125,-0.000000059604644775390625,110592.0,16384.0,-262144.0,-65536.0
Raw,1774277054000,10650775918,18,0.0,-1458312261349224192,0.0,10.052260398864746,62207.41796875,0.0,0,2,0.0,47,139471928393430,19,29.899999618530273,36.67479705810547,0.16128772497177124,20,-70.86332045027666,0.11404655032753944,1575420000,,,,0,20.700000762939453,1,3.9000000953674316,24.899999618530273,0.0,0.0,0.0,0.0,C,1053976743829592,,16144480.519651676,-11861192.901494518,17535250.43897,-425.95958881997257,2138.3188229299853,1936.3349427557525,19119.01271028359,0.002593453031295212,0.000000016763806343078613,0.000000007450580596923828,-0.00000011920928955078125,-0.000000059604644775390625,110592.0,16384.0,-262144.0,-65536.0
Raw,1774277054000,10650775918,18,0.0,-1458312261349224192,0.0,10.052260398864746,62207.41796875,0.0,0,8,0.0,47,139471932696653,19,30.0,207.72586059570312,0.1599999964237213,20,-414.65720018276625,0.11313599747121333,1575420000,,,,0,26.200000762939453,1,3.9000000953674316,25.0,0.0,0.0,0.0,0.0,C,1053976743829592,,17111524.24000903,-2649052.5939342976,20066828.318918854,1640.8893980140715,1999.770092061652,-1076.7946457017836,142029.66128212685,-0.002050821582088247,0.000000016763806343078613,0.000000007450580596923828,-0.00000011920928955078125,-0.000000059604644775390625,110592.0,16384.0,-262144.0,-65536.0
Raw,1774277054000,10650775918,18,0.0,-1458312261349224192,0.0,10.052260398864746,62207.41796875,0.0,0,27,0.0,47,139471931577142,28,24.600000381469727,630.7338256835938,0.2603082060813904,20,-1258.289215094388,0.18406393252015113,1575420000,,,,0,22.100000381469727,1,3.9000000953674316,19.600000381469727,0.0,0.0,0.0,0.0,C,1053976743829592,,20492550.727734454,8397031.326375805,14611195.130805388,1054.9092246827101,1598.6694016760405,-2297.202596954005,-23545.21819303295,-0.00412873225286603,0.000000016763806343078613,0.000000007450580596923828,-0.00000011920928955078125,-0.000000059604644775390625,110592.0,16384.0,-262144.0,-65536.0
Raw,1774277054000,10650775918,18,0.0,-1458312261349224192,0.0,10.052260398864746,62207.41796875,0.0,0,10,0.0,47,139471928876881,39,21.100000381469727,547.5050048828125,0.3857875466346741,20,-1092.2390239191955,0.272790374225378,1575420000,,,,0,21.200000762939453,1,3.9000000953674316,16.100000381469727,0.0,0.0,0.0,0.0,C,1053976743829592,,13033315.871167695,11582703.82885832,20406165.942808997,-2480.921149686372,403.79292563904943,1341.4890436568421,-176986.78928173007,0.0010824364144355059,0.000000016763806343078613,0.000000007450580596923828,-0.00000011920928955078125,-0.000000059604644775390625,110592.0,16384.0,-262144.0,-65536.0
Raw,1774277054000,10650775918,18,0.0,-1458312261349224192,0.0,10.052260398864746,62207.41796875,0.0,0,1,0.0,47,139471920724905,36,21.899999618530273,-228.43020629882812,0.35012781620025635,20,459.678107366919,0.24757537883520125,1575420000,,,,0,15.199999809265137,1,3.9000000953674316,16.899999618530273,0.0,0.0,0.0,0.0,C,1053976743829592,,15243841.45045378,-20541807.14959556,6988455.704708286,-128.69252911152438,925.3285276713655,3005.3848484897776,93618.86529550102,-0.0022736557002644986,0.000000016763806343078613,0.000000007450580596923828,-0.00000011920928955078125,-0.000000059604644775390625,110592.0,16384.0,-262144.0,-65536.0
Raw,1774277054000,10650775918,18,0.0,-1458312261349224192,0.0,10.052260398864746,62207.41796875,0.0,0,23,0.0,47,139471922666272,42,20.299999237060547,915.981201171875,0.42718610167503357,20,-1830.7859327113038,0.3020632924944162,1575420000,,,,0,13.899999618530273,1,3.9000000953674316,15.300000190734863,0.0,0.0,0.0,0.0,C,1053976743829592,,-1499533.485113292,14943878.183428964,21953775.199822936,-2730.641135218928,435.5244972650323,-510.477601883055,188127.30814440295,0.0015099239826668054,0.000000016763806343078613,0.000000007450580596923828,-0.00000011920928955078125,-0.000000059604644775390625,110592.0,16384.0,-262144.0,-65536.0
Raw,1774277054000,10650775918,18,0.0,-1458312261349224192,0.0,10.052260398864746,62207.41796875,0.0,0,19,0.0,239,63853932731724,15,33.70000076293945,38.84242630004883,0.12140488624572754,20,-101.72023058959894,0.08584539506435394,1603687600,,,,0,24.799999237060547,3,3.9000000953674316,28.700000762939453,0.0,0.0,0.0,0.0,C,1053976743829592,,11162810.507050563,-7826851.377552188,21562256.7788005,-332.6112018420073,2934.0163568014514,1231.906860374413,11774.967366671908,0.0005453193043649662,0.000000016763806343078613,0.000000007450580596923828,-0.00000011920928955078125,-0.000000059604644775390625,110592.0,16384.0,-262144.0,-65536.0
Raw,1774277054000,10650775918,18,0.0,-1458312261349224192,0.0,10.052260398864746,62207.41796875,0.0,0,36,0.0,815,139457917516957,16,33.099998474121094,578.738037109375,0.1266447901725769,20,-1153.3559926477974,0.08955053113102912,1561098000,,,,0,30.399999618530273,5,3.9000000953674316,28.100000381469727,0.0,0.0,0.0,0.0,C,1053976743829592,,12720053.56827698,-21234822.122894254,12918444.041710865,1264.2450776071091,-772.6166178724228,-2516.569538551872,88190.25222016852,-0.0007139202061807737,0.000000016763806343078613,0.000000007450580596923828,-0.00000011920928955078125,-0.000000059604644775390625,110592.0,16384.0,-262144.0,-65536.0
Raw,1774277054000,10650775918,18,0.0,-1458312261349224192,0.0,10.052260398864746,62207.41796875,0.0,0,9,0.0,239,63853929139949,17,31.299999237060547,624.5404052734375,0.14457345008850098,20,-1220.9144808677738,0.10222788655757903,1600875000,,,,0,26.600000381469727,3,3.9000000953674316,26.299999237060547,0.0,0.0,0.0,0.0,C,1053976743829592,,14795831.79916591,-15769326.680954354,13478028.299399437,1576.769443714154,-959.0837456129486,-2865.5800408786877,94598.72641978777,0.0005453193043649662,0.000000016763806343078613,0.000000007450580596923828,-0.00000011920928955078125,-0.000000059604644775390625,110592.0,16384.0,-262144.0,-65536.0
Raw,1774277054000,10650775918,18,0.0,-1458312261349224192,0.0,10.052260398864746,62207.41796875,0.0,0,30,0.0,815,139457924790060,21,28.399999618530273,-6.944921493530273,0.18262839317321777,20,17.5106522003407,0.12913653681278228,1561098000,,,,0,21.399999618530273,5,3.9000000953674316,23.399999618530273,0.0,0.0,0.0,0.0,C,1053976743829592,,13904678.389268842,-11030709.519864682,21513473.068833627,447.40174952250544,2424.1862088614394,955.0273643267611,123678.1264127369,0.0023156624665716663,0.000000016763806343078613,0.000000007450580596923828,-0.00000011920928955078125,-0.000000059604644775390625,110592.0,16384.0,-262144.0,-65536.0
Raw,1774277054000,10650775918,18,0.0,-1458312261349224192,0.0,10.052260398864746,62207.41796875,0.0,0,3,0.0,239,63853931096654,24,26.799999237060547,49.28495788574219,0.21042001247406006,16,0.0,0.14878799082040786,1604812500,,,,0,0.0,3,3.9000000953674316,21.799999237060547,0.0,0.0,0.0,0.0,C,1053976743829592,,13853570.32941222,16694970.293179866,13516914.422786895,-1438.956675813553,-1158.89990080802,2912.6840886141345,42312.09098047472,0.0002726596521824831,0.000000016763806343078613,0.000000007450580596923828,-0.00000011920928955078125,-0.000000059604644775390625,110592.0,16384.0,-262144.0,-65536.0
Raw,1774277054000,10650775918,18,0.0,-1458312261349224192,0.0,10.052260398864746,62207.41796875,0.0,0,28,0.0,815,139457917750345,23,27.299999237060547,812.4083862304688,0.20108991861343384,20,-1624.154621041358,0.14219068145155905,1561098000,,,,0,21.5,5,3.9000000953674316,22.299999237060547,0.0,0.0,0.0,0.0,C,1053976743829592,,9872882.768803932,24261087.943960063,9635071.294365935,-17.11620556418162,1111.7121599188645,-2781.2938344120435,149320.34181957878,0.0014214951370377094,0.000000016763806343078613,0.000000007450580596923828,-0.00000011920928955078125,-0.000000059604644775390625,110592.0,16384.0,-262144.0,-65536.0
Raw,1774277054000,10650775918,18,0.0,-1458312261349224192,0.0,10.052260398864746,62207.41796875,0.0,0,16,0.0,238,63853923344696,30,23.700000762939453,1127.3485107421875,0.28596755862236023,16,0.0,0.2022076607018709,1601437400,,,,0,0.0,3,3.9000000953674316,18.700000762939453,0.0,0.0,0.0,0.0,C,1053976743829592,,23282246.505431868,-9590810.358317574,-3937300.709481965,-559.4489248907208,91.0630701802063,-3526.2945596695317,14033.32550450787,0.0,0.000000016763806343078613,0.000000007450580596923828,-0.00000011920928955078125,-0.000000059604644775390625,110592.0,16384.0,-262144.0,-65536.0
Raw,1774277054000,10650775918,18,0.0,-1458312261349224192,0.0,10.052260398864746,62207.41796875,0.0,0,4,0.0,238,63853925104798,50,18.799999237060547,-465.3971862792969,0.5250997543334961,20,899.4364922354216,0.37129803628921504,1605375000,,,,0,19.0,3,3.9000000953674316,13.800000190734863,0.0,0.0,0.0,0.0,C,1053976743829592,,21641198.552768007,13170889.184407307,-2992365.5857189815,466.567730005906,53.52434240894695,3566.3420217106336,103386.3768677898,0.0005453193043649662,0.000000016763806343078613,0.000000007450580596923828,-0.00000011920928955078125,-0.000000059604644775390625,110592.0,16384.0,-262144.0,-65536.0
Raw,1774277055000,11650777018,18,0.0,-1458312261349222912,0.0,10.052260398864746,62206.6328125,0.0,0,32,0.0,47,139472920397332,19,29.899999618530273,-174.1240997314453,0.16128772497177124,20,525.1564938664887,0.11404655032753944,1575420000,,,,0,21.799999237060547,1,3.9000000953674316,24.899999618530273,0.0,0.0,0.0,0.0,C,1053977566951052,,16001494.632526169,21284125.65398218,1609979.1161067686,-295.50660610824536,22.42583317117859,3170.1286936638876,-10342.874852634477,0.006091589633797412,0.000000016763806343078613,0.000000007450580596923828,-0.00000011920928955078125,-0.000000059604644775390625,110592.0,16384.0,-262144.0,-65536.0
Raw,1774277055000,11650777018,18,0.0,-1458312261349222912,0.0,10.052260398864746,62206.6328125,0.0,0,8,0.0,47,139472932697084,19,29.700000762939453,207.93492126464844,0.16391023993492126,20,-621.5267026036527,0.11590093065798282,1575420000,,,,0,28.899999618530273,1,3.9000000953674316,24.700000762939453,0.0,0.0,0.0,0.0,C,1053977566951052,,17113165.13830182,-2647052.921334128,20065751.30901812,1640.9057642179068,1999.5733787347808,-1077.224223168739,142029.6592313881,-0.00205065417685546,0.000000016763806343078613,0.000000007450580596923828,-0.00000011920928955078125,-0.000000059604644775390625,110592.0,16384.0,-262144.0,-65536.0
Raw,1774277055000,11650777018,18,0.0,-1458312261349222912,0.0,10.052260398864746,62206.6328125,0.0,0,27,0.0,47,139472931576170,29,24.399999618530273,630.7108764648438,0.2657030522823334,20,-1887.8137387170937,0.18787862826883792,1575420000,,,,0,22.700000762939453,1,3.9000000953674316,19.399999618530273,0.0,0.0,0.0,0.0,C,1053977566951052,,20493605.588323906,8398629.85002264,14608897.774513705,1054.8139954748426,1598.380997712161,-2297.514443914483,-23545.222321656187,-0.00412852225053939,0.000000016763806343078613,0.000000007450580596923828,-0.00000011920928955078125,-0.000000059604644775390625,110592.0,16384.0,-262144.0,-65536.0
Raw,1774277055000,11650777018,18,0.0,-1458312261349222912,0.0,10.052260398864746,62206.6328125,0.0,0,2,0.0,46,139472928394436,19,29.700000762939453,35.41215515136719,0.16391023993492126,20,-105.55948344837088,0.11590093065798282,1575420000,,,,0,17.200000762939453,1,3.9000000953674316,24.700000762939453,0.0,0.0,0.0,0.0,C,1053977566951052,,16144054.588013254,-11859054.455747843,17537186.590648904,-425.90282347371146,2138.568360578263,1935.9645131783227,19119.015303860193,0.0025936949532479048,0.000000016763806343078613,0.000000007450580596923828,-0.00000011920928955078125,-0.000000059604644775390625,110592.0,16384.0,-262144.0,-65536.0
Raw,1774277055000,11650777018,18,0.0,-1458312261349222912,0.0,10.052260398864746,62206.6328125,0.0,0,10,0.0,47,139472928876107,36,21.700000762939453,547.97314453125,0.3585642874240875,20,-1638.9409013300683,0.25354080763757225,1575420000,,,,0,18.399999618530273,1,3.9000000953674316,16.700000762939453,0.0,0.0,0.0,0.0,C,1053977566951052,,13030834.88174396,11583107.713823987,20407507.220491435,-2481.061527592432,403.9776332252909,1341.0683928572078,-176986.78819931392,0.0010823975899256766,0.000000016763806343078613,0.000000007450580596923828,-0.00000011920928955078125,-0.000000059604644775390625,110592.0,16384.0,-262144.0,-65536.0
Raw,1774277055000,11650777018,18,0.0,-1458312261349222912,0.0,10.052260398864746,62206.6328125,0.0,0,1,0.0,47,139472920726773,36,21.700000762939453,-228.3214569091797,0.3585642874240875,20,689.2005425557945,0.25354080763757225,1575420000,,,,0,16.0,1,3.9000000953674316,16.700000762939453,0.0,0.0,0.0,0.0,C,1053977566951052,,15243712.702759378,-20540881.644997805,6991461.020446515,-128.802369790969,925.6772103739404,3005.235389378255,93618.86302184356,-0.002273650679853745,0.000000016763806343078613,0.000000007450580596923828,-0.00000011920928955078125,-0.000000059604644775390625,110592.0,16384.0,-262144.0,-65536.0
Raw,1774277055000,11650777018,18,0.0,-1458312261349222912,0.0,10.052260398864746,62206.6328125,0.0,0,23,0.0,47,139472922664245,42,20.200000762939453,915.8131103515625,0.43282550573349,20,-2745.628140295252,0.3060509151041508,1575420000,,,,0,15.0,1,3.9000000953674316,15.199999809265137,0.0,0.0,0.0,0.0,C,1053977566951052,,-1502264.0770533145,14944313.787677083,21953264.490782507,-2730.5538035143036,435.68576152226035,-510.9425477747748,188127.30965428115,0.001509838504716754,0.000000016763806343078613,0.000000007450580596923828,-0.00000011920928955078125,-0.000000059604644775390625,110592.0,16384.0,-262144.0,-65536.0
Raw,1774277055000,11650777018,18,0.0,-1458312261349222912,0.0,10.052260398864746,62206.6328125,0.0,0,36,0.0,815,139458917516139,16,32.900001525878906,578.5732421875,0.12846700847148895,20,-1730.711628383353,0.09083902169018983,1561098000,,,,0,30.100000381469727,5,3.9000000953674316,27.899999618530273,0.0,0.0,0.0,0.0,C,1053977566951052,,12721317.67333879,-21235594.693097964,12915927.35593999,1263.9671136299485,-772.5250449933578,-2516.8061127852056,88190.25150624746,-0.0007139230874599889,0.000000016763806343078613,0.000000007450580596923828,-0.00000011920928955078125,-0.000000059604644775390625,110592.0,16384.0,-262144.0,-65536.0
Raw,1774277055000,11650777018,18,0.0,-1458312261349222912,0.0,10.052260398864746,62206.6328125,0.0,0,19,0.0,239,63854932732769,15,33.5,39.61388397216797,0.12311480194330215,20,-117.16734853605885,0.08705447645410895,1603687600,,,,0,23.200000762939453,3,3.9000000953674316,28.5,0.0,0.0,0.0,0.0,C,1053977566951052,,11162478.005169824,-7823917.260781571,21563488.42810839,-332.39185345106125,2934.211067698499,1231.389193542755,11774.967911991784,0.0005453193043649662,0.000000016763806343078613,0.000000007450580596923828,-0.00000011920928955078125,-0.000000059604644775390625,110592.0,16384.0,-262144.0,-65536.0
Raw,1774277055000,11650777018,18,0.0,-1458312261349222912,0.0,10.052260398864746,62206.6328125,0.0,0,9,0.0,239,63854929138933,17,31.200000762939453,624.9986572265625,0.14567914605140686,20,-1854.1942303165342,0.10300972417294979,1600875000,,,,0,28.600000381469727,3,3.9000000953674316,26.200000762939453,0.0,0.0,0.0,0.0,C,1053977566951052,,14797408.358148418,-15770285.730644096,13475162.559889708,1576.3517498511496,-959.017573352143,-2865.9048111100456,94598.72696510651,0.0005453193043649662,0.000000016763806343078613,0.000000007450580596923828,-0.00000011920928955078125,-0.000000059604644775390625,110592.0,16384.0,-262144.0,-65536.0
Raw,1774277055000,11650777018,18,0.0,-1458312261349222912,0.0,10.052260398864746,62206.6328125,0.0,0,30,0.0,815,139458924791166,21,28.399999618530273,-8.613265991210938,0.18262839317321777,20,26.799260487452557,0.12913653681278228,1561098000,,,,0,23.899999618530273,5,3.9000000953674316,23.399999618530273,0.0,0.0,0.0,0.0,C,1053977566951052,,13905125.87754118,-11028285.291615106,21514427.899608422,447.5738062566487,2424.2649184790644,954.6320702755621,123678.12872840368,0.002315665944479406,0.000000016763806343078613,0.000000007450580596923828,-0.00000011920928955078125,-0.000000059604644775390625,110592.0,16384.0,-262144.0,-65536.0
Raw,1774277055000,11650777018,18,0.0,-1458312261349222912,0.0,10.052260398864746,62206.6328125,0.0,0,3,0.0,239,63854931097725,22,27.700000762939453,49.332298278808594,0.19406546652317047,20,-7.863854169267142,0.13722369137853382,1604812500,,,,0,23.299999237060547,3,3.9000000953674316,22.700000762939453,0.0,0.0,0.0,0.0,C,1053977566951052,,13852131.158209972,16693811.34213685,13519826.94863162,-1439.3826623771308,-1158.9996851118467,2912.3613796347663,42312.091253134655,0.0002726596521824831,0.000000016763806343078613,0.000000007450580596923828,-0.00000011920928955078125,-0.000000059604644775390625,110592.0,16384.0,-262144.0,-65536.0
Raw,1774277055000,11650777018,18,0.0,-1458312261349222912,0.0,10.052260398864746,62206.6328125,0.0,0,28,0.0,815,139458917748738,23,26.899999618530273,811.8934936523438,0.20850275456905365,20,-2435.2355752683725,0.14743229775577782,1561098000,,,,0,18.0,5,3.9000000953674316,21.899999618530273,0.0,0.0,0.0,0.0,C,1053977566951052,,9872865.66941793,24262199.49764749,9632289.916657656,-17.082628944717932,1111.3987842545316,-2781.4705130202447,149320.34324107174,0.0014214953989721835,0.000000016763806343078613,0.000000007450580596923828,-0.00000011920928955078125,-0.000000059604644775390625,110592.0,16384.0,-262144.0,-65536.0
Raw,1774277055000,11650777018,18,0.0,-1458312261349222912,0.0,10.052260398864746,62206.6328125,0.0,0,16,0.0,239,63854923341717,29,24.200000762939453,1127.755126953125,0.2712673544883728,20,-1221.921563263404,0.1918131463587284,1601437400,,,,0,19.100000381469727,3,3.9000000953674316,19.200000762939453,0.0,0.0,0.0,0.0,C,1053977566951052,,23281686.84640246,-9590719.164745009,-3940826.9460909893,-559.872451741764,91.32464111218042,-3526.1996856287847,14033.32550450787,0.0,0.000000016763806343078613,0.000000007450580596923828,-0.00000011920928955078125,-0.000000059604644775390625,110592.0,16384.0,-262144.0,-65536.0
Raw,1774277055000,11650777018,18,0.0,-1458312261349222912,0.0,10.052260398864746,62206.6328125,0.0,0,4,0.0,239,63854925107472,40,20.700000762939453,-465.1730651855469,0.40569597482681274,20,1372.33338361387,0.2868676238000393,1605375000,,,,0,21.600000381469727,3,3.9000000953674316,15.699999809265137,0.0,0.0,0.0,0.0,C,1053977566951052,,21641664.92334583,13170942.551753981,-2988799.1982535454,466.1709249207104,53.21009316613845,3566.4138518982686,103386.37741311056,0.0005453193043649662,0.000000016763806343078613,0.000000007450580596923828,-0.00000011920928955078125,-0.000000059604644775390625,110592.0,16384.0,-262144.0,-65536.0
Raw,1774277056000,12650778117,18,0.0,-1458312261349221888,0.0,10.052260398864746,62205.54296875,0.0,0,32,0.0,47,139473920398992,19,29.899999618530273,-174.09156799316406,0.16128772497177124,20,700.3260585947573,0.11404655032753944,1575420000,,,,0,25.299999237060547,1,3.9000000953674316,24.899999618530273,0.0,0.0,0.0,0.0,C,1053978568854744,,16001199.001606245,21284147.934535664,1613149.2331469671,-295.75425831518794,22.13520603435476,3170.094850991107,-10342.868760974987,0.006091709121392341,0.000000016763806343078613,0.000000007450580596923828,-0.00000011920928955078125,-0.000000059604644775390625,110592.0,16384.0,-262144.0,-65536.0
Raw,1774277056000,12650778117,18,0.0,-1458312261349221888,0.0,10.052260398864746,62205.54296875,0.0,0,8,0.0,47,139473932697463,19,29.5,208.3125,0.16659724712371826,20,-828.6144660541177,0.11780091344118117,1575420000,,,,0,25.899999618530273,1,3.9000000953674316,24.5,0.0,0.0,0.0,0.0,C,1053978568854744,,17114806.05284886,-2645053.445568756,20064673.869608376,1640.9220771566193,1999.3766305865552,-1077.6537754131843,142029.65718081687,-0.0020504867425188422,0.000000016763806343078613,0.000000007450580596923828,-0.00000011920928955078125,-0.000000059604644775390625,110592.0,16384.0,-262144.0,-65536.0
Raw,1774277056000,12650778117,18,0.0,-1458312261349221888,0.0,10.052260398864746,62205.54296875,0.0,0,27,0.0,47,139473931575143,29,24.299999237060547,632.1725463867188,0.2684636116027832,20,-2518.3601959103107,0.189830619764328,1575420000,,,,0,21.799999237060547,1,3.9000000953674316,19.299999237060547,0.0,0.0,0.0,0.0,C,1053978568854744,,20494660.353598118,8400228.085172597,14606600.106527243,1054.7187100413512,1598.0925831647069,-2297.8262398687243,-23545.226450069196,-0.004128312248212751,0.000000016763806343078613,0.000000007450580596923828,-0.00000011920928955078125,-0.000000059604644775390625,110592.0,16384.0,-262144.0,-65536.0
Raw,1774277056000,12650778117,18,0.0,-1458312261349221888,0.0,10.052260398864746,62205.54296875,0.0,0,10,0.0,47,139473928875411,34,22.299999237060547,547.1367797851562,0.3341241180896759,20,-2185.1892225385964,0.23625916390120982,1575420000,,,,0,21.0,1,3.9000000953674316,17.299999237060547,0.0,0.0,0.0,0.0,C,1053978568854744,,13028353.751781221,11583511.783535594,20408848.077613916,-2481.201840937459,404.1623548430995,1340.6477138992914,-176986.78711693655,0.0010823587072081864,0.000000016763806343078613,0.000000007450580596923828,-0.00000011920928955078125,-0.000000059604644775390625,110592.0,16384.0,-262144.0,-65536.0
Raw,1774277056000,12650778117,18,0.0,-1458312261349221888,0.0,10.052260398864746,62205.54296875,0.0,0,2,0.0,47,139473928395377,20,28.899999618530273,35.059085845947266,0.1750669777393341,20,-139.75373120022414,0.12378985995948313,1575420000,,,,0,18.100000381469727,1,3.9000000953674316,23.899999618530273,0.0,0.0,0.0,0.0,C,1053978568854744,,16143628.7131907,-11856915.760624256,17539122.37175294,-425.84601252228185,2138.817854305637,1935.5940454341885,19119.01789767854,0.002593936864286661,0.000000016763806343078613,0.000000007450580596923828,-0.00000011920928955078125,-0.000000059604644775390625,110592.0,16384.0,-262144.0,-65536.0
Raw,1774277056000,12650778117,18,0.0,-1458312261349221888,0.0,10.052260398864746,62205.54296875,0.0,0,1,0.0,47,139473920728618,37,21.5,-228.583984375,0.36730945110321045,20,918.8414022384823,0.2597245128750801,1575420000,,,,0,13.0,1,3.9000000953674316,16.5,0.0,0.0,0.0,0.0,C,1053978568854744,,15243583.84525359,-20539955.791737426,6994466.18662412,-128.91215749027992,926.0258941423328,3005.0858660375,93618.86074819119,-0.0022736456739949062,0.000000016763806343078613,0.000000007450580596923828,-0.00000011920928955078125,-0.000000059604644775390625,110592.0,16384.0,-262144.0,-65536.0
Raw,1774277056000,12650778117,18,0.0,-1458312261349221888,0.0,10.052260398864746,62205.54296875,0.0,0,23,0.0,47,139473922662315,43,20.0,915.7109375,0.4444444477558136,20,-3660.306298965341,0.31426666900813577,1575420000,,,,0,9.5,1,3.9000000953674316,15.0,0.0,0.0,0.0,0.0,C,1053978568854744,,-1504994.5818932,14944749.553221183,21952753.31675235,-2730.4664049037124,435.8470053299906,-511.40748408793525,188127.311164074,0.001509752997662872,0.000000016763806343078613,0.000000007450580596923828,-0.00000011920928955078125,-0.000000059604644775390625,110592.0,16384.0,-262144.0,-65536.0
Raw,1774277056000,12650778117,18,0.0,-1458312261349221888,0.0,10.052260398864746,62205.54296875,0.0,0,36,0.0,815,139459917515297,15,33.20000076293945,578.1177368164062,0.1257481873035431,22,-2307.831880362457,0.08891654324233532,1561098000,,,,0,31.299999237060547,5,3.9000000953674316,28.200000762939453,0.0,0.0,0.0,0.0,C,1053978568854744,,12722581.50040504,-21236367.17168498,12913410.433678519,1263.6891465661602,-772.4334214920082,-2517.042640946876,88190.25079232352,-0.0007139259832911193,0.000000016763806343078613,0.000000007450580596923828,-0.00000011920928955078125,-0.000000059604644775390625,110592.0,16384.0,-262144.0,-65536.0
