# 
# Header Description:
# 
# Version: v2.0.0.1 Platform: 10 Manufacturer: Xiaomi Model: Redmi Note 7
# 
# Raw,ElapsedRealtimeMillis,TimeNanos,LeapSecond,TimeUncertaintyNanos,FullBiasNanos,BiasNanos,BiasUncertaintyNanos,DriftNanosPerSecond,DriftUncertaintyNanosPerSecond,HardwareClockDiscontinuityCount,Svid,TimeOffsetNanos,State,ReceivedSvTimeNanos,ReceivedSvTimeUncertaintyNanos,Cn0DbHz,PseudorangeRateMetersPerSecond,PseudorangeRateUncertaintyMetersPerSecond,AccumulatedDeltaRangeState,AccumulatedDeltaRangeMeters,AccumulatedDeltaRangeUncertaintyMeters,CarrierFrequencyHz,CarrierCycles,CarrierPhase,CarrierPhaseUncertainty,MultipathIndicator,SnrInDb,ConstellationType,AgcDb,CarrierFrequencyHz
# 
# Fix,Provider,Latitude,Longitude,Altitude,Speed,Accuracy,(UTC)TimeInMs
# 
# Nav,Svid,Type,Status,MessageId,Sub-messageId,Data(Bytes)
# 
Fix,gps,45.066037,7.657051,315.405518,0.000000,9.648001,1774277401000
Raw,330090642,330157999000000,,,-1457982460431827882,0.8277006149291992,93.28876330982894,-3.2311558346311813,20.161404917133776,1461,9,0.0,207,64200359595764,35,22.9,341.717041015625,0.98499995470047,0,0.0,0.0,1.60087501E9,,,,0,,3,0.27,1.60087501E9
Raw,330090642,330157999000000,,,-1457982460431827882,0.8277006149291992,93.28876330982894,-3.2311558346311813,20.161404917133776,1461,19,0.0,207,64200363882729,35,22.7,-275.3898620605469,0.9909999966621399,0,0.0,0.0,1.60368755E9,,,,0,,3,0.27,1.60368755E9
Raw,330090642,330157999000000,,,-1457982460431827882,0.8277006149291992,93.28876330982894,-3.2311558346311813,20.161404917133776,1461,1,0.0,15,139818352198551,40,21.7,-554.8487548828125,0.8044999837875366,0,0.0,0.0,1.57542003E9,,,,0,,1,2.24,1.57542003E9
Raw,330090643,330157999000000,,,-1457982460431827882,0.8277006149291992,93.28876330982894,-3.2311558346311813,20.161404917133776,1461,2,0.0,15,139818359553051,46,20.9,-278.8848876953125,0.875,0,0.0,0.0,1.57542003E9,,,,0,,1,2.24,1.57542003E9
Raw,330090643,330157999000000,,,-1457982460431827882,0.8277006149291992,93.28876330982894,-3.2311558346311813,20.161404917133776,1461,27,0.0,15,139818362041264,53,19.3,329.4839782714844,0.999500036239624,0,0.0,0.0,1.57542003E9,,,,0,,1,2.24,1.57542003E9
Raw,330090643,330157999000000,,,-1457982460431827882,0.8277006149291992,93.28876330982894,-3.2311558346311813,20.161404917133776,1461,32,0.0,15,139818351799007,40,21.2,-490.27264404296875,0.8629999756813049,0,0.0,0.0,1.57542003E9,,,,0,,1,2.24,1.57542003E9
Raw,330090644,330157999000000,,,-1457982460431827882,0.8277006149291992,93.28876330982894,-3.2311558346311813,20.161404917133776,1461,8,0.0,7183,139818339212438,46,20.9,-508.83575439453125,0.7549999952316284,0,0.0,0.0,1.57542003E9,,,,0,,6,2.18,1.57542003E9
Raw,330090644,330157999000000,,,-1457982460431827882,0.8277006149291992,93.28876330982894,-3.2311558346311813,20.161404917133776,1461,13,0.0,7183,139818352904892,70,17.0,17.668766021728516,0.9404999613761902,0,0.0,0.0,1.57542003E9,,,,0,,6,2.18,1.57542003E9
Raw,330090644,330157999000000,,,-1457982460431827882,0.8277006149291992,93.28876330982894,-3.2311558346311813,20.161404917133776,1461,21,0.0,7183,139818349241806,160,14.8,253.2238006591797,5.5420002937316895,0,0.0,0.0,1.57542003E9,,,,0,,6,2.18,1.57542003E9
Raw,330090644,330157999000000,,,-1457982460431827882,0.8277006149291992,93.28876330982894,-3.2311558346311813,20.161404917133776,1461,26,0.0,7183,139818345686489,35,22.1,-371.5959777832031,0.6420000195503235,0,0.0,0.0,1.57542003E9,,,,0,,6,2.18,1.57542003E9
Fix,gps,45.066036,7.657048,315.607849,0.190000,9.648001,1774277402000
Raw,330091636,330158999000000,,,-1457982460431827884,0.026282310485839844,88.77308573573828,-3.8071498091877616,13.96542296430295,1461,18,0.0,207,64201363025464,126,14.9,308.6041564941406,3.931000232696533,0,0.0,0.0,1.60031245E9,,,,0,,3,0.14,1.60031245E9
Raw,330091637,330158999000000,,,-1457982460431827884,0.026282310485839844,88.77308573573828,-3.8071498091877616,13.96542296430295,1461,9,0.0,207,64201359594596,27,24.9,341.1552429199219,0.8649999499320984,0,0.0,0.0,1.60087501E9,,,,0,,3,0.14,1.60087501E9
Raw,330091637,330158999000000,,,-1457982460431827884,0.026282310485839844,88.77308573573828,-3.8071498091877616,13.96542296430295,1461,19,0.0,207,64201363883624,31,23.5,-275.7731018066406,0.9309999942779541,0,0.0,0.0,1.60368755E9,,,,0,,3,0.14,1.60368755E9
Raw,330091637,330158999000000,,,-1457982460431827884,0.026282310485839844,88.77308573573828,-3.8071498091877616,13.96542296430295,1461,3,0.0,207,64201362215522,160,12.7,-228.01834106445312,4.179500102996826,0,0.0,0.0,1.60481254E9,,,,0,,3,0.14,1.60481254E9
Raw,330091638,330158999000000,,,-1457982460431827884,0.026282310485839844,88.77308573573828,-3.8071498091877616,13.96542296430295,1461,4,0.0,207,64201356843604,117,14.9,-782.09814453125,3.200500249862671,0,0.0,0.0,1.60537498E9,,,,0,,3,0.14,1.60537498E9
Raw,330091638,330158999000000,,,-1457982460431827884,0.026282310485839844,88.77308573573828,-3.8071498091877616,13.96542296430295,1461,1,0.0,15,139819352200392,24,25.9,-555.8814697265625,0.39980000257492065,0,0.0,0.0,1.57542003E9,,,,0,,1,1.91,1.57542003E9
Raw,330091638,330158999000000,,,-1457982460431827884,0.026282310485839844,88.77308573573828,-3.8071498091877616,13.96542296430295,1461,2,0.0,15,139819359553960,40,21.6,-279.5128479003906,0.8149999976158142,0,0.0,0.0,1.57542003E9,,,,0,,1,1.91,1.57542003E9
Raw,330091638,330158999000000,,,-1457982460431827884,0.026282310485839844,88.77308573573828,-3.8071498091877616,13.96542296430295,1461,23,0.0,15,139819352807267,321,12.5,599.2062377929688,9.864500045776367,0,0.0,0.0,1.57542003E9,,,,0,,1,1.91,1.57542003E9
Raw,330091639,330158999000000,,,-1457982460431827884,0.026282310485839844,88.77308573573828,-3.8071498091877616,13.96542296430295,1461,27,0.0,15,139819362040067,53,19.4,329.2080383300781,0.999500036239624,0,0.0,0.0,1.57542003E9,,,,0,,1,1.91,1.57542003E9
Raw,330091639,330158999000000,,,-1457982460431827884,0.026282310485839844,88.77308573573828,-3.8071498091877616,13.96542296430295,1461,32,0.0,15,139819351800670,46,20.9,-490.92913818359375,0.8629999756813049,0,0.0,0.0,1.57542003E9,,,,0,,1,1.91,1.57542003E9
Raw,330091639,330158999000000,,,-1457982460431827884,0.026282310485839844,88.77308573573828,-3.8071498091877616,13.96542296430295,1461,3,0.0,7183,139819340666772,64,18.3,-182.76756286621094,1.6204999685287476,0,0.0,0.0,1.57542003E9,,,,0,,6,1.88,1.57542003E9
Raw,330091639,330158999000000,,,-1457982460431827884,0.026282310485839844,88.77308573573828,-3.8071498091877616,13.96542296430295,1461,8,0.0,7183,139819339214100,53,19.8,-509.6445007324219,0.8149999976158142,0,0.0,0.0,1.57542003E9,,,,0,,6,1.88,1.57542003E9
Raw,330091640,330158999000000,,,-1457982460431827884,0.026282310485839844,88.77308573573828,-3.8071498091877616,13.96542296430295,1461,13,0.0,7183,139819352904820,80,16.4,18.448972702026367,1.0205000638961792,0,0.0,0.0,1.57542003E9,,,,0,,6,1.88,1.57542003E9
Raw,330091640,330158999000000,,,-1457982460431827884,0.026282310485839844,88.77308573573828,-3.8071498091877616,13.96542296430295,1461,15,0.0,7183,139819345095638,297,13.8,399.2171325683594,9.532000541687012,0,0.0,0.0,1.57542003E9,,,,0,,6,1.88,1.57542003E9
Raw,330091640,330158999000000,,,-1457982460431827884,0.026282310485839844,88.77308573573828,-3.8071498091877616,13.96542296430295,1461,26,0.0,7183,139819345687760,40,21.1,-373.004150390625,0.6919999718666077,0,0.0,0.0,1.57542003E9,,,,0,,6,1.88,1.57542003E9
Raw,330091640,330158999000000,,,-1457982460431827884,0.026282310485839844,88.77308573573828,-3.8071498091877616,13.96542296430295,1461,27,0.0,7183,139819340787880,1119,13.5,596.1805419921875,8.240500450134277,0,0.0,0.0,1.57542003E9,,,,0,,6,1.88,1.57542003E9
Fix,gps,45.066038,7.657046,315.743774,0.000000,9.648001,1774277403000
Raw,330092635,330159999000000,,,-1457982460431827880,0.7648515701293945,81.21739665511996,-6.050586701136118,13.136853023289515,1461,9,0.0,207,64202359593448,61,18.9,340.97735595703125,1.274999976158142,0,0.0,0.0,1.60087501E9,,,,0,,3,0.16,1.60087501E9
Raw,330092635,330159999000000,,,-1457982460431827880,0.7648515701293945,81.21739665511996,-6.050586701136118,13.136853023289515,1461,19,0.0,207,64202363884623,61,18.2,-275.8104553222656,1.281000018119812,0,0.0,0.0,1.60368755E9,,,,0,,3,0.16,1.60368755E9
Raw,330092635,330159999000000,,,-1457982460431827880,0.7648515701293945,81.21739665511996,-6.050586701136118,13.136853023289515,1461,1,0.0,15,139820352202290,40,21.9,-556.0000610351562,0.8044999837875366,0,0.0,0.0,1.57542003E9,,,,0,,1,2.0,1.57542003E9
Raw,330092636,330159999000000,,,-1457982460431827880,0.7648515701293945,81.21739665511996,-6.050586701136118,13.136853023289515,1461,2,0.0,15,139820359554845,35,22.5,-280.2740173339844,0.7549999952316284,0,0.0,0.0,1.57542003E9,,,,0,,1,2.0,1.57542003E9
Raw,330092636,330159999000000,,,-1457982460431827880,0.7648515701293945,81.21739665511996,-6.050586701136118,13.136853023289515,1461,10,0.0,15,139820359434232,150,12.9,247.34371948242188,3.0950000286102295,0,0.0,0.0,1.57542003E9,,,,0,,1,2.0,1.57542003E9
Raw,330092636,330159999000000,,,-1457982460431827880,0.7648515701293945,81.21739665511996,-6.050586701136118,13.136853023289515,1461,32,0.0,15,139820351802263,21,26.6,-491.4566345214844,0.12770000100135803,0,0.0,0.0,1.57542003E9,,,,0,,1,2.0,1.57542003E9
Raw,330092637,330159999000000,,,-1457982460431827880,0.7648515701293945,81.21739665511996,-6.050586701136118,13.136853023289515,1461,8,0.0,7183,139820339215824,40,21.0,-509.6825866699219,0.6949999928474426,0,0.0,0.0,1.57542003E9,,,,0,,6,1.95,1.57542003E9
Raw,330092637,330159999000000,,,-1457982460431827880,0.7648515701293945,81.21739665511996,-6.050586701136118,13.136853023289515,1461,13,0.0,7183,139820352904837,70,17.5,17.906633377075195,0.9404999613761902,0,0.0,0.0,1.57542003E9,,,,0,,6,1.95,1.57542003E9
Raw,330092637,330159999000000,,,-1457982460431827880,0.7648515701293945,81.21739665511996,-6.050586701136118,13.136853023289515,1461,15,0.0,7183,139820345094283,46,20.1,398.9697265625,0.7519999742507935,0,0.0,0.0,1.57542003E9,,,,0,,6,1.95,1.57542003E9
Raw,330092637,330159999000000,,,-1457982460431827880,0.7648515701293945,81.21739665511996,-6.050586701136118,13.136853023289515,1461,27,0.0,7183,139820340785891,1160,13.6,596.018798828125,9.365500450134277,0,0.0,0.0,1.57542003E9,,,,0,,6,1.95,1.57542003E9
Fix,gps,45.066038,7.657047,315.661255,0.170000,9.648001,1774277404000
Raw,330093661,330160999000000,,,-1457982460431827886,0.8788928985595703,73.55867273872718,-7.221149578984763,13.063530705963483,1461,9,0.0,207,64203359592383,40,21.6,341.82940673828125,1.0449999570846558,0,0.0,0.0,1.60087501E9,,,,0,,3,0.26,1.60087501E9
Raw,330093661,330160999000000,,,-1457982460431827886,0.8788928985595703,73.55867273872718,-7.221149578984763,13.063530705963483,1461,19,0.0,207,64203363885426,16,29.1,-275.562744140625,0.23119999468326569,0,0.0,0.0,1.60368755E9,,,,0,,3,0.26,1.60368755E9
Raw,330093662,330160999000000,,,-1457982460431827886,0.8788928985595703,73.55867273872718,-7.221149578984763,13.063530705963483,1461,1,0.0,15,139821352204096,35,22.5,-555.9429321289062,0.7444999814033508,0,0.0,0.0,1.57542003E9,,,,0,,1,2.24,1.57542003E9
Raw,330093662,330160999000000,,,-1457982460431827886,0.8788928985595703,73.55867273872718,-7.221149578984763,13.063530705963483,1461,2,0.0,15,139821359555843,21,26.0,-279.68670654296875,0.1397000104188919,0,0.0,0.0,1.57542003E9,,,,0,,1,2.24,1.57542003E9
Raw,330093662,330160999000000,,,-1457982460431827886,0.8788928985595703,73.55867273872718,-7.221149578984763,13.063530705963483,1461,27,0.0,15,139821362038002,84,16.1,329.6361999511719,2.009500026702881,0,0.0,0.0,1.57542003E9,,,,0,,1,2.24,1.57542003E9
Raw,330093663,330160999000000,,,-1457982460431827886,0.8788928985595703,73.55867273872718,-7.221149578984763,13.063530705963483,1461,32,0.0,15,139821351803940,21,26.3,-491.1172180175781,0.12770000100135803,0,0.0,0.0,1.57542003E9,,,,0,,1,2.24,1.57542003E9
Raw,330093663,330160999000000,,,-1457982460431827886,0.8788928985595703,73.55867273872718,-7.221149578984763,13.063530705963483,1461,5,0.0,783,139807298030160,432,20.8,-16.455642700195312,17.16349983215332,0,0.0,0.0,1.56109798E9,,,,0,,5,1.78,1.56109798E9
Raw,330093664,330160999000000,,,-1457982460431827886,0.8788928985595703,73.55867273872718,-7.221149578984763,13.063530705963483,1461,3,0.0,7183,139821340668127,64,18.0,-183.17669677734375,1.6204999685287476,0,0.0,0.0,1.57542003E9,,,,0,,6,2.18,1.57542003E9
Raw,330093664,330160999000000,,,-1457982460431827886,0.8788928985595703,73.55867273872718,-7.221149578984763,13.063530705963483,1461,8,0.0,7183,139821339217589,61,18.6,-510.25347900390625,0.875,0,0.0,0.0,1.57542003E9,,,,0,,6,2.18,1.57542003E9
Raw,330093664,330160999000000,,,-1457982460431827886,0.8788928985595703,73.55867273872718,-7.221149578984763,13.063530705963483,1461,15,0.0,7183,139821345093000,53,19.2,398.33221435546875,0.8119999766349792,0,0.0,0.0,1.57542003E9,,,,0,,6,2.18,1.57542003E9
Raw,330093665,330160999000000,,,-1457982460431827886,0.8788928985595703,73.55867273872718,-7.221149578984763,13.063530705963483,1461,21,0.0,7183,139821349239379,89,16.7,251.87269592285156,2.5220000743865967,0,0.0,0.0,1.57542003E9,,,,0,,6,2.18,1.57542003E9
Raw,330093665,330160999000000,,,-1457982460431827886,0.8788928985595703,73.55867273872718,-7.221149578984763,13.063530705963483,1461,23,0.0,7183,139821345165156,133,15.7,-284.2035827636719,4.8520002365112305,0,0.0,0.0,1.57542003E9,,,,0,,6,2.18,1.57542003E9
Raw,330093665,330160999000000,,,-1457982460431827886,0.8788928985595703,73.55867273872718,-7.221149578984763,13.063530705963483,1461,27,0.0,7183,139821340783889,1175,13.4,596.1995849609375,9.740500450134277,0,0.0,0.0,1.57542003E9,,,,0,,6,2.18,1.57542003E9
Fix,gps,45.066043,7.657052,315.727051,0.550000,9.648001,1774277405000
Raw,330094673,330161999000000,,,-1457982460431827897,0.4795045852661133,67.07769352942705,-6.881291965663555,12.854440781806993,1461,9,0.0,207,64204359591068,35,22.8,342.7001953125,0.98499995470047,0,0.0,0.0,1.60087501E9,,,,0,,3,0.04,1.60087501E9
Raw,330094674,330161999000000,,,-1457982460431827897,0.4795045852661133,67.07769352942705,-6.881291965663555,12.854440781806993,1461,19,0.0,207,64204363886402,19,27.3,-275.1033630371094,0.24580000340938568,0,0.0,0.0,1.60368755E9,,,,0,,3,0.04,1.60368755E9
Raw,330094674,330161999000000,,,-1457982460431827897,0.4795045852661133,67.07769352942705,-6.881291965663555,12.854440781806993,1461,2,0.0,15,139822359556776,27,24.9,-278.7421875,0.6450000405311584,0,0.0,0.0,1.57542003E9,,,,0,,1,2.0,1.57542003E9
Raw,330094675,330161999000000,,,-1457982460431827897,0.4795045852661133,67.07769352942705,-6.881291965663555,12.854440781806993,1461,23,0.0,15,139822352801391,102,15.6,598.5877685546875,2.7745001316070557,0,0.0,0.0,1.57542003E9,,,,0,,1,2.0,1.57542003E9
Raw,330094675,330161999000000,,,-1457982460431827897,0.4795045852661133,67.07769352942705,-6.881291965663555,12.854440781806993,1461,32,0.0,15,139822351805604,53,19.5,-490.0061950683594,0.9329999685287476,0,0.0,0.0,1.57542003E9,,,,0,,1,2.0,1.57542003E9
Raw,330094676,330161999000000,,,-1457982460431827897,0.4795045852661133,67.07769352942705,-6.881291965663555,12.854440781806993,1461,5,0.0,783,139808298030203,521,19.7,-15.820022583007812,17.98349952697754,0,0.0,0.0,1.56109798E9,,,,0,,5,1.57,1.56109798E9
Raw,330094676,330161999000000,,,-1457982460431827897,0.4795045852661133,67.07769352942705,-6.881291965663555,12.854440781806993,1461,13,0.0,7183,139822352904673,96,15.6,19.533645629882812,1.8504999876022339,0,0.0,0.0,1.57542003E9,,,,0,,6,2.03,1.57542003E9
Raw,330094676,330161999000000,,,-1457982460431827897,0.4795045852661133,67.07769352942705,-6.881291965663555,12.854440781806993,1461,26,0.0,7183,139822345691403,89,16.4,-371.9289855957031,2.5220000743865967,0,0.0,0.0,1.57542003E9,,,,0,,6,2.03,1.57542003E9
Raw,330094677,330161999000000,,,-1457982460431827897,0.4795045852661133,67.07769352942705,-6.881291965663555,12.854440781806993,1461,27,0.0,7183,139822340781903,354,13.3,596.1900634765625,10.865500450134277,0,0.0,0.0,1.57542003E9,,,,0,,6,2.03,1.57542003E9
Raw,330095639,330162999000000,,,-1457982460431827903,0.5190401077270508,69.1002351231873,-4.707719518922467,13.9687011034183,1461,9,0.0,207,64205359590044,24,25.2,342.3563232421875,0.580299973487854,0,0.0,0.0,1.60087501E9,,,,0,,3,0.02,1.60087501E9
Raw,330095640,330162999000000,,,-1457982460431827903,0.5190401077270508,69.1002351231873,-4.707719518922467,13.9687011034183,1461,19,0.0,207,64205363887056,70,17.7,-274.83837890625,1.371000051498413,0,0.0,0.0,1.60368755E9,,,,0,,3,0.02,1.60368755E9
Raw,330095640,330162999000000,,,-1457982460431827903,0.5190401077270508,69.1002351231873,-4.707719518922467,13.9687011034183,1461,4,0.0,207,64205356854249,142,13.4,-783.0318603515625,4.070500373840332,0,0.0,0.0,1.60537498E9,,,,0,,3,0.02,1.60537498E9
Raw,330095643,330162999000000,,,-1457982460431827903,0.5190401077270508,69.1002351231873,-4.707719518922467,13.9687011034183,1461,1,0.0,15,139823352207821,73,17.4,-554.9058837890625,1.934499979019165,0,0.0,0.0,1.57542003E9,,,,0,,1,2.03,1.57542003E9
Raw,330095644,330162999000000,,,-1457982460431827903,0.5190401077270508,69.1002351231873,-4.707719518922467,13.9687011034183,1461,2,0.0,15,139823359557725,31,23.8,-279.16082763671875,0.6949999928474426,0,0.0,0.0,1.57542003E9,,,,0,,1,2.03,1.57542003E9
Raw,330095644,330162999000000,,,-1457982460431827903,0.5190401077270508,69.1002351231873,-4.707719518922467,13.9687011034183,1461,10,0.0,15,139823359431698,132,13.0,251.4921112060547,3.0950000286102295,0,0.0,0.0,1.57542003E9,,,,0,,1,2.03,1.57542003E9
Raw,330095644,330162999000000,,,-1457982460431827903,0.5190401077270508,69.1002351231873,-4.707719518922467,13.9687011034183,1461,32,0.0,15,139823351807219,24,25.0,-491.0177307128906,0.3982999920845032,0,0.0,0.0,1.57542003E9,,,,0,,1,2.03,1.57542003E9
Raw,330095645,330162999000000,,,-1457982460431827903,0.5190401077270508,69.1002351231873,-4.707719518922467,13.9687011034183,1461,5,0.0,783,139809298030238,622,18.8,-15.679885864257812,18.82349967956543,0,0.0,0.0,1.56109798E9,,,,0,,5,1.6,1.56109798E9
Fix,gps,45.066045,7.657056,315.717468,0.410000,9.648001,1774277406000
Fix,gps,45.066047,7.657062,315.695190,0.380000,9.648001,1774277407000
Raw,330096662,330163999000000,,,-1457982460431827910,0.4558897018432617,67.98762478865683,-6.0531224475139185,13.696015916647045,1461,9,0.0,207,64206359588962,27,24.2,341.8200378417969,0.8649999499320984,0,0.0,0.0,1.60087501E9,,,,0,,3,0.04,1.60087501E9
Raw,330096662,330163999000000,,,-1457982460431827910,0.4558897018432617,67.98762478865683,-6.0531224475139185,13.696015916647045,1461,19,0.0,207,64206363888224,31,23.3,-274.3897399902344,0.9309999942779541,0,0.0,0.0,1.60368755E9,,,,0,,3,0.04,1.60368755E9
Raw,330096663,330163999000000,,,-1457982460431827910,0.4558897018432617,67.98762478865683,-6.0531224475139185,13.696015916647045,1461,3,0.0,207,64206362219250,172,12.2,-228.00901794433594,4.929500102996826,0,0.0,0.0,1.60481254E9,,,,0,,3,0.04,1.60481254E9
Raw,330096663,330163999000000,,,-1457982460431827910,0.4558897018432617,67.98762478865683,-6.0531224475139185,13.696015916647045,1461,1,0.0,15,139824352209635,46,20.9,-555.4672241210938,0.8644999861717224,0,0.0,0.0,1.57542003E9,,,,0,,1,1.97,1.57542003E9
Raw,330096663,330163999000000,,,-1457982460431827910,0.4558897018432617,67.98762478865683,-6.0531224475139185,13.696015916647045,1461,2,0.0,15,139824359558640,17,28.5,-279.4860534667969,0.06180000305175781,0,0.0,0.0,1.57542003E9,,,,0,,1,1.97,1.57542003E9
Raw,330096664,330163999000000,,,-1457982460431827910,0.4558897018432617,67.98762478865683,-6.0531224475139185,13.696015916647045,1461,10,0.0,15,139824359431062,61,18.0,248.52352905273438,1.0749999284744263,0,0.0,0.0,1.57542003E9,,,,0,,1,1.97,1.57542003E9
Raw,330096664,330163999000000,,,-1457982460431827910,0.4558897018432617,67.98762478865683,-6.0531224475139185,13.696015916647045,1461,23,0.0,15,139824352797535,96,15.6,599.8912963867188,2.0245001316070557,0,0.0,0.0,1.57542003E9,,,,0,,1,1.97,1.57542003E9
Raw,330096664,330163999000000,,,-1457982460431827910,0.4558897018432617,67.98762478865683,-6.0531224475139185,13.696015916647045,1461,27,0.0,15,139824362034635,102,15.4,330.2546691894531,2.8595001697540283,0,0.0,0.0,1.57542003E9,,,,0,,1,1.97,1.57542003E9
Raw,330096665,330163999000000,,,-1457982460431827910,0.4558897018432617,67.98762478865683,-6.0531224475139185,13.696015916647045,1461,32,0.0,15,139824351808851,31,23.5,-490.2060241699219,0.6829999685287476,0,0.0,0.0,1.57542003E9,,,,0,,1,1.97,1.57542003E9
Raw,330096665,330163999000000,,,-1457982460431827910,0.4558897018432617,67.98762478865683,-6.0531224475139185,13.696015916647045,1461,5,0.0,783,139810298030320,658,18.6,-17.307952880859375,19.41349983215332,0,0.0,0.0,1.56109798E9,,,,0,,5,1.57,1.56109798E9
Raw,330096666,330163999000000,,,-1457982460431827910,0.4558897018432617,67.98762478865683,-6.0531224475139185,13.696015916647045,1461,8,0.0,7183,139824339222729,89,16.7,-509.9870300292969,2.5250000953674316,0,0.0,0.0,1.57542003E9,,,,0,,6,2.03,1.57542003E9
Raw,330096666,330163999000000,,,-1457982460431827910,0.4558897018432617,67.98762478865683,-6.0531224475139185,13.696015916647045,1461,21,0.0,7183,139824349236804,89,16.0,253.03350830078125,2.5220000743865967,0,0.0,0.0,1.57542003E9,,,,0,,6,2.03,1.57542003E9
Raw,330096666,330163999000000,,,-1457982460431827910,0.4558897018432617,67.98762478865683,-6.0531224475139185,13.696015916647045,1461,26,0.0,7183,139824345693924,84,16.0,-371.6530456542969,1.7720000743865967,0,0.0,0.0,1.57542003E9,,,,0,,6,2.03,1.57542003E9
Fix,gps,45.066050,7.657065,315.655212,0.330000,9.648001,1774277408000
Raw,330097662,330164999000000,,,-1457982460431827923,0.8495073318481445,66.0545047139749,-6.859019388258295,15.478525135506029,1461,9,0.0,207,64207359587691,40,21.6,342.2601318359375,1.0449999570846558,0,0.0,0.0,1.60087501E9,,,,0,,3,-0.04,1.60087501E9
Raw,330097663,330164999000000,,,-1457982460431827923,0.8495073318481445,66.0545047139749,-6.859019388258295,15.478525135506029,1461,19,0.0,207,64207363889137,40,21.3,-275.37115478515625,1.0509999990463257,0,0.0,0.0,1.60368755E9,,,,0,,3,-0.04,1.60368755E9
Raw,330097663,330164999000000,,,-1457982460431827923,0.8495073318481445,66.0545047139749,-6.859019388258295,15.478525135506029,1461,1,0.0,15,139825352211502,35,22.8,-555.8097534179688,0.7444999814033508,0,0.0,0.0,1.57542003E9,,,,0,,1,2.0,1.57542003E9
Raw,330097665,330164999000000,,,-1457982460431827923,0.8495073318481445,66.0545047139749,-6.859019388258295,15.478525135506029,1461,2,0.0,15,139825359559579,35,22.9,-279.14178466796875,0.7549999952316284,0,0.0,0.0,1.57542003E9,,,,0,,1,2.0,1.57542003E9
Raw,330097666,330164999000000,,,-1457982460431827923,0.8495073318481445,66.0545047139749,-6.859019388258295,15.478525135506029,1461,23,0.0,15,139825352795519,70,17.1,599.45361328125,1.184499979019165,0,0.0,0.0,1.57542003E9,,,,0,,1,2.0,1.57542003E9
Raw,330097666,330164999000000,,,-1457982460431827923,0.8495073318481445,66.0545047139749,-6.859019388258295,15.478525135506029,1461,32,0.0,15,139825351810461,40,21.1,-490.3487243652344,0.8629999756813049,0,0.0,0.0,1.57542003E9,,,,0,,1,2.0,1.57542003E9
Raw,330097666,330164999000000,,,-1457982460431827923,0.8495073318481445,66.0545047139749,-6.859019388258295,15.478525135506029,1461,5,0.0,783,139811298030389,701,18.4,-17.3631591796875,20.433500289916992,0,0.0,0.0,1.56109798E9,,,,0,,5,1.34,1.56109798E9
Raw,330097667,330164999000000,,,-1457982460431827923,0.8495073318481445,66.0545047139749,-6.859019388258295,15.478525135506029,1461,3,0.0,7183,139825340670583,140,13.7,-182.94833374023438,3.5305001735687256,0,0.0,0.0,1.57542003E9,,,,0,,6,2.07,1.57542003E9
Raw,330097667,330164999000000,,,-1457982460431827923,0.8495073318481445,66.0545047139749,-6.859019388258295,15.478525135506029,1461,26,0.0,7183,139825345695143,35,22.3,-372.06219482421875,0.6420000195503235,0,0.0,0.0,1.57542003E9,,,,0,,6,2.07,1.57542003E9
Fix,gps,45.066053,7.657068,315.689331,0.200000,10.720000,1774277409000
Raw,330098675,330165999000000,,,-1457982460431827928,0.5148916244506836,61.721642850898206,-6.1008773474650395,13.506555063243843,1461,19,0.0,207,64208363890043,46,20.3,-274.6794738769531,1.121000051498413,0,0.0,0.0,1.60368755E9,,,,0,,3,0.1,1.60368755E9
Raw,330098676,330165999000000,,,-1457982460431827928,0.5148916244506836,61.721642850898206,-6.1008773474650395,13.506555063243843,1461,4,0.0,207,64208356861919,117,14.3,-783.6107788085938,3.200500249862671,0,0.0,0.0,1.60537498E9,,,,0,,3,0.1,1.60537498E9
Raw,330098676,330165999000000,,,-1457982460431827928,0.5148916244506836,61.721642850898206,-6.1008773474650395,13.506555063243843,1461,2,0.0,15,139826359560539,27,24.4,-279.17034912109375,0.6949999928474426,0,0.0,0.0,1.57542003E9,,,,0,,1,2.12,1.57542003E9
Raw,330098676,330165999000000,,,-1457982460431827928,0.5148916244506836,61.721642850898206,-6.1008773474650395,13.506555063243843,1461,10,0.0,15,139826359429244,96,15.4,248.9231414794922,2.1050000190734863,0,0.0,0.0,1.57542003E9,,,,0,,1,2.12,1.57542003E9
Raw,330098678,330165999000000,,,-1457982460431827928,0.5148916244506836,61.721642850898206,-6.1008773474650395,13.506555063243843,1461,27,0.0,15,139826362032296,73,17.7,329.2080383300781,1.8294999599456787,0,0.0,0.0,1.57542003E9,,,,0,,1,2.12,1.57542003E9
Raw,330098678,330165999000000,,,-1457982460431827928,0.5148916244506836,61.721642850898206,-6.1008773474650395,13.506555063243843,1461,32,0.0,15,139826351812147,19,27.7,-490.5311279296875,0.05780000239610672,0,0.0,0.0,1.57542003E9,,,,0,,1,2.12,1.57542003E9
Raw,330098679,330165999000000,,,-1457982460431827928,0.5148916244506836,61.721642850898206,-6.1008773474650395,13.506555063243843,1461,5,0.0,783,139812298030422,742,18.0,-16.338592529296875,20.953500747680664,0,0.0,0.0,1.56109798E9,,,,0,,5,1.7,1.56109798E9
Raw,330098679,330165999000000,,,-1457982460431827928,0.5148916244506836,61.721642850898206,-6.1008773474650395,13.506555063243843,1461,15,0.0,7183,139826345086283,135,14.2,400.2161560058594,4.191999912261963,0,0.0,0.0,1.57542003E9,,,,0,,6,2.1,1.57542003E9
Raw,330098680,330165999000000,,,-1457982460431827928,0.5148916244506836,61.721642850898206,-6.1008773474650395,13.506555063243843,1461,23,0.0,7183,139826345169885,120,15.2,-284.6698303222656,4.1020002365112305,0,0.0,0.0,1.57542003E9,,,,0,,6,2.1,1.57542003E9
Raw,330098680,330165999000000,,,-1457982460431827928,0.5148916244506836,61.721642850898206,-6.1008773474650395,13.506555063243843,1461,26,0.0,7183,139826345696426,46,20.3,-373.0326843261719,0.7519999742507935,0,0.0,0.0,1.57542003E9,,,,0,,6,2.1,1.57542003E9
Fix,gps,45.066053,7.657067,315.457153,0.210000,10.720000,1774277410000
Raw,330099673,330166999000000,,,-1457982460431827942,0.1352710723876953,69.2841422278434,-6.737770390765491,18.702535986792455,1461,9,0.0,207,64209359585554,33,23.6,343.09344482421875,1.6749999523162842,0,0.0,0.0,1.60087501E9,,,,0,,3,0.34,1.60087501E9
Raw,330099674,330166999000000,,,-1457982460431827942,0.1352710723876953,69.2841422278434,-6.737770390765491,18.702535986792455,1461,19,0.0,207,64209363890989,31,23.3,-274.31494140625,0.9309999942779541,0,0.0,0.0,1.60368755E9,,,,0,,3,0.34,1.60368755E9
Raw,330099674,330166999000000,,,-1457982460431827942,0.1352710723876953,69.2841422278434,-6.737770390765491,18.702535986792455,1461,1,0.0,15,139827352215292,56,19.3,-554.9439086914062,1.7645000219345093,0,0.0,0.0,1.57542003E9,,,,0,,1,2.3,1.57542003E9
Raw,330099675,330166999000000,,,-1457982460431827942,0.1352710723876953,69.2841422278434,-6.737770390765491,18.702535986792455,1461,2,0.0,15,139827359561449,16,29.1,-278.6836242675781,0.0552000030875206,0,0.0,0.0,1.57542003E9,,,,0,,1,2.3,1.57542003E9
Raw,330099675,330166999000000,,,-1457982460431827942,0.1352710723876953,69.2841422278434,-6.737770390765491,18.702535986792455,1461,10,0.0,15,139827359428436,70,17.7,249.4084014892578,1.0749999284744263,0,0.0,0.0,1.57542003E9,,,,0,,1,2.3,1.57542003E9
Raw,330099676,330166999000000,,,-1457982460431827942,0.1352710723876953,69.2841422278434,-6.737770390765491,18.702535986792455,1461,23,0.0,15,139827352791431,56,19.0,599.5392456054688,1.7645000219345093,0,0.0,0.0,1.57542003E9,,,,0,,1,2.3,1.57542003E9
Raw,330099676,330166999000000,,,-1457982460431827942,0.1352710723876953,69.2841422278434,-6.737770390765491,18.702535986792455,1461,32,0.0,15,139827351813770,16,29.7,-490.02679443359375,0.04320000112056732,0,0.0,0.0,1.57542003E9,,,,0,,1,2.3,1.57542003E9
Raw,330099676,330166999000000,,,-1457982460431827942,0.1352710723876953,69.2841422278434,-6.737770390765491,18.702535986792455,1461,5,0.0,783,139813298030470,786,18.1,-15.900909423828125,21.62350082397461,0,0.0,0.0,1.56109798E9,,,,0,,5,1.56,1.56109798E9
Raw,330099677,330166999000000,,,-1457982460431827942,0.1352710723876953,69.2841422278434,-6.737770390765491,18.702535986792455,1461,13,0.0,7183,139827352904267,151,13.0,18.563148498535156,4.2804999351501465,0,0.0,0.0,1.57542003E9,,,,0,,6,2.26,1.57542003E9
Raw,330099677,330166999000000,,,-1457982460431827942,0.1352710723876953,69.2841422278434,-6.737770390765491,18.702535986792455,1461,21,0.0,7183,139827349234277,101,15.7,252.6338653564453,2.6019999980926514,0,0.0,0.0,1.57542003E9,,,,0,,6,2.26,1.57542003E9
Raw,330099678,330166999000000,,,-1457982460431827942,0.1352710723876953,69.2841422278434,-6.737770390765491,18.702535986792455,1461,26,0.0,7183,139827345697692,19,27.6,-372.11029052734375,0.06680000573396683,0,0.0,0.0,1.57542003E9,,,,0,,6,2.26,1.57542003E9
Fix,gps,45.066051,7.657064,315.615601,0.240000,9.648001,1774277411000
Raw,330100684,330167999000000,,,-1457982460431827953,0.21271991729736328,64.43887832574546,-5.3013589401448895,16.236341509640443,1461,18,0.0,207,64210363016122,267,11.9,307.93914794921875,8.071000099182129,0,0.0,0.0,1.60031245E9,,,,0,,3,0.36,1.60031245E9
Raw,330100684,330167999000000,,,-1457982460431827953,0.21271991729736328,64.43887832574546,-5.3013589401448895,16.236341509640443,1461,9,0.0,207,64210359584418,16,29.0,343.4244079589844,0.22519999742507935,0,0.0,0.0,1.60087501E9,,,,0,,3,0.36,1.60087501E9
Raw,330100685,330167999000000,,,-1457982460431827953,0.21271991729736328,64.43887832574546,-5.3013589401448895,16.236341509640443,1461,3,0.0,207,64210362222295,181,11.9,-227.3551788330078,4.319499969482422,0,0.0,0.0,1.60481254E9,,,,0,,3,0.36,1.60481254E9
Raw,330100686,330167999000000,,,-1457982460431827953,0.21271991729736328,64.43887832574546,-5.3013589401448895,16.236341509640443,1461,1,0.0,15,139828352217104,53,19.9,-555.0961303710938,0.934499979019165,0,0.0,0.0,1.57542003E9,,,,0,,1,2.33,1.57542003E9
Raw,330100686,330167999000000,,,-1457982460431827953,0.21271991729736328,64.43887832574546,-5.3013589401448895,16.236341509640443,1461,2,0.0,15,139828359562366,17,28.6,-278.59088134765625,0.06180000305175781,0,0.0,0.0,1.57542003E9,,,,0,,1,2.33,1.57542003E9
Raw,330100687,330167999000000,,,-1457982460431827953,0.21271991729736328,64.43887832574546,-5.3013589401448895,16.236341509640443,1461,10,0.0,15,139828359427562,61,18.3,250.3123016357422,1.0749999284744263,0,0.0,0.0,1.57542003E9,,,,0,,1,2.33,1.57542003E9
Raw,330100687,330167999000000,,,-1457982460431827953,0.21271991729736328,64.43887832574546,-5.3013589401448895,16.236341509640443,1461,23,0.0,15,139828352789459,53,19.8,601.0140380859375,0.934499979019165,0,0.0,0.0,1.57542003E9,,,,0,,1,2.33,1.57542003E9
Raw,330100688,330167999000000,,,-1457982460431827953,0.21271991729736328,64.43887832574546,-5.3013589401448895,16.236341509640443,1461,32,0.0,15,139828351815445,24,25.4,-489.7008361816406,0.3982999920845032,0,0.0,0.0,1.57542003E9,,,,0,,1,2.33,1.57542003E9
Raw,330100688,330167999000000,,,-1457982460431827953,0.21271991729736328,64.43887832574546,-5.3013589401448895,16.236341509640443,1461,5,0.0,783,139814298030523,907,17.8,-16.421539306640625,22.323501586914062,0,0.0,0.0,1.56109798E9,,,,0,,5,1.37,1.56109798E9
Raw,330100688,330167999000000,,,-1457982460431827953,0.21271991729736328,64.43887832574546,-5.3013589401448895,16.236341509640443,1461,21,0.0,7183,139828349233461,35,22.7,253.1762237548828,0.6420000195503235,0,0.0,0.0,1.57542003E9,,,,0,,6,2.26,1.57542003E9
Raw,330100689,330167999000000,,,-1457982460431827953,0.21271991729736328,64.43887832574546,-5.3013589401448895,16.236341509640443,1461,26,0.0,7183,139828345698910,16,29.3,-371.6549987792969,0.05220000073313713,0,0.0,0.0,1.57542003E9,,,,0,,6,2.26,1.57542003E9
Fix,gps,45.066048,7.657062,315.056152,0.000000,9.648001,1774277412000
Raw,330101676,330168999000000,,,-1457982460431827960,0.26877880096435547,60.039994423277676,-3.054363374492891,12.497649297504916,1461,9,0.0,207,64211359583263,16,29.7,343.73248291015625,0.22519999742507935,0,0.0,0.0,1.60087501E9,,,,0,,3,0.33,1.60087501E9
Raw,330101678,330168999000000,,,-1457982460431827960,0.26877880096435547,60.039994423277676,-3.054363374492891,12.497649297504916,1461,1,0.0,15,139829352218915,46,20.5,-554.4491577148438,0.8644999861717224,0,0.0,0.0,1.57542003E9,,,,0,,1,2.3,1.57542003E9
Raw,330101683,330168999000000,,,-1457982460431827960,0.26877880096435547,60.039994423277676,-3.054363374492891,12.497649297504916,1461,2,0.0,15,139829359563288,17,28.9,-278.2579040527344,0.06180000305175781,0,0.0,0.0,1.57542003E9,,,,0,,1,2.3,1.57542003E9
Raw,330101686,330168999000000,,,-1457982460431827960,0.26877880096435547,60.039994423277676,-3.054363374492891,12.497649297504916,1461,10,0.0,15,139829359426642,70,17.4,250.2647247314453,1.1649999618530273,0,0.0,0.0,1.57542003E9,,,,0,,1,2.3,1.57542003E9
Raw,330101688,330168999000000,,,-1457982460431827960,0.26877880096435547,60.039994423277676,-3.054363374492891,12.497649297504916,1461,23,0.0,15,139829352787551,53,19.5,600.7476196289062,0.934499979019165,0,0.0,0.0,1.57542003E9,,,,0,,1,2.3,1.57542003E9
Raw,330101689,330168999000000,,,-1457982460431827960,0.26877880096435547,60.039994423277676,-3.054363374492891,12.497649297504916,1461,32,0.0,15,139829351817035,27,24.7,-489.6922302246094,0.6330000162124634,0,0.0,0.0,1.57542003E9,,,,0,,1,2.3,1.57542003E9
Raw,330101690,330168999000000,,,-1457982460431827960,0.26877880096435547,60.039994423277676,-3.054363374492891,12.497649297504916,1461,5,0.0,783,139815298030561,958,17.5,-15.272598266601562,23.0935001373291,0,0.0,0.0,1.56109798E9,,,,0,,5,1.37,1.56109798E9
Raw,330101690,330168999000000,,,-1457982460431827960,0.26877880096435547,60.039994423277676,-3.054363374492891,12.497649297504916,1461,3,0.0,7183,139829340672927,110,15.6,-181.5592041015625,3.3505001068115234,0,0.0,0.0,1.57542003E9,,,,0,,6,2.18,1.57542003E9
Raw,330101691,330168999000000,,,-1457982460431827960,0.26877880096435547,60.039994423277676,-3.054363374492891,12.497649297504916,1461,21,0.0,7183,139829349232613,31,23.6,253.23330688476562,0.6019999980926514,0,0.0,0.0,1.57542003E9,,,,0,,6,2.18,1.57542003E9
Raw,330101691,330168999000000,,,-1457982460431827960,0.26877880096435547,60.039994423277676,-3.054363374492891,12.497649297504916,1461,23,0.0,7183,139829345172803,101,15.8,-284.6888427734375,2.6019999980926514,0,0.0,0.0,1.57542003E9,,,,0,,6,2.18,1.57542003E9
Raw,330101691,330168999000000,,,-1457982460431827960,0.26877880096435547,60.039994423277676,-3.054363374492891,12.497649297504916,1461,26,0.0,7183,139829345700179,17,28.7,-371.3413391113281,0.058800000697374344,0,0.0,0.0,1.57542003E9,,,,0,,6,2.18,1.57542003E9
Fix,gps,45.066048,7.657062,314.701721,0.000000,9.648001,1774277413000
Raw,330102664,330169999000000,,,-1457982460431827969,0.31318092346191406,60.769845731556416,-2.8162137650356573,12.417018368225934,1461,18,0.0,207,64212363014347,73,17.2,310.5899353027344,2.121000051498413,0,0.0,0.0,1.60031245E9,,,,0,,3,0.29,1.60031245E9
Raw,330102664,330169999000000,,,-1457982460431827969,0.31318092346191406,60.769845731556416,-2.8162137650356573,12.417018368225934,1461,9,0.0,207,64212359582138,16,29.6,344.61798095703125,0.22519999742507935,0,0.0,0.0,1.60087501E9,,,,0,,3,0.29,1.60087501E9
Raw,330102665,330169999000000,,,-1457982460431827969,0.31318092346191406,60.769845731556416,-2.8162137650356573,12.417018368225934,1461,3,0.0,207,64212362223851,96,15.3,-225.2349090576172,2.309500217437744,0,0.0,0.0,1.60481254E9,,,,0,,3,0.29,1.60481254E9
Raw,330102665,330169999000000,,,-1457982460431827969,0.31318092346191406,60.769845731556416,-2.8162137650356573,12.417018368225934,1461,1,0.0,15,139830352220699,46,20.3,-553.5357666015625,0.934499979019165,0,0.0,0.0,1.57542003E9,,,,0,,1,2.24,1.57542003E9
Raw,330102666,330169999000000,,,-1457982460431827969,0.31318092346191406,60.769845731556416,-2.8162137650356573,12.417018368225934,1461,2,0.0,15,139830359564204,17,28.9,-277.55206298828125,0.06180000305175781,0,0.0,0.0,1.57542003E9,,,,0,,1,2.24,1.57542003E9
Raw,330102666,330169999000000,,,-1457982460431827969,0.31318092346191406,60.769845731556416,-2.8162137650356573,12.417018368225934,1461,10,0.0,15,139830359425788,53,19.3,251.60630798339844,0.9950000047683716,0,0.0,0.0,1.57542003E9,,,,0,,1,2.24,1.57542003E9
Raw,330102666,330169999000000,,,-1457982460431827969,0.31318092346191406,60.769845731556416,-2.8162137650356573,12.417018368225934,1461,23,0.0,15,139830352785542,70,17.4,600.2813720703125,1.184499979019165,0,0.0,0.0,1.57542003E9,,,,0,,1,2.24,1.57542003E9
Raw,330102667,330169999000000,,,-1457982460431827969,0.31318092346191406,60.769845731556416,-2.8162137650356573,12.417018368225934,1461,32,0.0,15,139830351818651,27,24.7,-488.7217102050781,0.6330000162124634,0,0.0,0.0,1.57542003E9,,,,0,,1,2.24,1.57542003E9
Raw,330102667,330169999000000,,,-1457982460431827969,0.31318092346191406,60.769845731556416,-2.8162137650356573,12.417018368225934,1461,5,0.0,783,139816298030581,1038,17.3,-14.368698120117188,24.2185001373291,0,0.0,0.0,1.56109798E9,,,,0,,5,1.2,1.56109798E9
Raw,330102667,330169999000000,,,-1457982460431827969,0.31318092346191406,60.769845731556416,-2.8162137650356573,12.417018368225934,1461,8,0.0,7183,139830339233023,148,14.6,-510.23443603515625,4.945000171661377,0,0.0,0.0,1.57542003E9,,,,0,,6,2.18,1.57542003E9
Raw,330102668,330169999000000,,,-1457982460431827969,0.31318092346191406,60.769845731556416,-2.8162137650356573,12.417018368225934,1461,21,0.0,7183,139830349231749,27,24.0,254.99351501464844,0.5519999861717224,0,0.0,0.0,1.57542003E9,,,,0,,6,2.18,1.57542003E9
Raw,330102669,330169999000000,,,-1457982460431827969,0.31318092346191406,60.769845731556416,-2.8162137650356573,12.417018368225934,1461,26,0.0,7183,139830345701406,17,28.2,-370.5506591796875,0.058800000697374344,0,0.0,0.0,1.57542003E9,,,,0,,6,2.18,1.57542003E9
Fix,gps,45.066048,7.657062,314.365723,0.000000,9.648001,1774277414000
Raw,330103672,330170999000000,,,-1457982460431827973,0.587890625,64.15886309696361,-1.222983578969675,12.566845708540207,1461,18,0.0,207,64213363013238,61,18.6,310.1309509277344,1.281000018119812,0,0.0,0.0,1.60031245E9,,,,0,,3,0.33,1.60031245E9
Raw,330103672,330170999000000,,,-1457982460431827973,0.587890625,64.15886309696361,-1.222983578969675,12.566845708540207,1461,9,0.0,207,64213359580966,16,29.5,344.71490478515625,0.22519999742507935,0,0.0,0.0,1.60087501E9,,,,0,,3,0.33,1.60087501E9
Raw,330103673,330170999000000,,,-1457982460431827973,0.587890625,64.15886309696361,-1.222983578969675,12.566845708540207,1461,3,0.0,207,64213362224758,80,16.7,-225.70193481445312,1.4595000743865967,0,0.0,0.0,1.60481254E9,,,,0,,3,0.33,1.60481254E9
Raw,330103673,330170999000000,,,-1457982460431827973,0.587890625,64.15886309696361,-1.222983578969675,12.566845708540207,1461,1,0.0,15,139831352222664,46,20.9,-552.9172973632812,0.8644999861717224,0,0.0,0.0,1.57542003E9,,,,0,,1,2.3,1.57542003E9
Raw,330103674,330170999000000,,,-1457982460431827973,0.587890625,64.15886309696361,-1.222983578969675,12.566845708540207,1461,2,0.0,15,139831359565151,19,27.9,-277.54949951171875,0.06980000436306,0,0.0,0.0,1.57542003E9,,,,0,,1,2.3,1.57542003E9
Raw,330103674,330170999000000,,,-1457982460431827973,0.587890625,64.15886309696361,-1.222983578969675,12.566845708540207,1461,10,0.0,15,139831359425071,80,16.9,250.5596923828125,1.1649999618530273,0,0.0,0.0,1.57542003E9,,,,0,,1,2.3,1.57542003E9
Raw,330103674,330170999000000,,,-1457982460431827973,0.587890625,64.15886309696361,-1.222983578969675,12.566845708540207,1461,32,0.0,15,139831351820285,21,26.1,-488.7647705078125,0.12770000100135803,0,0.0,0.0,1.57542003E9,,,,0,,1,2.3,1.57542003E9
Raw,330103675,330170999000000,,,-1457982460431827973,0.587890625,64.15886309696361,-1.222983578969675,12.566845708540207,1461,3,0.0,7183,139831340674177,84,16.1,-180.13198852539062,1.7705000638961792,0,0.0,0.0,1.57542003E9,,,,0,,6,2.18,1.57542003E9
Raw,330103675,330170999000000,,,-1457982460431827973,0.587890625,64.15886309696361,-1.222983578969675,12.566845708540207,1461,21,0.0,7183,139831349230869,31,23.8,254.6510009765625,0.6019999980926514,0,0.0,0.0,1.57542003E9,,,,0,,6,2.18,1.57542003E9
Raw,330103675,330170999000000,,,-1457982460431827973,0.587890625,64.15886309696361,-1.222983578969675,12.566845708540207,1461,26,0.0,7183,139831345702641,17,28.0,-370.57440185546875,0.058800000697374344,0,0.0,0.0,1.57542003E9,,,,0,,6,2.18,1.57542003E9
Fix,gps,45.066048,7.657062,314.333496,0.000000,9.648001,1774277415000
Raw,330104665,330171999000000,,,-1457982460431827973,0.18555927276611328,64.68972424045205,-1.3810782398015637,13.571174644922307,1461,9,0.0,207,64214359579778,17,28.3,345.23480224609375,0.23180000483989716,0,0.0,0.0,1.60087501E9,,,,0,,3,0.32,1.60087501E9
Raw,330104666,330171999000000,,,-1457982460431827973,0.18555927276611328,64.68972424045205,-1.3810782398015637,13.571174644922307,1461,19,0.0,207,64214363895432,110,16.3,-273.2680969238281,4.460999965667725,0,0.0,0.0,1.60368755E9,,,,0,,3,0.32,1.60368755E9
Raw,330104667,330171999000000,,,-1457982460431827973,0.18555927276611328,64.68972424045205,-1.3810782398015637,13.571174644922307,1461,3,0.0,207,64214362225513,80,16.6,-225.32830810546875,1.4595000743865967,0,0.0,0.0,1.60481254E9,,,,0,,3,0.32,1.60481254E9
Raw,330104667,330171999000000,,,-1457982460431827973,0.18555927276611328,64.68972424045205,-1.3810782398015637,13.571174644922307,1461,2,0.0,15,139832359566083,17,28.6,-277.2197570800781,0.06180000305175781,0,0.0,0.0,1.57542003E9,,,,0,,1,2.27,1.57542003E9
Raw,330104668,330171999000000,,,-1457982460431827973,0.18555927276611328,64.68972424045205,-1.3810782398015637,13.571174644922307,1461,23,0.0,15,139832352781388,84,16.6,600.5287475585938,1.934499979019165,0,0.0,0.0,1.57542003E9,,,,0,,1,2.27,1.57542003E9
Raw,330104668,330171999000000,,,-1457982460431827973,0.18555927276611328,64.68972424045205,-1.3810782398015637,13.571174644922307,1461,32,0.0,15,139832351821990,27,24.3,-488.36016845703125,0.6829999685287476,0,0.0,0.0,1.57542003E9,,,,0,,1,2.27,1.57542003E9
Raw,330104668,330171999000000,,,-1457982460431827973,0.18555927276611328,64.68972424045205,-1.3810782398015637,13.571174644922307,1461,21,0.0,7183,139832349230051,27,24.0,254.94593811035156,0.5519999861717224,0,0.0,0.0,1.57542003E9,,,,0,,6,2.18,1.57542003E9
Raw,330104669,330171999000000,,,-1457982460431827973,0.18555927276611328,64.68972424045205,-1.3810782398015637,13.571174644922307,1461,23,0.0,7183,139832345175670,101,15.8,-282.6336669921875,2.6019999980926514,0,0.0,0.0,1.57542003E9,,,,0,,6,2.18,1.57542003E9
Raw,330104669,330171999000000,,,-1457982460431827973,0.18555927276611328,64.68972424045205,-1.3810782398015637,13.571174644922307,1461,26,0.0,7183,139832345703898,21,26.5,-370.3062438964844,0.13670000433921814,0,0.0,0.0,1.57542003E9,,,,0,,6,2.18,1.57542003E9
Raw,330105630,330172999000000,,,-1457982460431827976,0.9354839324951172,67.11755850119516,-0.6256061486795861,15.327908878645802,1461,9,0.0,207,64215359578551,27,24.5,345.09722900390625,0.8649999499320984,0,0.0,0.0,1.60087501E9,,,,0,,3,-1.89,1.60087501E9
Raw,330105631,330172999000000,,,-1457982460431827976,0.9354839324951172,67.11755850119516,-0.6256061486795861,15.327908878645802,1461,19,0.0,207,64215363896455,61,18.7,-272.2679748535156,1.281000018119812,0,0.0,0.0,1.60368755E9,,,,0,,3,-1.89,1.60368755E9
Raw,330105632,330172999000000,,,-1457982460431827976,0.9354839324951172,67.11755850119516,-0.6256061486795861,15.327908878645802,1461,1,0.0,15,139833352226252,96,15.9,-552.5081176757812,2.0245001316070557,0,0.0,0.0,1.57542003E9,,,,0,,1,-0.0,1.57542003E9
Raw,330105632,330172999000000,,,-1457982460431827976,0.9354839324951172,67.11755850119516,-0.6256061486795861,15.327908878645802,1461,2,0.0,15,139833359567035,24,25.5,-277.0932312011719,0.41030001640319824,0,0.0,0.0,1.57542003E9,,,,0,,1,-0.0,1.57542003E9
Raw,330105633,330172999000000,,,-1457982460431827976,0.9354839324951172,67.11755850119516,-0.6256061486795861,15.327908878645802,1461,10,0.0,15,139833359423305,110,14.8,252.8432159423828,2.1050000190734863,0,0.0,0.0,1.57542003E9,,,,0,,1,-0.0,1.57542003E9
Raw,330105633,330172999000000,,,-1457982460431827976,0.9354839324951172,67.11755850119516,-0.6256061486795861,15.327908878645802,1461,27,0.0,15,139833362024626,151,15.0,331.9482727050781,5.859500408172607,0,0.0,0.0,1.57542003E9,,,,0,,1,-0.0,1.57542003E9
Raw,330105634,330172999000000,,,-1457982460431827976,0.9354839324951172,67.11755850119516,-0.6256061486795861,15.327908878645802,1461,32,0.0,15,139833351823550,27,24.3,-488.6170349121094,0.6829999685287476,0,0.0,0.0,1.57542003E9,,,,0,,1,-0.0,1.57542003E9
Raw,330105634,330172999000000,,,-1457982460431827976,0.9354839324951172,67.11755850119516,-0.6256061486795861,15.327908878645802,1461,21,0.0,7183,139833349229166,46,20.6,254.16574096679688,0.7519999742507935,0,0.0,0.0,1.57542003E9,,,,0,,6,-0.05,1.57542003E9
Raw,330105635,330172999000000,,,-1457982460431827976,0.9354839324951172,67.11755850119516,-0.6256061486795861,15.327908878645802,1461,26,0.0,7183,139833345705089,40,21.4,-370.3780822753906,0.6919999718666077,0,0.0,0.0,1.57542003E9,,,,0,,6,-0.05,1.57542003E9
Fix,gps,45.066048,7.657062,314.364380,0.000000,9.648001,1774277416000
Fix,gps,45.066048,7.657062,314.320557,0.000000,9.648001,1774277417000
Raw,330106657,330173999000000,,,-1457982460431827971,0.2568206787109375,66.60902727162465,0.05235330745786606,14.084881789270607,1461,9,0.0,207,64216359577488,16,29.7,344.3489074707031,0.22519999742507935,0,0.0,0.0,1.60087501E9,,,,0,,3,0.98,1.60087501E9
Raw,330106657,330173999000000,,,-1457982460431827971,0.2568206787109375,66.60902727162465,0.05235330745786606,14.084881789270607,1461,19,0.0,207,64216363897334,70,17.8,-275.2496337890625,1.371000051498413,0,0.0,0.0,1.60368755E9,,,,0,,3,0.98,1.60368755E9
Raw,330106658,330173999000000,,,-1457982460431827971,0.2568206787109375,66.60902727162465,0.05235330745786606,14.084881789270607,1461,2,0.0,15,139834359567893,31,23.1,-278.15228271484375,0.7549999952316284,0,0.0,0.0,1.57542003E9,,,,0,,1,2.95,1.57542003E9
Raw,330106660,330173999000000,,,-1457982460431827971,0.2568206787109375,66.60902727162465,0.05235330745786606,14.084881789270607,1461,23,0.0,15,139834352777377,84,16.0,601.5658569335938,2.0245001316070557,0,0.0,0.0,1.57542003E9,,,,0,,1,2.95,1.57542003E9
Raw,330106660,330173999000000,,,-1457982460431827971,0.2568206787109375,66.60902727162465,0.05235330745786606,14.084881789270607,1461,32,0.0,15,139834351825167,27,24.8,-489.3116455078125,0.6330000162124634,0,0.0,0.0,1.57542003E9,,,,0,,1,2.95,1.57542003E9
Raw,330106660,330173999000000,,,-1457982460431827971,0.2568206787109375,66.60902727162465,0.05235330745786606,14.084881789270607,1461,15,0.0,7183,139834345075605,217,12.1,399.9592590332031,6.63200044631958,0,0.0,0.0,1.57542003E9,,,,0,,6,2.89,1.57542003E9
Raw,330106661,330173999000000,,,-1457982460431827971,0.2568206787109375,66.60902727162465,0.05235330745786606,14.084881789270607,1461,21,0.0,7183,139834349228325,46,20.6,253.07154846191406,0.7519999742507935,0,0.0,0.0,1.57542003E9,,,,0,,6,2.89,1.57542003E9
Fix,gps,45.066048,7.657062,314.205811,0.000000,9.648001,1774277418000
Raw,330107654,330174999000000,,,-1457982460431827969,0.1939716339111328,63.692627009004354,-2.4635965002099747,13.361208323554482,1461,9,0.0,207,64217359576364,14,30.4,344.9665832519531,0.22429999709129333,0,0.0,0.0,1.60087501E9,,,,0,,3,0.36,1.60087501E9
Raw,330107655,330174999000000,,,-1457982460431827969,0.1939716339111328,63.692627009004354,-2.4635965002099747,13.361208323554482,1461,19,0.0,207,64217363898404,61,18.6,-272.968994140625,1.281000018119812,0,0.0,0.0,1.60368755E9,,,,0,,3,0.36,1.60368755E9
Raw,330107656,330174999000000,,,-1457982460431827969,0.1939716339111328,63.692627009004354,-2.4635965002099747,13.361208323554482,1461,1,0.0,15,139835352230031,73,17.6,-554.8202514648438,1.844499945640564,0,0.0,0.0,1.57542003E9,,,,0,,1,2.33,1.57542003E9
Raw,330107656,330174999000000,,,-1457982460431827969,0.1939716339111328,63.692627009004354,-2.4635965002099747,13.361208323554482,1461,2,0.0,15,139835359568773,35,22.1,-277.2483825683594,0.8149999976158142,0,0.0,0.0,1.57542003E9,,,,0,,1,2.33,1.57542003E9
Raw,330107656,330174999000000,,,-1457982460431827969,0.1939716339111328,63.692627009004354,-2.4635965002099747,13.361208323554482,1461,10,0.0,15,139835359421768,96,15.5,250.49307250976562,2.005000114440918,0,0.0,0.0,1.57542003E9,,,,0,,1,2.33,1.57542003E9
Raw,330107657,330174999000000,,,-1457982460431827969,0.1939716339111328,63.692627009004354,-2.4635965002099747,13.361208323554482,1461,32,0.0,15,139835351826821,21,26.9,-488.8123474121094,0.12770000100135803,0,0.0,0.0,1.57542003E9,,,,0,,1,2.33,1.57542003E9
Raw,330107657,330174999000000,,,-1457982460431827969,0.1939716339111328,63.692627009004354,-2.4635965002099747,13.361208323554482,1461,21,0.0,7183,139835349227479,46,20.2,254.479736328125,0.7519999742507935,0,0.0,0.0,1.57542003E9,,,,0,,6,2.26,1.57542003E9
Raw,330107658,330174999000000,,,-1457982460431827969,0.1939716339111328,63.692627009004354,-2.4635965002099747,13.361208323554482,1461,26,0.0,7183,139835345707557,64,18.4,-371.6435241699219,1.621999979019165,0,0.0,0.0,1.57542003E9,,,,0,,6,2.26,1.57542003E9
Fix,gps,45.066048,7.657062,314.229492,0.000000,9.648001,1774277419000
Raw,330108663,330175999000000,,,-1457982460431827973,0.08125114440917969,63.80570994224399,-1.2785077561048401,14.835761741919319,1461,9,0.0,207,64218359575183,13,31.2,345.58807373046875,0.22370000183582306,0,0.0,0.0,1.60087501E9,,,,0,,3,0.35,1.60087501E9
Raw,330108664,330175999000000,,,-1457982460431827973,0.08125114440917969,63.80570994224399,-1.2785077561048401,14.835761741919319,1461,19,0.0,207,64218363899281,46,20.0,-271.987548828125,1.121000051498413,0,0.0,0.0,1.60368755E9,,,,0,,3,0.35,1.60368755E9
Raw,330108664,330175999000000,,,-1457982460431827973,0.08125114440917969,63.80570994224399,-1.2785077561048401,14.835761741919319,1461,1,0.0,15,139836352231840,70,17.9,-553.4786376953125,1.094499945640564,0,0.0,0.0,1.57542003E9,,,,0,,1,2.3,1.57542003E9
Raw,330108664,330175999000000,,,-1457982460431827973,0.08125114440917969,63.80570994224399,-1.2785077561048401,14.835761741919319,1461,2,0.0,15,139836359569743,40,21.5,-278.2378845214844,0.8149999976158142,0,0.0,0.0,1.57542003E9,,,,0,,1,2.3,1.57542003E9
Raw,330108664,330175999000000,,,-1457982460431827973,0.08125114440917969,63.80570994224399,-1.2785077561048401,14.835761741919319,1461,10,0.0,15,139836359420816,70,17.5,251.1210479736328,1.0749999284744263,0,0.0,0.0,1.57542003E9,,,,0,,1,2.3,1.57542003E9
Raw,330108665,330175999000000,,,-1457982460431827973,0.08125114440917969,63.80570994224399,-1.2785077561048401,14.835761741919319,1461,32,0.0,15,139836351828447,27,24.6,-487.77978515625,0.6330000162124634,0,0.0,0.0,1.57542003E9,,,,0,,1,2.3,1.57542003E9
Raw,330108665,330175999000000,,,-1457982460431827973,0.08125114440917969,63.80570994224399,-1.2785077561048401,14.835761741919319,1461,21,0.0,7183,139836349226648,40,21.3,255.54537963867188,0.6919999718666077,0,0.0,0.0,1.57542003E9,,,,0,,6,2.18,1.57542003E9
Raw,330108665,330175999000000,,,-1457982460431827973,0.08125114440917969,63.80570994224399,-1.2785077561048401,14.835761741919319,1461,23,0.0,7183,139836345179465,110,15.1,-281.17791748046875,3.3519999980926514,0,0.0,0.0,1.57542003E9,,,,0,,6,2.18,1.57542003E9
Raw,330108665,330175999000000,,,-1457982460431827973,0.08125114440917969,63.80570994224399,-1.2785077561048401,14.835761741919319,1461,26,0.0,7183,139836345708835,53,19.0,-369.6264343261719,0.8119999766349792,0,0.0,0.0,1.57542003E9,,,,0,,6,2.18,1.57542003E9
Raw,330108666,330175999000000,,,-1457982460431827973,0.08125114440917969,63.80570994224399,-1.2785077561048401,14.835761741919319,1461,27,0.0,7183,139836340754021,101,15.0,596.9893188476562,2.6005001068115234,0,0.0,0.0,1.57542003E9,,,,0,,6,2.18,1.57542003E9
Fix,gps,45.066048,7.657062,314.118896,0.000000,9.648001,1774277420000
Raw,330109668,330176999000000,,,-1457982460431827972,0.42235565185546875,60.89924863772467,0.25869757513145814,13.510318322412653,1461,18,0.0,207,64219363007173,208,11.9,310.7397766113281,5.821000099182129,0,0.0,0.0,1.60031245E9,,,,0,,3,0.34,1.60031245E9
Raw,330109669,330176999000000,,,-1457982460431827972,0.42235565185546875,60.89924863772467,0.25869757513145814,13.510318322412653,1461,9,0.0,207,64219359574075,13,31.1,345.7520446777344,0.22370000183582306,0,0.0,0.0,1.60087501E9,,,,0,,3,0.34,1.60087501E9
Raw,330109669,330176999000000,,,-1457982460431827972,0.42235565185546875,60.89924863772467,0.25869757513145814,13.510318322412653,1461,2,0.0,15,139837359570707,35,22.7,-276.9533996582031,0.7549999952316284,0,0.0,0.0,1.57542003E9,,,,0,,1,2.24,1.57542003E9
Raw,330109669,330176999000000,,,-1457982460431827972,0.42235565185546875,60.89924863772467,0.25869757513145814,13.510318322412653,1461,32,0.0,15,139837351830058,31,23.3,-488.0556945800781,0.7429999709129333,0,0.0,0.0,1.57542003E9,,,,0,,1,2.24,1.57542003E9
Raw,330109670,330176999000000,,,-1457982460431827972,0.42235565185546875,60.89924863772467,0.25869757513145814,13.510318322412653,1461,5,0.0,783,139823298030975,693,18.1,-14.027786254882812,20.00349998474121,0,0.0,0.0,1.56109798E9,,,,0,,5,1.75,1.56109798E9
Raw,330109670,330176999000000,,,-1457982460431827972,0.42235565185546875,60.89924863772467,0.25869757513145814,13.510318322412653,1461,21,0.0,7183,139837349225807,53,19.9,255.55490112304688,0.8119999766349792,0,0.0,0.0,1.57542003E9,,,,0,,6,2.18,1.57542003E9
Raw,330109671,330176999000000,,,-1457982460431827972,0.42235565185546875,60.89924863772467,0.25869757513145814,13.510318322412653,1461,26,0.0,7183,139837345710002,46,20.1,-369.578857421875,0.7519999742507935,0,0.0,0.0,1.57542003E9,,,,0,,6,2.18,1.57542003E9
Raw,330109671,330176999000000,,,-1457982460431827972,0.42235565185546875,60.89924863772467,0.25869757513145814,13.510318322412653,1461,27,0.0,7183,139837340752003,61,18.3,595.742919921875,0.8704999685287476,0,0.0,0.0,1.57542003E9,,,,0,,6,2.18,1.57542003E9
Fix,gps,45.066048,7.657062,313.857788,0.000000,9.648001,1774277421000
Raw,330110663,330177999000000,,,-1457982460431827974,0.023268699645996094,60.70826930226758,-0.14757155691814297,13.7742554426461,1461,9,0.0,207,64220359572924,16,29.7,345.94598388671875,0.22519999742507935,0,0.0,0.0,1.60087501E9,,,,0,,3,0.35,1.60087501E9
Raw,330110663,330177999000000,,,-1457982460431827974,0.023268699645996094,60.70826930226758,-0.14757155691814297,13.7742554426461,1461,19,0.0,207,64220363900781,84,16.7,-273.5578308105469,2.2110002040863037,0,0.0,0.0,1.60368755E9,,,,0,,3,0.35,1.60368755E9
Raw,330110664,330177999000000,,,-1457982460431827974,0.023268699645996094,60.70826930226758,-0.14757155691814297,13.7742554426461,1461,1,0.0,15,139838352235632,84,16.0,-551.994384765625,2.0245001316070557,0,0.0,0.0,1.57542003E9,,,,0,,1,2.3,1.57542003E9
Raw,330110664,330177999000000,,,-1457982460431827974,0.023268699645996094,60.70826930226758,-0.14757155691814297,13.7742554426461,1461,2,0.0,15,139838359571624,31,23.7,-277.5147705078125,0.6949999928474426,0,0.0,0.0,1.57542003E9,,,,0,,1,2.3,1.57542003E9
Raw,330110664,330177999000000,,,-1457982460431827974,0.023268699645996094,60.70826930226758,-0.14757155691814297,13.7742554426461,1461,10,0.0,15,139838359419159,110,14.1,251.53968811035156,2.2250001430511475,0,0.0,0.0,1.57542003E9,,,,0,,1,2.3,1.57542003E9
Raw,330110665,330177999000000,,,-1457982460431827974,0.023268699645996094,60.70826930226758,-0.14757155691814297,13.7742554426461,1461,27,0.0,15,139838362019130,170,12.9,332.5381774902344,4.5995001792907715,0,0.0,0.0,1.57542003E9,,,,0,,1,2.3,1.57542003E9
Raw,330110665,330177999000000,,,-1457982460431827974,0.023268699645996094,60.70826930226758,-0.14757155691814297,13.7742554426461,1461,32,0.0,15,139838351831772,35,22.3,-487.8464050292969,0.8029999732971191,0,0.0,0.0,1.57542003E9,,,,0,,1,2.3,1.57542003E9
Raw,330110666,330177999000000,,,-1457982460431827974,0.023268699645996094,60.70826930226758,-0.14757155691814297,13.7742554426461,1461,5,0.0,783,139824298031029,738,18.3,-15.042861938476562,21.03350067138672,0,0.0,0.0,1.56109798E9,,,,0,,5,1.73,1.56109798E9
Raw,330110666,330177999000000,,,-1457982460431827974,0.023268699645996094,60.70826930226758,-0.14757155691814297,13.7742554426461,1461,21,0.0,7183,139838349224966,53,19.6,254.52731323242188,0.8119999766349792,0,0.0,0.0,1.57542003E9,,,,0,,6,2.26,1.57542003E9
Raw,330110666,330177999000000,,,-1457982460431827974,0.023268699645996094,60.70826930226758,-0.14757155691814297,13.7742554426461,1461,23,0.0,7183,139838345181357,84,16.9,-281.3967590332031,1.7720000743865967,0,0.0,0.0,1.57542003E9,,,,0,,6,2.26,1.57542003E9
Raw,330110667,330177999000000,,,-1457982460431827974,0.023268699645996094,60.70826930226758,-0.14757155691814297,13.7742554426461,1461,26,0.0,7183,139838345711214,53,19.7,-369.92138671875,0.8119999766349792,0,0.0,0.0,1.57542003E9,,,,0,,6,2.26,1.57542003E9
Raw,330111650,330178999000000,,,-1457982460431827979,0.8509435653686523,60.47236456652172,0.5479346505464061,13.760937704260451,1461,9,0.0,207,64221359571776,17,28.7,346.33929443359375,0.23180000483989716,0,0.0,0.0,1.60087501E9,,,,0,,3,0.33,1.60087501E9
Raw,330111650,330178999000000,,,-1457982460431827979,0.8509435653686523,60.47236456652172,0.5479346505464061,13.760937704260451,1461,19,0.0,207,64221363901588,53,19.4,-272.97833251953125,1.2010000944137573,0,0.0,0.0,1.60368755E9,,,,0,,3,0.33,1.60368755E9
Raw,330111651,330178999000000,,,-1457982460431827979,0.8509435653686523,60.47236456652172,0.5479346505464061,13.760937704260451,1461,2,0.0,15,139839359572610,27,24.3,-276.6394348144531,0.6949999928474426,0,0.0,0.0,1.57542003E9,,,,0,,1,2.3,1.57542003E9
Raw,330111652,330178999000000,,,-1457982460431827979,0.8509435653686523,60.47236456652172,0.5479346505464061,13.760937704260451,1461,32,0.0,15,139839351833370,21,26.3,-487.7294921875,0.12770000100135803,0,0.0,0.0,1.57542003E9,,,,0,,1,2.3,1.57542003E9
Raw,330111652,330178999000000,,,-1457982460431827979,0.8509435653686523,60.47236456652172,0.5479346505464061,13.760937704260451,1461,5,0.0,783,139825298031066,856,17.5,-13.821792602539062,21.613500595092773,0,0.0,0.0,1.56109798E9,,,,0,,5,1.72,1.56109798E9
Raw,330111652,330178999000000,,,-1457982460431827979,0.8509435653686523,60.47236456652172,0.5479346505464061,13.760937704260451,1461,15,0.0,7183,139839345068909,135,14.3,400.04486083984375,4.191999912261963,0,0.0,0.0,1.57542003E9,,,,0,,6,2.22,1.57542003E9
Raw,330111653,330178999000000,,,-1457982460431827979,0.8509435653686523,60.47236456652172,0.5479346505464061,13.760937704260451,1461,21,0.0,7183,139839349224072,61,18.7,256.1448059082031,0.871999979019165,0,0.0,0.0,1.57542003E9,,,,0,,6,2.22,1.57542003E9
Raw,330111653,330178999000000,,,-1457982460431827979,0.8509435653686523,60.47236456652172,0.5479346505464061,13.760937704260451,1461,26,0.0,7183,139839345712528,40,21.0,-369.34100341796875,0.6919999718666077,0,0.0,0.0,1.57542003E9,,,,0,,6,2.22,1.57542003E9
Fix,gps,45.066048,7.657062,313.817383,0.000000,9.648001,1774277422000
Fix,gps,45.066039,7.657049,313.521729,0.000000,9.648001,1774277423000
Raw,330112670,330179999000000,,,-1457982460431827986,0.027833938598632812,63.87259054463357,1.2700468846150739,14.852709132639381,1461,9,0.0,207,64222359570665,19,27.5,346.4786376953125,0.23980000615119934,0,0.0,0.0,1.60087501E9,,,,0,,3,0.33,1.60087501E9
Raw,330112671,330179999000000,,,-1457982460431827986,0.027833938598632812,63.87259054463357,1.2700468846150739,14.852709132639381,1461,19,0.0,207,64222363902742,61,18.9,-272.93157958984375,1.281000018119812,0,0.0,0.0,1.60368755E9,,,,0,,3,0.33,1.60368755E9
Raw,330112671,330179999000000,,,-1457982460431827986,0.027833938598632812,63.87259054463357,1.2700468846150739,14.852709132639381,1461,1,0.0,15,139840352239240,56,19.1,-553.2883911132812,1.7645000219345093,0,0.0,0.0,1.57542003E9,,,,0,,1,2.3,1.57542003E9
