# 
# Header Description:
# 
# Version: v2.0.0.1 Platform: 10 Manufacturer: Xiaomi Model: Redmi Note 7
# 
# Raw,ElapsedRealtimeMillis,TimeNanos,LeapSecond,TimeUncertaintyNanos,FullBiasNanos,BiasNanos,BiasUncertaintyNanos,DriftNanosPerSecond,DriftUncertaintyNanosPerSecond,HardwareClockDiscontinuityCount,Svid,TimeOffsetNanos,State,ReceivedSvTimeNanos,ReceivedSvTimeUncertaintyNanos,Cn0DbHz,PseudorangeRateMetersPerSecond,PseudorangeRateUncertaintyMetersPerSecond,AccumulatedDeltaRangeState,AccumulatedDeltaRangeMeters,AccumulatedDeltaRangeUncertaintyMeters,CarrierFrequencyHz,CarrierCycles,CarrierPhase,CarrierPhaseUncertainty,MultipathIndicator,SnrInDb,ConstellationType,AgcDb,CarrierFrequencyHz
# 
# Fix,Provider,Latitude,Longitude,Altitude,Speed,Accuracy,(UTC)TimeInMs
# 
# Nav,Svid,Type,Status,MessageId,Sub-messageId,Data(Bytes)
# 
Raw,329736655,329803999000000,,,-1457982460431826884,0.3412332534790039,65.73447899427265,-1.4989348762647907,13.758173315234503,1461,18,0.0,207,63846363379155,1939,12.3,287.4542236328125,10.271000862121582,0,0.0,0.0,1.60031245E9,,,,0,,3,-0.18,1.60031245E9
Raw,329736656,329803999000000,,,-1457982460431826884,0.3412332534790039,65.73447899427265,-1.4989348762647907,13.758173315234503,1461,9,0.0,207,63846359969275,17,28.7,290.45892333984375,0.23180000483989716,0,0.0,0.0,1.60087501E9,,,,0,,3,-0.18,1.60087501E9
Raw,329736656,329803999000000,,,-1457982460431826884,0.3412332534790039,65.73447899427265,-1.4989348762647907,13.758173315234503,1461,19,0.0,207,63846363546286,27,24.3,-294.5885314941406,0.8709999918937683,0,0.0,0.0,1.60368755E9,,,,0,,3,-0.18,1.60368755E9
Raw,329736656,329803999000000,,,-1457982460431826884,0.3412332534790039,65.73447899427265,-1.4989348762647907,13.758173315234503,1461,3,0.0,207,63846361911702,117,14.1,-285.4992980957031,3.1780002117156982,0,0.0,0.0,1.60481254E9,,,,0,,3,-0.18,1.60481254E9
Raw,329736657,329803999000000,,,-1457982460431826884,0.3412332534790039,65.73447899427265,-1.4989348762647907,13.758173315234503,1461,1,0.0,15,139464351537416,70,17.9,-563.621337890625,1.0929999351501465,0,0.0,0.0,1.57542003E9,,,,0,,1,1.82,1.57542003E9
Raw,329736657,329803999000000,,,-1457982460431826884,0.3412332534790039,65.73447899427265,-1.4989348762647907,13.758173315234503,1461,2,0.0,15,139464359212678,53,19.8,-297.7905578613281,0.9449999928474426,0,0.0,0.0,1.57542003E9,,,,0,,1,1.82,1.57542003E9
Raw,329736658,329803999000000,,,-1457982460431826884,0.3412332534790039,65.73447899427265,-1.4989348762647907,13.758173315234503,1461,8,0.0,15,139464363520402,64,18.7,-125.54624938964844,1.7510000467300415,0,0.0,0.0,1.57542003E9,,,,0,,1,1.82,1.57542003E9
Raw,329736659,329803999000000,,,-1457982460431826884,0.3412332534790039,65.73447899427265,-1.4989348762647907,13.758173315234503,1461,23,0.0,15,139464353507758,709,18.6,582.736328125,5.816000461578369,0,0.0,0.0,1.57542003E9,,,,0,,1,1.82,1.57542003E9
Raw,329736659,329803999000000,,,-1457982460431826884,0.3412332534790039,65.73447899427265,-1.4989348762647907,13.758173315234503,1461,32,0.0,15,139464351209787,40,21.2,-507.58935546875,0.8629999756813049,0,0.0,0.0,1.57542003E9,,,,0,,1,1.82,1.57542003E9
Raw,329736660,329803999000000,,,-1457982460431826884,0.3412332534790039,65.73447899427265,-1.4989348762647907,13.758173315234503,1461,21,0.0,7183,139464349522706,53,19.1,224.05177307128906,0.8119999766349792,0,0.0,0.0,1.57542003E9,,,,0,,6,1.95,1.57542003E9
Raw,329736660,329803999000000,,,-1457982460431826884,0.3412332534790039,65.73447899427265,-1.4989348762647907,13.758173315234503,1461,26,0.0,7183,139464345241341,35,22.8,-382.1572570800781,0.6420000195503235,0,0.0,0.0,1.57542003E9,,,,0,,6,1.95,1.57542003E9
Fix,gps,45.066064,7.657034,324.723877,0.000000,9.648001,1774277047000
Fix,gps,45.066064,7.657034,324.675903,0.000000,9.648001,1774277048000
Raw,329737667,329804999000000,,,-1457982460431826885,0.9836053848266602,65.65255171153694,-1.9695898028851249,13.76661281360716,1461,18,0.0,207,63847363378244,380,12.2,287.5759582519531,11.396000862121582,0,0.0,0.0,1.60031245E9,,,,0,,3,-0.28,1.60031245E9
Raw,329737668,329804999000000,,,-1457982460431826885,0.9836053848266602,65.65255171153694,-1.9695898028851249,13.76661281360716,1461,9,0.0,207,63847359968319,27,24.0,291.0142822265625,0.8649999499320984,0,0.0,0.0,1.60087501E9,,,,0,,3,-0.28,1.60087501E9
Raw,329737669,329804999000000,,,-1457982460431826885,0.9836053848266602,65.65255171153694,-1.9695898028851249,13.76661281360716,1461,19,0.0,207,63847363547334,27,24.7,-294.3735656738281,0.8709999918937683,0,0.0,0.0,1.60368755E9,,,,0,,3,-0.28,1.60368755E9
Raw,329737669,329804999000000,,,-1457982460431826885,0.9836053848266602,65.65255171153694,-1.9695898028851249,13.76661281360716,1461,4,0.0,207,63847355909196,84,16.1,-799.362548828125,2.2290000915527344,0,0.0,0.0,1.60537498E9,,,,0,,3,-0.28,1.60537498E9
Raw,329737669,329804999000000,,,-1457982460431826885,0.9836053848266602,65.65255171153694,-1.9695898028851249,13.76661281360716,1461,1,0.0,15,139465351539427,46,20.4,-564.1826782226562,0.9329999685287476,0,0.0,0.0,1.57542003E9,,,,0,,1,1.65,1.57542003E9
Raw,329737670,329804999000000,,,-1457982460431826885,0.9836053848266602,65.65255171153694,-1.9695898028851249,13.76661281360716,1461,2,0.0,15,139465359213922,70,17.0,-296.23016357421875,1.1949999332427979,0,0.0,0.0,1.57542003E9,,,,0,,1,1.65,1.57542003E9
Raw,329737670,329804999000000,,,-1457982460431826885,0.9836053848266602,65.65255171153694,-1.9695898028851249,13.76661281360716,1461,10,0.0,15,139465359708554,56,19.4,213.71881103515625,1.7450000047683716,0,0.0,0.0,1.57542003E9,,,,0,,1,1.65,1.57542003E9
Raw,329737671,329804999000000,,,-1457982460431826885,0.9836053848266602,65.65255171153694,-1.9695898028851249,13.76661281360716,1461,23,0.0,15,139465353505819,828,18.3,582.8314819335938,6.646000385284424,0,0.0,0.0,1.57542003E9,,,,0,,1,1.65,1.57542003E9
Raw,329737671,329804999000000,,,-1457982460431826885,0.9836053848266602,65.65255171153694,-1.9695898028851249,13.76661281360716,1461,32,0.0,15,139465351211387,24,25.2,-507.23004150390625,0.3982999920845032,0,0.0,0.0,1.57542003E9,,,,0,,1,1.65,1.57542003E9
Raw,329737672,329804999000000,,,-1457982460431826885,0.9836053848266602,65.65255171153694,-1.9695898028851249,13.76661281360716,1461,3,0.0,7183,139465340434823,89,16.5,-210.04615783691406,2.5205001831054688,0,0.0,0.0,1.57542003E9,,,,0,,6,1.88,1.57542003E9
Raw,329737672,329804999000000,,,-1457982460431826885,0.9836053848266602,65.65255171153694,-1.9695898028851249,13.76661281360716,1461,13,0.0,7183,139465352918632,124,14.9,5.347252368927002,3.440500020980835,0,0.0,0.0,1.57542003E9,,,,0,,6,1.88,1.57542003E9
Raw,329737673,329804999000000,,,-1457982460431826885,0.9836053848266602,65.65255171153694,-1.9695898028851249,13.76661281360716,1461,15,0.0,7183,139465345565258,135,14.2,396.81939697265625,4.191999912261963,0,0.0,0.0,1.57542003E9,,,,0,,6,1.88,1.57542003E9
Raw,329737673,329804999000000,,,-1457982460431826885,0.9836053848266602,65.65255171153694,-1.9695898028851249,13.76661281360716,1461,26,0.0,7183,139465345242666,31,23.7,-381.54833984375,0.6019999980926514,0,0.0,0.0,1.57542003E9,,,,0,,6,1.88,1.57542003E9
Fix,gps,45.066052,7.657052,324.897339,0.260000,9.648001,1774277049000
Raw,329738663,329805999000000,,,-1457982460431826886,0.01665210723876953,61.51057459646836,-1.0462205441461028,13.366845259519936,1461,9,0.0,207,63848359967394,19,27.5,290.93829345703125,0.23980000615119934,0,0.0,0.0,1.60087501E9,,,,0,,3,-0.22,1.60087501E9
Raw,329738663,329805999000000,,,-1457982460431826886,0.01665210723876953,61.51057459646836,-1.0462205441461028,13.366845259519936,1461,19,0.0,207,63848363548499,70,17.7,-293.943603515625,1.371000051498413,0,0.0,0.0,1.60368755E9,,,,0,,3,-0.22,1.60368755E9
Raw,329738664,329805999000000,,,-1457982460431826886,0.01665210723876953,61.51057459646836,-1.0462205441461028,13.366845259519936,1461,1,0.0,15,139466351541288,27,24.2,-564.1636352539062,0.6829999685287476,0,0.0,0.0,1.57542003E9,,,,0,,1,1.82,1.57542003E9
Raw,329738664,329805999000000,,,-1457982460431826886,0.01665210723876953,61.51057459646836,-1.0462205441461028,13.366845259519936,1461,2,0.0,15,139466359214743,61,18.0,-297.172119140625,1.1049998998641968,0,0.0,0.0,1.57542003E9,,,,0,,1,1.82,1.57542003E9
Raw,329738665,329805999000000,,,-1457982460431826886,0.01665210723876953,61.51057459646836,-1.0462205441461028,13.366845259519936,1461,8,0.0,15,139466363521159,96,15.1,-125.97441101074219,2.1110000610351562,0,0.0,0.0,1.57542003E9,,,,0,,1,1.82,1.57542003E9
Raw,329738665,329805999000000,,,-1457982460431826886,0.01665210723876953,61.51057459646836,-1.0462205441461028,13.366845259519936,1461,23,0.0,15,139466353503872,850,17.9,582.9075317382812,7.396000385284424,0,0.0,0.0,1.57542003E9,,,,0,,1,1.82,1.57542003E9
Raw,329738666,329805999000000,,,-1457982460431826886,0.01665210723876953,61.51057459646836,-1.0462205441461028,13.366845259519936,1461,32,0.0,15,139466351213139,40,21.0,-506.7044677734375,0.8629999756813049,0,0.0,0.0,1.57542003E9,,,,0,,1,1.82,1.57542003E9
Raw,329738666,329805999000000,,,-1457982460431826886,0.01665210723876953,61.51057459646836,-1.0462205441461028,13.366845259519936,1461,3,0.0,7183,139466340435501,61,18.6,-209.31353759765625,0.8704999685287476,0,0.0,0.0,1.57542003E9,,,,0,,6,1.88,1.57542003E9
Raw,329738667,329805999000000,,,-1457982460431826886,0.01665210723876953,61.51057459646836,-1.0462205441461028,13.366845259519936,1461,15,0.0,7183,139466345563992,61,18.8,396.3436584472656,0.871999979019165,0,0.0,0.0,1.57542003E9,,,,0,,6,1.88,1.57542003E9
Raw,329738667,329805999000000,,,-1457982460431826886,0.01665210723876953,61.51057459646836,-1.0462205441461028,13.366845259519936,1461,23,0.0,7183,139466344813536,124,14.2,-310.1120910644531,3.440500020980835,0,0.0,0.0,1.57542003E9,,,,0,,6,1.88,1.57542003E9
Raw,329738667,329805999000000,,,-1457982460431826886,0.01665210723876953,61.51057459646836,-1.0462205441461028,13.366845259519936,1461,26,0.0,7183,139466345243952,46,20.6,-381.5578308105469,0.7519999742507935,0,0.0,0.0,1.57542003E9,,,,0,,6,1.88,1.57542003E9
Fix,gps,45.066050,7.657054,324.781494,0.330000,9.648001,1774277050000
Raw,329739662,329806999000000,,,-1457982460431826891,0.11417007446289062,56.664190196897835,0.11861682356339308,12.809241112563688,1461,9,0.0,207,63849359966401,21,26.7,290.79913330078125,0.30970001220703125,0,0.0,0.0,1.60087501E9,,,,0,,3,0.01,1.60087501E9
Raw,329739662,329806999000000,,,-1457982460431826891,0.11417007446289062,56.664190196897835,0.11861682356339308,12.809241112563688,1461,19,0.0,207,63849363549250,27,24.5,-294.77545166015625,0.8709999918937683,0,0.0,0.0,1.60368755E9,,,,0,,3,0.01,1.60368755E9
Raw,329739662,329806999000000,,,-1457982460431826891,0.11417007446289062,56.664190196897835,0.11861682356339308,12.809241112563688,1461,3,0.0,207,63849361913992,151,12.5,-284.9295349121094,3.4280002117156982,0,0.0,0.0,1.60481254E9,,,,0,,3,0.01,1.60481254E9
Raw,329739663,329806999000000,,,-1457982460431826891,0.11417007446289062,56.664190196897835,0.11861682356339308,12.809241112563688,1461,1,0.0,15,139467351543077,35,22.2,-563.94482421875,0.8029999732971191,0,0.0,0.0,1.57542003E9,,,,0,,1,2.0,1.57542003E9
Raw,329739663,329806999000000,,,-1457982460431826891,0.11417007446289062,56.664190196897835,0.11861682356339308,12.809241112563688,1461,2,0.0,15,139467359215691,46,20.4,-298.0379638671875,0.9449999928474426,0,0.0,0.0,1.57542003E9,,,,0,,1,2.0,1.57542003E9
Raw,329739663,329806999000000,,,-1457982460431826891,0.11417007446289062,56.664190196897835,0.11861682356339308,12.809241112563688,1461,10,0.0,15,139467359707091,64,18.5,213.54757690429688,1.7450000047683716,0,0.0,0.0,1.57542003E9,,,,0,,1,2.0,1.57542003E9
Raw,329739664,329806999000000,,,-1457982460431826891,0.11417007446289062,56.664190196897835,0.11861682356339308,12.809241112563688,1461,23,0.0,15,139467353501938,989,17.4,582.7743530273438,8.236000061035156,0,0.0,0.0,1.57542003E9,,,,0,,1,2.0,1.57542003E9
Raw,329739665,329806999000000,,,-1457982460431826891,0.11417007446289062,56.664190196897835,0.11861682356339308,12.809241112563688,1461,27,0.0,15,139467362408571,152,13.7,297.9047546386719,4.4795002937316895,0,0.0,0.0,1.57542003E9,,,,0,,1,2.0,1.57542003E9
Raw,329739665,329806999000000,,,-1457982460431826891,0.11417007446289062,56.664190196897835,0.11861682356339308,12.809241112563688,1461,32,0.0,15,139467351214818,61,18.2,-507.98895263671875,1.0929999351501465,0,0.0,0.0,1.57542003E9,,,,0,,1,2.0,1.57542003E9
Raw,329739666,329806999000000,,,-1457982460431826891,0.11417007446289062,56.664190196897835,0.11861682356339308,12.809241112563688,1461,21,0.0,7183,139467349520456,89,16.1,223.65216064453125,2.5220000743865967,0,0.0,0.0,1.57542003E9,,,,0,,6,2.03,1.57542003E9
Raw,329739666,329806999000000,,,-1457982460431826891,0.11417007446289062,56.664190196897835,0.11861682356339308,12.809241112563688,1461,23,0.0,7183,139467344814545,70,17.8,-310.5402526855469,0.9404999613761902,0,0.0,0.0,1.57542003E9,,,,0,,6,2.03,1.57542003E9
Raw,329739667,329806999000000,,,-1457982460431826891,0.11417007446289062,56.664190196897835,0.11861682356339308,12.809241112563688,1461,26,0.0,7183,139467345245157,46,20.7,-381.7005615234375,0.7519999742507935,0,0.0,0.0,1.57542003E9,,,,0,,6,2.03,1.57542003E9
Fix,gps,45.066050,7.657054,324.183838,0.000000,9.648001,1774277051000
Raw,329740663,329807999000000,,,-1457982460431826889,0.9006872177124023,61.285929405130446,-1.973242717123742,13.790557066999918,1461,9,0.0,207,63850359965460,19,27.1,290.746337890625,0.23980000615119934,0,0.0,0.0,1.60087501E9,,,,0,,3,-0.1,1.60087501E9
Raw,329740664,329807999000000,,,-1457982460431826889,0.9006872177124023,61.285929405130446,-1.973242717123742,13.790557066999918,1461,19,0.0,207,63850363550252,46,20.3,-294.3735656738281,1.121000051498413,0,0.0,0.0,1.60368755E9,,,,0,,3,-0.1,1.60368755E9
Raw,329740665,329807999000000,,,-1457982460431826889,0.9006872177124023,61.285929405130446,-1.973242717123742,13.790557066999918,1461,2,0.0,15,139468359216745,24,25.4,-297.2710266113281,0.41030001640319824,0,0.0,0.0,1.57542003E9,,,,0,,1,1.76,1.57542003E9
Raw,329740666,329807999000000,,,-1457982460431826889,0.9006872177124023,61.285929405130446,-1.973242717123742,13.790557066999918,1461,8,0.0,15,139468363521946,64,18.0,-125.48916625976562,1.8309999704360962,0,0.0,0.0,1.57542003E9,,,,0,,1,1.76,1.57542003E9
Raw,329740666,329807999000000,,,-1457982460431826889,0.9006872177124023,61.285929405130446,-1.973242717123742,13.790557066999918,1461,10,0.0,15,139468359706341,70,17.9,215.0032958984375,1.0749999284744263,0,0.0,0.0,1.57542003E9,,,,0,,1,1.76,1.57542003E9
Raw,329740666,329807999000000,,,-1457982460431826889,0.9006872177124023,61.285929405130446,-1.973242717123742,13.790557066999918,1461,23,0.0,15,139468353500000,1016,17.1,582.7743530273438,8.986000061035156,0,0.0,0.0,1.57542003E9,,,,0,,1,1.76,1.57542003E9
Raw,329740667,329807999000000,,,-1457982460431826889,0.9006872177124023,61.285929405130446,-1.973242717123742,13.790557066999918,1461,27,0.0,15,139468362407532,53,19.2,298.3328857421875,0.999500036239624,0,0.0,0.0,1.57542003E9,,,,0,,1,1.76,1.57542003E9
Raw,329740667,329807999000000,,,-1457982460431826889,0.9006872177124023,61.285929405130446,-1.973242717123742,13.790557066999918,1461,32,0.0,15,139468351216472,19,27.6,-507.67498779296875,0.5130000114440918,0,0.0,0.0,1.57542003E9,,,,0,,1,1.76,1.57542003E9
Raw,329740668,329807999000000,,,-1457982460431826889,0.9006872177124023,61.285929405130446,-1.973242717123742,13.790557066999918,1461,3,0.0,7183,139468340436938,84,16.3,-209.68460083007812,1.7705000638961792,0,0.0,0.0,1.57542003E9,,,,0,,6,1.88,1.57542003E9
Raw,329740668,329807999000000,,,-1457982460431826889,0.9006872177124023,61.285929405130446,-1.973242717123742,13.790557066999918,1461,23,0.0,7183,139468344815621,70,17.7,-308.36138916015625,0.9404999613761902,0,0.0,0.0,1.57542003E9,,,,0,,6,1.88,1.57542003E9
Fix,gps,45.066050,7.657054,323.663147,0.000000,9.648001,1774277052000
Raw,329741673,329808999000000,,,-1457982460431826893,0.3856353759765625,62.20673822099343,-1.6983740924725272,13.004995006922679,1461,9,0.0,207,63851359964369,19,27.3,290.795166015625,0.23980000615119934,0,0.0,0.0,1.60087501E9,,,,0,,3,-0.03,1.60087501E9
Raw,329741673,329808999000000,,,-1457982460431826893,0.3856353759765625,62.20673822099343,-1.6983740924725272,13.004995006922679,1461,4,0.0,207,63851355919867,112,15.6,-799.2037963867188,3.829000234603882,0,0.0,0.0,1.60537498E9,,,,0,,3,-0.03,1.60537498E9
Raw,329741674,329808999000000,,,-1457982460431826893,0.3856353759765625,62.20673822099343,-1.6983740924725272,13.004995006922679,1461,1,0.0,15,139469351546958,84,16.6,-564.1256103515625,1.9329999685287476,0,0.0,0.0,1.57542003E9,,,,0,,1,1.82,1.57542003E9
Raw,329741683,329808999000000,,,-1457982460431826893,0.3856353759765625,62.20673822099343,-1.6983740924725272,13.004995006922679,1461,2,0.0,15,139469359217755,31,23.8,-297.181640625,0.6949999928474426,0,0.0,0.0,1.57542003E9,,,,0,,1,1.82,1.57542003E9
Raw,329741684,329808999000000,,,-1457982460431826893,0.3856353759765625,62.20673822099343,-1.6983740924725272,13.004995006922679,1461,10,0.0,15,139469359705660,53,19.4,213.40484619140625,0.9950000047683716,0,0.0,0.0,1.57542003E9,,,,0,,1,1.82,1.57542003E9
Raw,329741684,329808999000000,,,-1457982460431826893,0.3856353759765625,62.20673822099343,-1.6983740924725272,13.004995006922679,1461,23,0.0,15,139469353498050,1045,16.8,582.8314819335938,9.736000061035156,0,0.0,0.0,1.57542003E9,,,,0,,1,1.82,1.57542003E9
Raw,329741684,329808999000000,,,-1457982460431826893,0.3856353759765625,62.20673822099343,-1.6983740924725272,13.004995006922679,1461,27,0.0,15,139469362406669,53,19.9,298.10455322265625,0.9194999933242798,0,0.0,0.0,1.57542003E9,,,,0,,1,1.82,1.57542003E9
Raw,329741684,329808999000000,,,-1457982460431826893,0.3856353759765625,62.20673822099343,-1.6983740924725272,13.004995006922679,1461,32,0.0,15,139469351218255,40,21.7,-507.2087707519531,0.8029999732971191,0,0.0,0.0,1.57542003E9,,,,0,,1,1.82,1.57542003E9
Raw,329741685,329808999000000,,,-1457982460431826893,0.3856353759765625,62.20673822099343,-1.6983740924725272,13.004995006922679,1461,3,0.0,7183,139469340437591,46,20.4,-210.45529174804688,0.750499963760376,0,0.0,0.0,1.57542003E9,,,,0,,6,1.95,1.57542003E9
Raw,329741685,329808999000000,,,-1457982460431826893,0.3856353759765625,62.20673822099343,-1.6983740924725272,13.004995006922679,1461,13,0.0,7183,139469352918526,158,12.3,5.813471794128418,3.630500078201294,0,0.0,0.0,1.57542003E9,,,,0,,6,1.95,1.57542003E9
Raw,329741685,329808999000000,,,-1457982460431826893,0.3856353759765625,62.20673822099343,-1.6983740924725272,13.004995006922679,1461,15,0.0,7183,139469345559992,101,15.5,395.553955078125,2.6019999980926514,0,0.0,0.0,1.57542003E9,,,,0,,6,1.95,1.57542003E9
Raw,329741685,329808999000000,,,-1457982460431826893,0.3856353759765625,62.20673822099343,-1.6983740924725272,13.004995006922679,1461,21,0.0,7183,139469349518972,96,15.9,224.12789916992188,1.8519999980926514,0,0.0,0.0,1.57542003E9,,,,0,,6,1.95,1.57542003E9
Fix,gps,45.066042,7.657060,323.546082,0.150000,9.648001,1774277053000
Raw,329742665,329809999000000,,,-1457982460431826901,0.9201536178588867,63.84633888956159,-2.5740134031320303,12.75275643748661,1461,9,0.0,207,63852359963521,35,22.3,291.0423583984375,0.98499995470047,0,0.0,0.0,1.60087501E9,,,,0,,3,-0.36,1.60087501E9
Raw,329742667,329809999000000,,,-1457982460431826901,0.9201536178588867,63.84633888956159,-2.5740134031320303,12.75275643748661,1461,19,0.0,207,63852363552322,73,17.5,-293.73797607421875,2.121000051498413,0,0.0,0.0,1.60368755E9,,,,0,,3,-0.36,1.60368755E9
Raw,329742668,329809999000000,,,-1457982460431826901,0.9201536178588867,63.84633888956159,-2.5740134031320303,12.75275643748661,1461,1,0.0,15,139470351548920,70,17.4,-563.0980224609375,1.1829999685287476,0,0.0,0.0,1.57542003E9,,,,0,,1,1.53,1.57542003E9
Raw,329742669,329809999000000,,,-1457982460431826901,0.9201536178588867,63.84633888956159,-2.5740134031320303,12.75275643748661,1461,2,0.0,15,139470359218638,35,22.9,-297.1340637207031,0.7549999952316284,0,0.0,0.0,1.57542003E9,,,,0,,1,1.53,1.57542003E9
Raw,329742670,329809999000000,,,-1457982460431826901,0.9201536178588867,63.84633888956159,-2.5740134031320303,12.75275643748661,1461,8,0.0,15,139470363522859,73,17.0,-124.86119842529297,1.9210000038146973,0,0.0,0.0,1.57542003E9,,,,0,,1,1.53,1.57542003E9
Raw,329742671,329809999000000,,,-1457982460431826901,0.9201536178588867,63.84633888956159,-2.5740134031320303,12.75275643748661,1461,23,0.0,15,139470353496105,315,16.8,582.9075317382812,10.861000061035156,0,0.0,0.0,1.57542003E9,,,,0,,1,1.53,1.57542003E9
Raw,329742671,329809999000000,,,-1457982460431826901,0.9201536178588867,63.84633888956159,-2.5740134031320303,12.75275643748661,1461,32,0.0,15,139470351219837,40,21.2,-506.4190368652344,0.8629999756813049,0,0.0,0.0,1.57542003E9,,,,0,,1,1.53,1.57542003E9
Raw,329742672,329809999000000,,,-1457982460431826901,0.9201536178588867,63.84633888956159,-2.5740134031320303,12.75275643748661,1461,26,0.0,7183,139470345248998,78,17.6,-382.0811462402344,2.442000150680542,0,0.0,0.0,1.57542003E9,,,,0,,6,1.73,1.57542003E9
Raw,329743656,329810999000000,,,-1457982460431826901,0.29430484771728516,68.17266694270074,-0.5888478665960315,14.09301749115077,1461,9,0.0,207,63853359962491,27,24.5,291.47308349609375,0.8649999499320984,0,0.0,0.0,1.60087501E9,,,,0,,3,0.01,1.60087501E9
Raw,329743656,329810999000000,,,-1457982460431826901,0.29430484771728516,68.17266694270074,-0.5888478665960315,14.09301749115077,1461,19,0.0,207,63853363553115,27,24.5,-293.5697021484375,0.8709999918937683,0,0.0,0.0,1.60368755E9,,,,0,,3,0.01,1.60368755E9
Raw,329743657,329810999000000,,,-1457982460431826901,0.29430484771728516,68.17266694270074,-0.5888478665960315,14.09301749115077,1461,3,0.0,207,63853361917792,142,13.2,-283.7993469238281,4.048000335693359,0,0.0,0.0,1.60481254E9,,,,0,,3,0.01,1.60481254E9
Raw,329743657,329810999000000,,,-1457982460431826901,0.29430484771728516,68.17266694270074,-0.5888478665960315,14.09301749115077,1461,1,0.0,15,139471351550666,61,18.1,-563.3358764648438,1.0929999351501465,0,0.0,0.0,1.57542003E9,,,,0,,1,2.06,1.57542003E9
Raw,329743658,329810999000000,,,-1457982460431826901,0.29430484771728516,68.17266694270074,-0.5888478665960315,14.09301749115077,1461,2,0.0,15,139471359219694,27,24.8,-295.9542236328125,0.6450000405311584,0,0.0,0.0,1.57542003E9,,,,0,,1,2.06,1.57542003E9
Raw,329743659,329810999000000,,,-1457982460431826901,0.29430484771728516,68.17266694270074,-0.5888478665960315,14.09301749115077,1461,8,0.0,15,139471363523278,61,18.0,-123.83360290527344,1.0809999704360962,0,0.0,0.0,1.57542003E9,,,,0,,1,2.06,1.57542003E9
Raw,329743659,329810999000000,,,-1457982460431826901,0.29430484771728516,68.17266694270074,-0.5888478665960315,14.09301749115077,1461,10,0.0,15,139471359704185,84,16.0,215.0032958984375,2.005000114440918,0,0.0,0.0,1.57542003E9,,,,0,,1,2.06,1.57542003E9
Raw,329743660,329810999000000,,,-1457982460431826901,0.29430484771728516,68.17266694270074,-0.5888478665960315,14.09301749115077,1461,32,0.0,15,139471351221514,27,24.6,-507.1992492675781,0.6330000162124634,0,0.0,0.0,1.57542003E9,,,,0,,1,2.06,1.57542003E9
Raw,329743660,329810999000000,,,-1457982460431826901,0.29430484771728516,68.17266694270074,-0.5888478665960315,14.09301749115077,1461,13,0.0,7183,139471352918589,110,14.2,3.587035655975342,1.940500020980835,0,0.0,0.0,1.57542003E9,,,,0,,6,2.1,1.57542003E9
Raw,329743660,329810999000000,,,-1457982460431826901,0.29430484771728516,68.17266694270074,-0.5888478665960315,14.09301749115077,1461,26,0.0,7183,139471345250223,61,18.8,-381.852783203125,0.871999979019165,0,0.0,0.0,1.57542003E9,,,,0,,6,2.1,1.57542003E9
Fix,gps,45.066039,7.657060,323.208374,0.350000,9.648001,1774277054000
Fix,gps,45.066037,7.657063,322.804565,0.000000,9.648001,1774277055000
Raw,329744656,329811999000000,,,-1457982460431826888,0.12420463562011719,66.55324978055432,-0.6428201566093589,13.845404263076874,1461,9,0.0,207,63854359961449,35,22.3,291.7165222167969,0.98499995470047,0,0.0,0.0,1.60087501E9,,,,0,,3,0.32,1.60087501E9
Raw,329744656,329811999000000,,,-1457982460431826888,0.12420463562011719,66.55324978055432,-0.6428201566093589,13.845404263076874,1461,2,0.0,15,139472359220709,61,18.3,-295.6783142089844,1.1049998998641968,0,0.0,0.0,1.57542003E9,,,,0,,1,2.3,1.57542003E9
Raw,329744657,329811999000000,,,-1457982460431826888,0.12420463562011719,66.55324978055432,-0.6428201566093589,13.845404263076874,1461,8,0.0,15,139472363523650,40,21.9,-124.65186309814453,0.7910000085830688,0,0.0,0.0,1.57542003E9,,,,0,,1,2.3,1.57542003E9
Raw,329744657,329811999000000,,,-1457982460431826888,0.12420463562011719,66.55324978055432,-0.6428201566093589,13.845404263076874,1461,10,0.0,15,139472359703345,70,17.5,215.0794219970703,1.0749999284744263,0,0.0,0.0,1.57542003E9,,,,0,,1,2.3,1.57542003E9
Raw,329744658,329811999000000,,,-1457982460431826888,0.12420463562011719,66.55324978055432,-0.6428201566093589,13.845404263076874,1461,27,0.0,15,139472362403660,89,16.6,297.4480285644531,2.6695001125335693,0,0.0,0.0,1.57542003E9,,,,0,,1,2.3,1.57542003E9
Raw,329744659,329811999000000,,,-1457982460431826888,0.12420463562011719,66.55324978055432,-0.6428201566093589,13.845404263076874,1461,32,0.0,15,139472351223235,40,21.2,-506.94232177734375,0.8629999756813049,0,0.0,0.0,1.57542003E9,,,,0,,1,2.3,1.57542003E9
Raw,329744660,329811999000000,,,-1457982460431826888,0.12420463562011719,66.55324978055432,-0.6428201566093589,13.845404263076874,1461,15,0.0,7183,139472345556079,115,14.4,395.8583984375,2.692000150680542,0,0.0,0.0,1.57542003E9,,,,0,,6,2.26,1.57542003E9
Raw,329744660,329811999000000,,,-1457982460431826888,0.12420463562011719,66.55324978055432,-0.6428201566093589,13.845404263076874,1461,23,0.0,7183,139472344819790,110,15.7,-309.446044921875,3.3505001068115234,0,0.0,0.0,1.57542003E9,,,,0,,6,2.26,1.57542003E9
Raw,329744661,329811999000000,,,-1457982460431826888,0.12420463562011719,66.55324978055432,-0.6428201566093589,13.845404263076874,1461,26,0.0,7183,139472345251527,35,22.7,-380.8251953125,0.6420000195503235,0,0.0,0.0,1.57542003E9,,,,0,,6,2.26,1.57542003E9
Fix,gps,45.066036,7.657061,322.619690,0.000000,9.648001,1774277056000
Raw,329745670,329812999000000,,,-1457982460431826888,0.6308441162109375,70.8099250914529,-0.2910313734487454,14.282152280255744,1461,9,0.0,207,63855359960641,31,23.7,291.9131774902344,0.9249999523162842,0,0.0,0.0,1.60087501E9,,,,0,,3,0.36,1.60087501E9
Raw,329745670,329812999000000,,,-1457982460431826888,0.6308441162109375,70.8099250914529,-0.2910313734487454,14.282152280255744,1461,2,0.0,15,139473359221619,40,21.8,-296.9532775878906,0.8149999976158142,0,0.0,0.0,1.57542003E9,,,,0,,1,2.3,1.57542003E9
Raw,329745673,329812999000000,,,-1457982460431826888,0.6308441162109375,70.8099250914529,-0.2910313734487454,14.282152280255744,1461,8,0.0,15,139473363524121,40,21.7,-124.39497375488281,0.7910000085830688,0,0.0,0.0,1.57542003E9,,,,0,,1,2.3,1.57542003E9
Raw,329745673,329812999000000,,,-1457982460431826888,0.6308441162109375,70.8099250914529,-0.2910313734487454,14.282152280255744,1461,10,0.0,15,139473359702616,80,16.1,213.30970764160156,1.2549999952316284,0,0.0,0.0,1.57542003E9,,,,0,,1,2.3,1.57542003E9
Raw,329745675,329812999000000,,,-1457982460431826888,0.6308441162109375,70.8099250914529,-0.2910313734487454,14.282152280255744,1461,27,0.0,15,139473362402727,53,19.1,297.7144470214844,0.999500036239624,0,0.0,0.0,1.57542003E9,,,,0,,1,2.3,1.57542003E9
Raw,329745675,329812999000000,,,-1457982460431826888,0.6308441162109375,70.8099250914529,-0.2910313734487454,14.282152280255744,1461,32,0.0,15,139473351224866,53,19.0,-506.88525390625,1.0130000114440918,0,0.0,0.0,1.57542003E9,,,,0,,1,2.3,1.57542003E9
Raw,329745676,329812999000000,,,-1457982460431826888,0.6308441162109375,70.8099250914529,-0.2910313734487454,14.282152280255744,1461,15,0.0,7183,139473345554705,53,19.0,396.3912353515625,0.8119999766349792,0,0.0,0.0,1.57542003E9,,,,0,,6,2.26,1.57542003E9
Raw,329745676,329812999000000,,,-1457982460431826888,0.6308441162109375,70.8099250914529,-0.2910313734487454,14.282152280255744,1461,26,0.0,7183,139473345252876,46,20.2,-381.28192138671875,0.7519999742507935,0,0.0,0.0,1.57542003E9,,,,0,,6,2.26,1.57542003E9
Fix,gps,45.066034,7.657058,322.504333,0.000000,9.648001,1774277057000
Raw,329746676,329813999000000,,,-1457982460431826891,0.7251176834106445,73.26588820433244,-0.8660133557626563,13.899976292697277,1461,9,0.0,207,63856359959612,40,21.2,291.9880676269531,1.0449999570846558,0,0.0,0.0,1.60087501E9,,,,0,,3,0.35,1.60087501E9
Raw,329746676,329813999000000,,,-1457982460431826891,0.7251176834106445,73.26588820433244,-0.8660133557626563,13.899976292697277,1461,19,0.0,207,63856363556057,62,19.4,-293.62579345703125,2.701000213623047,0,0.0,0.0,1.60368755E9,,,,0,,3,0.35,1.60368755E9
Raw,329746677,329813999000000,,,-1457982460431826891,0.7251176834106445,73.26588820433244,-0.8660133557626563,13.899976292697277,1461,1,0.0,15,139474351556405,102,15.0,-563.954345703125,2.873000144958496,0,0.0,0.0,1.57542003E9,,,,0,,1,2.3,1.57542003E9
Raw,329746677,329813999000000,,,-1457982460431826891,0.7251176834106445,73.26588820433244,-0.8660133557626563,13.899976292697277,1461,2,0.0,15,139474359222737,53,19.5,-296.55364990234375,0.9449999928474426,0,0.0,0.0,1.57542003E9,,,,0,,1,2.3,1.57542003E9
Raw,329746678,329813999000000,,,-1457982460431826891,0.7251176834106445,73.26588820433244,-0.8660133557626563,13.899976292697277,1461,8,0.0,15,139474363524522,61,18.5,-124.55671691894531,1.0010000467300415,0,0.0,0.0,1.57542003E9,,,,0,,1,2.3,1.57542003E9
Raw,329746678,329813999000000,,,-1457982460431826891,0.7251176834106445,73.26588820433244,-0.8660133557626563,13.899976292697277,1461,10,0.0,15,139474359702063,46,20.9,215.1269989013672,0.8449999690055847,0,0.0,0.0,1.57542003E9,,,,0,,1,2.3,1.57542003E9
Raw,329746678,329813999000000,,,-1457982460431826891,0.7251176834106445,73.26588820433244,-0.8660133557626563,13.899976292697277,1461,32,0.0,15,139474351226584,24,25.1,-506.8920593261719,0.3982999920845032,0,0.0,0.0,1.57542003E9,,,,0,,1,2.3,1.57542003E9
Raw,329746679,329813999000000,,,-1457982460431826891,0.7251176834106445,73.26588820433244,-0.8660133557626563,13.899976292697277,1461,8,0.0,7183,139474338624743,180,13.1,-514.3447875976562,5.7835001945495605,0,0.0,0.0,1.57542003E9,,,,0,,6,2.18,1.57542003E9
Raw,329746679,329813999000000,,,-1457982460431826891,0.7251176834106445,73.26588820433244,-0.8660133557626563,13.899976292697277,1461,23,0.0,7183,139474344821800,84,16.0,-308.6563415527344,1.7705000638961792,0,0.0,0.0,1.57542003E9,,,,0,,6,2.18,1.57542003E9
Raw,329746680,329813999000000,,,-1457982460431826891,0.7251176834106445,73.26588820433244,-0.8660133557626563,13.899976292697277,1461,26,0.0,7183,139474345254092,40,21.4,-381.4912414550781,0.6919999718666077,0,0.0,0.0,1.57542003E9,,,,0,,6,2.18,1.57542003E9
Fix,gps,45.066032,7.657055,322.301025,0.000000,9.648001,1774277058000
Raw,329747673,329814999000000,,,-1457982460431826890,0.9470129013061523,70.88283018674701,-0.5848128209054674,12.672961346201376,1461,2,0.0,207,63857355817061,1907,12.3,475.13287353515625,9.449000358581543,0,0.0,0.0,1.59975002E9,,,,0,,3,0.36,1.59975002E9
Raw,329747673,329814999000000,,,-1457982460431826890,0.9470129013061523,70.88283018674701,-0.5848128209054674,12.672961346201376,1461,19,0.0,207,63857363557141,40,21.6,-294.01837158203125,1.0509999990463257,0,0.0,0.0,1.60368755E9,,,,0,,3,0.36,1.60368755E9
Raw,329747674,329814999000000,,,-1457982460431826890,0.9470129013061523,70.88283018674701,-0.5848128209054674,12.672961346201376,1461,4,0.0,207,63857355935512,152,14.7,-798.1954345703125,5.449000358581543,0,0.0,0.0,1.60537498E9,,,,0,,3,0.36,1.60537498E9
Raw,329747674,329814999000000,,,-1457982460431826890,0.9470129013061523,70.88283018674701,-0.5848128209054674,12.672961346201376,1461,2,0.0,15,139475359223769,81,16.9,-295.69732666015625,1.1949999332427979,0,0.0,0.0,1.57542003E9,,,,0,,1,2.27,1.57542003E9
Raw,329747674,329814999000000,,,-1457982460431826890,0.9470129013061523,70.88283018674701,-0.5848128209054674,12.672961346201376,1461,8,0.0,15,139475363524993,93,15.5,-123.98583984375,1.2610000371932983,0,0.0,0.0,1.57542003E9,,,,0,,1,2.27,1.57542003E9
Raw,329747675,329814999000000,,,-1457982460431826890,0.9470129013061523,70.88283018674701,-0.5848128209054674,12.672961346201376,1461,10,0.0,15,139475359701278,46,20.2,215.20310974121094,0.9149999618530273,0,0.0,0.0,1.57542003E9,,,,0,,1,2.27,1.57542003E9
Raw,329747675,329814999000000,,,-1457982460431826890,0.9470129013061523,70.88283018674701,-0.5848128209054674,12.672961346201376,1461,16,0.0,15,139475351538748,1365,13.7,714.49560546875,5.4830002784729,0,0.0,0.0,1.57542003E9,,,,0,,1,2.27,1.57542003E9
Raw,329747675,329814999000000,,,-1457982460431826890,0.9470129013061523,70.88283018674701,-0.5848128209054674,12.672961346201376,1461,27,0.0,15,139475362400653,73,17.9,299.2463073730469,1.8294999599456787,0,0.0,0.0,1.57542003E9,,,,0,,1,2.27,1.57542003E9
Raw,329747676,329814999000000,,,-1457982460431826890,0.9470129013061523,70.88283018674701,-0.5848128209054674,12.672961346201376,1461,32,0.0,15,139475351228312,27,24.1,-506.94232177734375,0.6829999685287476,0,0.0,0.0,1.57542003E9,,,,0,,1,2.27,1.57542003E9
Raw,329747677,329814999000000,,,-1457982460431826890,0.9470129013061523,70.88283018674701,-0.5848128209054674,12.672961346201376,1461,26,0.0,7183,139475345255380,31,23.1,-381.25335693359375,0.6019999980926514,0,0.0,0.0,1.57542003E9,,,,0,,6,2.18,1.57542003E9
Fix,gps,45.066030,7.657052,322.111694,0.000000,9.648001,1774277059000
Raw,329748663,329815999000000,,,-1457982460431826895,0.16536235809326172,73.52966349571943,-0.7341147801782353,14.16257893514432,1461,2,0.0,207,63858355815480,1936,12.2,474.97357177734375,10.199000358581543,0,0.0,0.0,1.59975002E9,,,,0,,3,0.36,1.59975002E9
Raw,329748664,329815999000000,,,-1457982460431826895,0.16536235809326172,73.52966349571943,-0.7341147801782353,14.16257893514432,1461,9,0.0,207,63858359957627,64,18.3,292.96185302734375,2.0250000953674316,0,0.0,0.0,1.60087501E9,,,,0,,3,0.36,1.60087501E9
Raw,329748664,329815999000000,,,-1457982460431826895,0.16536235809326172,73.52966349571943,-0.7341147801782353,14.16257893514432,1461,19,0.0,207,63858363558078,70,17.5,-293.7286071777344,1.371000051498413,0,0.0,0.0,1.60368755E9,,,,0,,3,0.36,1.60368755E9
Raw,329748665,329815999000000,,,-1457982460431826895,0.16536235809326172,73.52966349571943,-0.7341147801782353,14.16257893514432,1461,3,0.0,207,63858361922787,172,12.2,-283.11749267578125,4.928000450134277,0,0.0,0.0,1.60481254E9,,,,0,,3,0.36,1.60481254E9
Raw,329748665,329815999000000,,,-1457982460431826895,0.16536235809326172,73.52966349571943,-0.7341147801782353,14.16257893514432,1461,1,0.0,15,139476351560061,84,16.6,-564.1826782226562,1.9329999685287476,0,0.0,0.0,1.57542003E9,,,,0,,1,2.3,1.57542003E9
Raw,329748666,329815999000000,,,-1457982460431826895,0.16536235809326172,73.52966349571943,-0.7341147801782353,14.16257893514432,1461,8,0.0,15,139476363525345,35,22.3,-124.55671691894531,0.7910000085830688,0,0.0,0.0,1.57542003E9,,,,0,,1,2.3,1.57542003E9
Raw,329748666,329815999000000,,,-1457982460431826895,0.16536235809326172,73.52966349571943,-0.7341147801782353,14.16257893514432,1461,10,0.0,15,139476359700589,53,19.0,214.0613555908203,0.9950000047683716,0,0.0,0.0,1.57542003E9,,,,0,,1,2.3,1.57542003E9
Raw,329748666,329815999000000,,,-1457982460431826895,0.16536235809326172,73.52966349571943,-0.7341147801782353,14.16257893514432,1461,16,0.0,15,139476351536369,1382,13.8,714.6859130859375,6.2330002784729,0,0.0,0.0,1.57542003E9,,,,0,,1,2.3,1.57542003E9
Raw,329748667,329815999000000,,,-1457982460431826895,0.16536235809326172,73.52966349571943,-0.7341147801782353,14.16257893514432,1461,27,0.0,15,139476362399598,40,21.5,299.2177734375,0.7894999980926514,0,0.0,0.0,1.57542003E9,,,,0,,1,2.3,1.57542003E9
Raw,329748667,329815999000000,,,-1457982460431826895,0.16536235809326172,73.52966349571943,-0.7341147801782353,14.16257893514432,1461,32,0.0,15,139476351229886,35,22.7,-506.28582763671875,0.7429999709129333,0,0.0,0.0,1.57542003E9,,,,0,,1,2.3,1.57542003E9
Raw,329748668,329815999000000,,,-1457982460431826895,0.16536235809326172,73.52966349571943,-0.7341147801782353,14.16257893514432,1461,23,0.0,7183,139476344823819,84,16.7,-309.2272033691406,1.7705000638961792,0,0.0,0.0,1.57542003E9,,,,0,,6,2.26,1.57542003E9
Raw,329748668,329815999000000,,,-1457982460431826895,0.16536235809326172,73.52966349571943,-0.7341147801782353,14.16257893514432,1461,26,0.0,7183,139476345256641,35,22.9,-380.9679260253906,0.6420000195503235,0,0.0,0.0,1.57542003E9,,,,0,,6,2.26,1.57542003E9
Fix,gps,45.066030,7.657052,321.937134,0.000000,9.648001,1774277060000
Raw,329749668,329816999000000,,,-1457982460431826892,0.7267398834228516,74.68727562809363,-0.7280339792458351,14.102460631338946,1461,2,0.0,207,63859355813885,376,12.2,474.9923400878906,11.324000358581543,0,0.0,0.0,1.59975002E9,,,,0,,3,0.36,1.59975002E9
Raw,329749671,329816999000000,,,-1457982460431826892,0.7267398834228516,74.68727562809363,-0.7280339792458351,14.102460631338946,1461,9,0.0,207,63859359956526,53,19.5,292.17535400390625,1.1950000524520874,0,0.0,0.0,1.60087501E9,,,,0,,3,0.36,1.60087501E9
Raw,329749671,329816999000000,,,-1457982460431826892,0.7267398834228516,74.68727562809363,-0.7280339792458351,14.102460631338946,1461,19,0.0,207,63859363559104,31,23.1,-293.6538391113281,0.9309999942779541,0,0.0,0.0,1.60368755E9,,,,0,,3,0.36,1.60368755E9
Raw,329749671,329816999000000,,,-1457982460431826892,0.7267398834228516,74.68727562809363,-0.7280339792458351,14.102460631338946,1461,8,0.0,15,139477363525781,46,20.0,-123.75749206542969,0.9210000038146973,0,0.0,0.0,1.57542003E9,,,,0,,1,2.3,1.57542003E9
Raw,329749672,329816999000000,,,-1457982460431826892,0.7267398834228516,74.68727562809363,-0.7280339792458351,14.102460631338946,1461,10,0.0,15,139477359699827,53,19.6,215.4124298095703,0.9149999618530273,0,0.0,0.0,1.57542003E9,,,,0,,1,2.3,1.57542003E9
Raw,329749672,329816999000000,,,-1457982460431826892,0.7267398834228516,74.68727562809363,-0.7280339792458351,14.102460631338946,1461,16,0.0,15,139477351534035,1402,14.1,715.1140747070312,6.9830002784729,0,0.0,0.0,1.57542003E9,,,,0,,1,2.3,1.57542003E9
Raw,329749673,329816999000000,,,-1457982460431826892,0.7267398834228516,74.68727562809363,-0.7280339792458351,14.102460631338946,1461,27,0.0,15,139477362398677,61,18.7,299.1701965332031,0.999500036239624,0,0.0,0.0,1.57542003E9,,,,0,,1,2.3,1.57542003E9
Raw,329749673,329816999000000,,,-1457982460431826892,0.7267398834228516,74.68727562809363,-0.7280339792458351,14.102460631338946,1461,32,0.0,15,139477351231670,27,24.8,-506.6473693847656,0.6330000162124634,0,0.0,0.0,1.57542003E9,,,,0,,1,2.3,1.57542003E9
Raw,329749673,329816999000000,,,-1457982460431826892,0.7267398834228516,74.68727562809363,-0.7280339792458351,14.102460631338946,1461,26,0.0,7183,139477345257875,46,20.8,-381.852783203125,0.7519999742507935,0,0.0,0.0,1.57542003E9,,,,0,,6,2.26,1.57542003E9
Fix,gps,45.066029,7.657051,322.001343,0.000000,9.648001,1774277061000
Raw,329750672,329817999000000,,,-1457982460431826894,0.17864131927490234,74.59027983713895,-1.6144719827674872,14.040797896150261,1461,9,0.0,207,63860359955714,31,23.7,292.6716003417969,0.9249999523162842,0,0.0,0.0,1.60087501E9,,,,0,,3,0.36,1.60087501E9
Raw,329750673,329817999000000,,,-1457982460431826894,0.17864131927490234,74.59027983713895,-1.6144719827674872,14.040797896150261,1461,19,0.0,207,63860363560019,24,25.0,-293.7422180175781,0.5863000154495239,0,0.0,0.0,1.60368755E9,,,,0,,3,0.36,1.60368755E9
Raw,329750673,329817999000000,,,-1457982460431826894,0.17864131927490234,74.59027983713895,-1.6144719827674872,14.040797896150261,1461,2,0.0,15,139478359226775,132,13.8,-295.45947265625,3.005000114440918,0,0.0,0.0,1.57542003E9,,,,0,,1,2.3,1.57542003E9
Raw,329750674,329817999000000,,,-1457982460431826894,0.17864131927490234,74.59027983713895,-1.6144719827674872,14.040797896150261,1461,8,0.0,15,139478363526267,46,20.1,-124.94683074951172,0.9210000038146973,0,0.0,0.0,1.57542003E9,,,,0,,1,2.3,1.57542003E9
Raw,329750674,329817999000000,,,-1457982460431826894,0.17864131927490234,74.59027983713895,-1.6144719827674872,14.040797896150261,1461,10,0.0,15,139478359699014,40,21.8,214.93670654296875,0.7849999666213989,0,0.0,0.0,1.57542003E9,,,,0,,1,2.3,1.57542003E9
Raw,329750674,329817999000000,,,-1457982460431826894,0.17864131927490234,74.59027983713895,-1.6144719827674872,14.040797896150261,1461,16,0.0,15,139478351531638,1248,15.1,715.3329467773438,7.613000392913818,0,0.0,0.0,1.57542003E9,,,,0,,1,2.3,1.57542003E9
Raw,329750675,329817999000000,,,-1457982460431826894,0.17864131927490234,74.59027983713895,-1.6144719827674872,14.040797896150261,1461,32,0.0,15,139478351233359,19,27.7,-506.5498962402344,0.05780000239610672,0,0.0,0.0,1.57542003E9,,,,0,,1,2.3,1.57542003E9
Raw,329750675,329817999000000,,,-1457982460431826894,0.17864131927490234,74.59027983713895,-1.6144719827674872,14.040797896150261,1461,15,0.0,7183,139478345548078,135,14.9,395.62054443359375,4.191999912261963,0,0.0,0.0,1.57542003E9,,,,0,,6,2.26,1.57542003E9
Raw,329750676,329817999000000,,,-1457982460431826894,0.17864131927490234,74.59027983713895,-1.6144719827674872,14.040797896150261,1461,23,0.0,7183,139478344825971,73,17.9,-307.9617614746094,1.690500020980835,0,0.0,0.0,1.57542003E9,,,,0,,6,2.26,1.57542003E9
Raw,329750677,329817999000000,,,-1457982460431826894,0.17864131927490234,74.59027983713895,-1.6144719827674872,14.040797896150261,1461,26,0.0,7183,139478345259159,46,20.4,-381.0535583496094,0.7519999742507935,0,0.0,0.0,1.57542003E9,,,,0,,6,2.26,1.57542003E9
Raw,329751649,329818999000000,,,-1457982460431826898,0.08082199096679688,79.77086352184415,-1.7839562285922146,18.8103407965742,1461,9,0.0,207,63861359954688,40,21.4,292.5124206542969,1.0449999570846558,0,0.0,0.0,1.60087501E9,,,,0,,3,0.36,1.60087501E9
Raw,329751650,329818999000000,,,-1457982460431826898,0.08082199096679688,79.77086352184415,-1.7839562285922146,18.8103407965742,1461,19,0.0,207,63861363561030,27,24.9,-293.88751220703125,0.8709999918937683,0,0.0,0.0,1.60368755E9,,,,0,,3,0.36,1.60368755E9
Raw,329751650,329818999000000,,,-1457982460431826898,0.08082199096679688,79.77086352184415,-1.7839562285922146,18.8103407965742,1461,1,0.0,15,139479351565588,102,15.8,-565.5147094726562,2.7730000019073486,0,0.0,0.0,1.57542003E9,,,,0,,1,2.3,1.57542003E9
Raw,329751651,329818999000000,,,-1457982460431826898,0.08082199096679688,79.77086352184415,-1.7839562285922146,18.8103407965742,1461,8,0.0,15,139479363526666,46,20.5,-124.09050750732422,0.8510000109672546,0,0.0,0.0,1.57542003E9,,,,0,,1,2.3,1.57542003E9
Raw,329751651,329818999000000,,,-1457982460431826898,0.08082199096679688,79.77086352184415,-1.7839562285922146,18.8103407965742,1461,10,0.0,15,139479359698382,53,19.7,215.0032958984375,0.9149999618530273,0,0.0,0.0,1.57542003E9,,,,0,,1,2.3,1.57542003E9
Raw,329751651,329818999000000,,,-1457982460431826898,0.08082199096679688,79.77086352184415,-1.7839562285922146,18.8103407965742,1461,16,0.0,15,139479351529248,1272,15.3,715.4851684570312,8.36299991607666,0,0.0,0.0,1.57542003E9,,,,0,,1,2.3,1.57542003E9
Raw,329751652,329818999000000,,,-1457982460431826898,0.08082199096679688,79.77086352184415,-1.7839562285922146,18.8103407965742,1461,32,0.0,15,139479351235045,21,26.5,-506.7134704589844,0.12770000100135803,0,0.0,0.0,1.57542003E9,,,,0,,1,2.3,1.57542003E9
Raw,329751652,329818999000000,,,-1457982460431826898,0.08082199096679688,79.77086352184415,-1.7839562285922146,18.8103407965742,1461,8,0.0,7183,139479338633309,151,13.8,-514.9442138671875,4.2835001945495605,0,0.0,0.0,1.57542003E9,,,,0,,6,2.22,1.57542003E9
Raw,329751653,329818999000000,,,-1457982460431826898,0.08082199096679688,79.77086352184415,-1.7839562285922146,18.8103407965742,1461,23,0.0,7183,139479344826953,53,19.1,-308.54217529296875,0.8104999661445618,0,0.0,0.0,1.57542003E9,,,,0,,6,2.22,1.57542003E9
Raw,329751653,329818999000000,,,-1457982460431826898,0.08082199096679688,79.77086352184415,-1.7839562285922146,18.8103407965742,1461,26,0.0,7183,139479345260394,53,19.6,-381.519775390625,0.8119999766349792,0,0.0,0.0,1.57542003E9,,,,0,,6,2.22,1.57542003E9
Fix,gps,45.066027,7.657052,322.264832,0.000000,9.648001,1774277062000
Fix,gps,45.066025,7.657051,322.316589,0.000000,9.648001,1774277063000
Raw,329752669,329819999000000,,,-1457982460431826896,0.8673391342163086,76.32181950611994,-1.7964824657758862,16.4149802094576,1461,9,0.0,207,63862359953633,53,19.9,292.9056701660156,1.1950000524520874,0,0.0,0.0,1.60087501E9,,,,0,,3,0.34,1.60087501E9
Raw,329752670,329819999000000,,,-1457982460431826896,0.8673391342163086,76.32181950611994,-1.7964824657758862,16.4149802094576,1461,19,0.0,207,63862363562009,27,24.8,-293.88751220703125,0.8709999918937683,0,0.0,0.0,1.60368755E9,,,,0,,3,0.34,1.60368755E9
Raw,329752670,329819999000000,,,-1457982460431826896,0.8673391342163086,76.32181950611994,-1.7964824657758862,16.4149802094576,1461,8,0.0,15,139480363527029,46,20.1,-124.1380844116211,0.9210000038146973,0,0.0,0.0,1.57542003E9,,,,0,,1,2.3,1.57542003E9
Raw,329752671,329819999000000,,,-1457982460431826896,0.8673391342163086,76.32181950611994,-1.7964824657758862,16.4149802094576,1461,10,0.0,15,139480359697594,53,19.7,215.2411651611328,0.9149999618530273,0,0.0,0.0,1.57542003E9,,,,0,,1,2.3,1.57542003E9
Raw,329752672,329819999000000,,,-1457982460431826896,0.8673391342163086,76.32181950611994,-1.7964824657758862,16.4149802094576,1461,16,0.0,15,139480351526867,1299,15.3,715.3995361328125,9.113000869750977,0,0.0,0.0,1.57542003E9,,,,0,,1,2.3,1.57542003E9
Raw,329752672,329819999000000,,,-1457982460431826896,0.8673391342163086,76.32181950611994,-1.7964824657758862,16.4149802094576,1461,27,0.0,15,139480362395593,102,15.5,297.0103759765625,2.759500026702881,0,0.0,0.0,1.57542003E9,,,,0,,1,2.3,1.57542003E9
Raw,329752673,329819999000000,,,-1457982460431826896,0.8673391342163086,76.32181950611994,-1.7964824657758862,16.4149802094576,1461,32,0.0,15,139480351236717,21,26.3,-507.07733154296875,0.12770000100135803,0,0.0,0.0,1.57542003E9,,,,0,,1,2.3,1.57542003E9
Raw,329752673,329819999000000,,,-1457982460431826896,0.8673391342163086,76.32181950611994,-1.7964824657758862,16.4149802094576,1461,15,0.0,7183,139480345545439,64,18.2,396.0391845703125,1.621999979019165,0,0.0,0.0,1.57542003E9,,,,0,,6,2.18,1.57542003E9
Raw,329752674,329819999000000,,,-1457982460431826896,0.8673391342163086,76.32181950611994,-1.7964824657758862,16.4149802094576,1461,23,0.0,7183,139480344827928,53,19.3,-308.9607849121094,0.8104999661445618,0,0.0,0.0,1.57542003E9,,,,0,,6,2.18,1.57542003E9
Raw,329752674,329819999000000,,,-1457982460431826896,0.8673391342163086,76.32181950611994,-1.7964824657758862,16.4149802094576,1461,26,0.0,7183,139480345261733,46,20.8,-382.3475646972656,0.7519999742507935,0,0.0,0.0,1.57542003E9,,,,0,,6,2.18,1.57542003E9
Raw,329752674,329819999000000,,,-1457982460431826896,0.8673391342163086,76.32181950611994,-1.7964824657758862,16.4149802094576,1461,27,0.0,7183,139480341458299,777,15.4,590.519287109375,4.312000274658203,0,0.0,0.0,1.57542003E9,,,,0,,6,2.18,1.57542003E9
Fix,gps,45.066025,7.657052,322.514709,0.000000,9.648001,1774277064000
Raw,329753661,329820999000000,,,-1457982460431826892,0.9353561401367188,76.74784865230322,-2.54690453666922,16.432858076345777,1461,9,0.0,207,63863359952750,19,27.1,292.6138610839844,0.23980000615119934,0,0.0,0.0,1.60087501E9,,,,0,,3,0.35,1.60087501E9
Raw,329753662,329820999000000,,,-1457982460431826892,0.9353561401367188,76.74784865230322,-2.54690453666922,16.432858076345777,1461,19,0.0,207,63863363563058,31,23.4,-293.82208251953125,0.9309999942779541,0,0.0,0.0,1.60368755E9,,,,0,,3,0.35,1.60368755E9
Raw,329753662,329820999000000,,,-1457982460431826892,0.9353561401367188,76.74784865230322,-2.54690453666922,16.432858076345777,1461,2,0.0,15,139481359229628,69,18.5,-296.3443298339844,2.5250000953674316,0,0.0,0.0,1.57542003E9,,,,0,,1,2.3,1.57542003E9
Raw,329753669,329820999000000,,,-1457982460431826892,0.9353561401367188,76.74784865230322,-2.54690453666922,16.432858076345777,1461,8,0.0,15,139481363527404,53,19.1,-124.7089614868164,1.0010000467300415,0,0.0,0.0,1.57542003E9,,,,0,,1,2.3,1.57542003E9
Raw,329753670,329820999000000,,,-1457982460431826892,0.9353561401367188,76.74784865230322,-2.54690453666922,16.432858076345777,1461,10,0.0,15,139481359697340,92,15.8,212.05374145507812,1.2549999952316284,0,0.0,0.0,1.57542003E9,,,,0,,1,2.3,1.57542003E9
Raw,329753670,329820999000000,,,-1457982460431826892,0.9353561401367188,76.74784865230322,-2.54690453666922,16.432858076345777,1461,16,0.0,15,139481351524491,1329,15.4,715.5042114257812,9.863000869750977,0,0.0,0.0,1.57542003E9,,,,0,,1,2.3,1.57542003E9
Raw,329753671,329820999000000,,,-1457982460431826892,0.9353561401367188,76.74784865230322,-2.54690453666922,16.432858076345777,1461,32,0.0,15,139481351238423,21,26.0,-506.9420166015625,0.12770000100135803,0,0.0,0.0,1.57542003E9,,,,0,,1,2.3,1.57542003E9
Raw,329753671,329820999000000,,,-1457982460431826892,0.9353561401367188,76.74784865230322,-2.54690453666922,16.432858076345777,1461,15,0.0,7183,139481345544152,53,19.0,395.43975830078125,0.8119999766349792,0,0.0,0.0,1.57542003E9,,,,0,,6,2.26,1.57542003E9
Raw,329753671,329820999000000,,,-1457982460431826892,0.9353561401367188,76.74784865230322,-2.54690453666922,16.432858076345777,1461,21,0.0,7183,139481349510031,339,11.3,224.77490234375,9.75200080871582,0,0.0,0.0,1.57542003E9,,,,0,,6,2.26,1.57542003E9
Raw,329753672,329820999000000,,,-1457982460431826892,0.9353561401367188,76.74784865230322,-2.54690453666922,16.432858076345777,1461,23,0.0,7183,139481344828972,53,19.1,-309.1606140136719,0.8104999661445618,0,0.0,0.0,1.57542003E9,,,,0,,6,2.26,1.57542003E9
Raw,329753673,329820999000000,,,-1457982460431826892,0.9353561401367188,76.74784865230322,-2.54690453666922,16.432858076345777,1461,26,0.0,7183,139481345262963,46,20.4,-382.0621032714844,0.7519999742507935,0,0.0,0.0,1.57542003E9,,,,0,,6,2.26,1.57542003E9
Raw,329753673,329820999000000,,,-1457982460431826892,0.9353561401367188,76.74784865230322,-2.54690453666922,16.432858076345777,1461,27,0.0,7183,139481341456338,790,15.7,590.0816650390625,5.062000274658203,0,0.0,0.0,1.57542003E9,,,,0,,6,2.26,1.57542003E9
Fix,gps,45.066026,7.657051,322.287720,0.000000,9.648001,1774277065000
Raw,329754668,329821999000000,,,-1457982460431826897,0.9732694625854492,72.58822734002024,-2.7919573647232547,15.109485562772244,1461,9,0.0,207,63864359951806,27,24.7,292.8775939941406,0.8649999499320984,0,0.0,0.0,1.60087501E9,,,,0,,3,0.36,1.60087501E9
Raw,329754668,329821999000000,,,-1457982460431826897,0.9732694625854492,72.58822734002024,-2.7919573647232547,15.109485562772244,1461,19,0.0,207,63864363563960,31,23.7,-294.3829040527344,0.9309999942779541,0,0.0,0.0,1.60368755E9,,,,0,,3,0.36,1.60368755E9
Raw,329754669,329821999000000,,,-1457982460431826897,0.9732694625854492,72.58822734002024,-2.7919573647232547,15.109485562772244,1461,2,0.0,15,139482359230540,24,25.0,-296.5917053222656,0.6450000405311584,0,0.0,0.0,1.57542003E9,,,,0,,1,2.3,1.57542003E9
Raw,329754669,329821999000000,,,-1457982460431826897,0.9732694625854492,72.58822734002024,-2.7919573647232547,15.109485562772244,1461,8,0.0,15,139482363527759,70,17.8,-123.86215209960938,1.0809999704360962,0,0.0,0.0,1.57542003E9,,,,0,,1,2.3,1.57542003E9
Raw,329754670,329821999000000,,,-1457982460431826897,0.9732694625854492,72.58822734002024,-2.7919573647232547,15.109485562772244,1461,16,0.0,15,139482351522084,328,15.3,715.4756469726562,10.988000869750977,0,0.0,0.0,1.57542003E9,,,,0,,1,2.3,1.57542003E9
Raw,329754670,329821999000000,,,-1457982460431826897,0.9732694625854492,72.58822734002024,-2.7919573647232547,15.109485562772244,1461,32,0.0,15,139482351240069,35,22.8,-506.580810546875,0.7429999709129333,0,0.0,0.0,1.57542003E9,,,,0,,1,2.3,1.57542003E9
Raw,329754671,329821999000000,,,-1457982460431826897,0.9732694625854492,72.58822734002024,-2.7919573647232547,15.109485562772244,1461,27,0.0,7183,139482341454373,807,15.7,589.86279296875,5.812000274658203,0,0.0,0.0,1.57542003E9,,,,0,,6,2.26,1.57542003E9
Fix,gps,45.066028,7.657050,322.229797,0.000000,9.648001,1774277066000
Raw,329755663,329822999000000,,,-1457982460431826897,0.15370559692382812,71.59440428949893,-2.6060438523011347,14.42835633046581,1461,9,0.0,207,63865359950844,35,22.7,293.30828857421875,0.98499995470047,0,0.0,0.0,1.60087501E9,,,,0,,3,0.36,1.60087501E9
Raw,329755663,329822999000000,,,-1457982460431826897,0.15370559692382812,71.59440428949893,-2.6060438523011347,14.42835633046581,1461,19,0.0,207,63865363565131,53,19.9,-293.95294189453125,1.2010000944137573,0,0.0,0.0,1.60368755E9,,,,0,,3,0.36,1.60368755E9
Raw,329755663,329822999000000,,,-1457982460431826897,0.15370559692382812,71.59440428949893,-2.6060438523011347,14.42835633046581,1461,1,0.0,15,139483351573231,125,14.2,-564.3634643554688,3.743000030517578,0,0.0,0.0,1.57542003E9,,,,0,,1,2.3,1.57542003E9
Raw,329755664,329822999000000,,,-1457982460431826897,0.15370559692382812,71.59440428949893,-2.6060438523011347,14.42835633046581,1461,2,0.0,15,139483359231558,53,19.6,-296.6392822265625,0.9449999928474426,0,0.0,0.0,1.57542003E9,,,,0,,1,2.3,1.57542003E9
Raw,329755664,329822999000000,,,-1457982460431826897,0.15370559692382812,71.59440428949893,-2.6060438523011347,14.42835633046581,1461,8,0.0,15,139483363528308,35,22.9,-124.68041229248047,0.7310000061988831,0,0.0,0.0,1.57542003E9,,,,0,,1,2.3,1.57542003E9
Raw,329755664,329822999000000,,,-1457982460431826897,0.15370559692382812,71.59440428949893,-2.6060438523011347,14.42835633046581,1461,10,0.0,15,139483359695675,110,14.5,214.9652557373047,2.1050000190734863,0,0.0,0.0,1.57542003E9,,,,0,,1,2.3,1.57542003E9
Raw,329755665,329822999000000,,,-1457982460431826897,0.15370559692382812,71.59440428949893,-2.6060438523011347,14.42835633046581,1461,27,0.0,15,139483362392646,79,17.3,298.9323425292969,2.6695001125335693,0,0.0,0.0,1.57542003E9,,,,0,,1,2.3,1.57542003E9
Raw,329755665,329822999000000,,,-1457982460431826897,0.15370559692382812,71.59440428949893,-2.6060438523011347,14.42835633046581,1461,32,0.0,15,139483351241733,46,20.1,-506.0099182128906,0.9329999685287476,0,0.0,0.0,1.57542003E9,,,,0,,1,2.3,1.57542003E9
Raw,329755666,329822999000000,,,-1457982460431826897,0.15370559692382812,71.59440428949893,-2.6060438523011347,14.42835633046581,1461,15,0.0,7183,139483345541560,84,16.8,395.220947265625,1.7720000743865967,0,0.0,0.0,1.57542003E9,,,,0,,6,2.26,1.57542003E9
Raw,329755666,329822999000000,,,-1457982460431826897,0.15370559692382812,71.59440428949893,-2.6060438523011347,14.42835633046581,1461,26,0.0,7183,139483345265531,48,20.7,-381.45318603515625,1.5019999742507935,0,0.0,0.0,1.57542003E9,,,,0,,6,2.26,1.57542003E9
Raw,329755667,329822999000000,,,-1457982460431826897,0.15370559692382812,71.59440428949893,-2.6060438523011347,14.42835633046581,1461,27,0.0,7183,139483341452403,826,15.5,589.7200927734375,6.562000274658203,0,0.0,0.0,1.57542003E9,,,,0,,6,2.26,1.57542003E9
Fix,gps,45.066029,7.657049,322.133423,0.000000,9.648001,1774277067000
Raw,329756662,329823999000000,,,-1457982460431826905,0.8819389343261719,71.85587310232222,-2.1601051959455204,14.459097036279669,1461,9,0.0,207,63866359949856,31,23.3,292.8307800292969,0.9249999523162842,0,0.0,0.0,1.60087501E9,,,,0,,3,0.31,1.60087501E9
Raw,329756663,329823999000000,,,-1457982460431826905,0.8819389343261719,71.85587310232222,-2.1601051959455204,14.459097036279669,1461,19,0.0,207,63866363565907,40,21.5,-294.3268127441406,1.0509999990463257,0,0.0,0.0,1.60368755E9,,,,0,,3,0.31,1.60368755E9
Raw,329756663,329823999000000,,,-1457982460431826905,0.8819389343261719,71.85587310232222,-2.1601051959455204,14.459097036279669,1461,2,0.0,15,139484359232578,46,20.2,-297.0103759765625,0.9449999928474426,0,0.0,0.0,1.57542003E9,,,,0,,1,2.24,1.57542003E9
Raw,329756664,329823999000000,,,-1457982460431826905,0.8819389343261719,71.85587310232222,-2.1601051959455204,14.459097036279669,1461,8,0.0,15,139484363528706,46,20.5,-124.2998275756836,0.8510000109672546,0,0.0,0.0,1.57542003E9,,,,0,,1,2.24,1.57542003E9
Raw,329756664,329823999000000,,,-1457982460431826905,0.8819389343261719,71.85587310232222,-2.1601051959455204,14.459097036279669,1461,27,0.0,15,139484362391716,53,19.2,298.3614501953125,0.999500036239624,0,0.0,0.0,1.57542003E9,,,,0,,1,2.24,1.57542003E9
Raw,329756664,329823999000000,,,-1457982460431826905,0.8819389343261719,71.85587310232222,-2.1601051959455204,14.459097036279669,1461,32,0.0,15,139484351243466,46,20.5,-506.2382507324219,0.8629999756813049,0,0.0,0.0,1.57542003E9,,,,0,,1,2.24,1.57542003E9
Raw,329756665,329823999000000,,,-1457982460431826905,0.8819389343261719,71.85587310232222,-2.1601051959455204,14.459097036279669,1461,23,0.0,7183,139484344832106,115,14.7,-308.9798583984375,2.690500020980835,0,0.0,0.0,1.57542003E9,,,,0,,6,2.18,1.57542003E9
Raw,329756665,329823999000000,,,-1457982460431826905,0.8819389343261719,71.85587310232222,-2.1601051959455204,14.459097036279669,1461,26,0.0,7183,139484345266812,27,24.3,-382.0430908203125,0.5519999861717224,0,0.0,0.0,1.57542003E9,,,,0,,6,2.18,1.57542003E9
Raw,329756666,329823999000000,,,-1457982460431826905,0.8819389343261719,71.85587310232222,-2.1601051959455204,14.459097036279669,1461,27,0.0,7183,139484341450432,847,15.6,589.86279296875,7.312000274658203,0,0.0,0.0,1.57542003E9,,,,0,,6,2.18,1.57542003E9
Fix,gps,45.066028,7.657049,322.171387,0.000000,9.648001,1774277068000
Raw,329757667,329824999000000,,,-1457982460431826909,0.7543172836303711,68.13865184085444,-2.8382133630009996,14.377154692298793,1461,9,0.0,207,63867359948851,35,22.5,292.8307800292969,0.98499995470047,0,0.0,0.0,1.60087501E9,,,,0,,3,0.35,1.60087501E9
Raw,329757667,329824999000000,,,-1457982460431826909,0.7543172836303711,68.13865184085444,-2.8382133630009996,14.377154692298793,1461,2,0.0,15,139485359233534,35,22.5,-296.3253173828125,0.7549999952316284,0,0.0,0.0,1.57542003E9,,,,0,,1,2.3,1.57542003E9
Raw,329757669,329824999000000,,,-1457982460431826909,0.7543172836303711,68.13865184085444,-2.8382133630009996,14.377154692298793,1461,8,0.0,15,139485363529148,53,19.0,-125.12760162353516,1.0010000467300415,0,0.0,0.0,1.57542003E9,,,,0,,1,2.3,1.57542003E9
Raw,329757670,329824999000000,,,-1457982460431826909,0.7543172836303711,68.13865184085444,-2.8382133630009996,14.377154692298793,1461,10,0.0,15,139485359694131,96,15.1,213.80445861816406,2.1050000190734863,0,0.0,0.0,1.57542003E9,,,,0,,1,2.3,1.57542003E9
Raw,329757670,329824999000000,,,-1457982460431826909,0.7543172836303711,68.13865184085444,-2.8382133630009996,14.377154692298793,1461,27,0.0,15,139485362390779,53,19.7,298.86572265625,0.9194999933242798,0,0.0,0.0,1.57542003E9,,,,0,,1,2.3,1.57542003E9
Raw,329757671,329824999000000,,,-1457982460431826909,0.7543172836303711,68.13865184085444,-2.8382133630009996,14.377154692298793,1461,32,0.0,15,139485351245168,35,22.9,-507.2658386230469,0.7429999709129333,0,0.0,0.0,1.57542003E9,,,,0,,1,2.3,1.57542003E9
Raw,329757671,329824999000000,,,-1457982460431826909,0.7543172836303711,68.13865184085444,-2.8382133630009996,14.377154692298793,1461,21,0.0,7183,139485349507050,97,16.5,225.01275634765625,3.2720000743865967,0,0.0,0.0,1.57542003E9,,,,0,,6,2.26,1.57542003E9
Raw,329757672,329824999000000,,,-1457982460431826909,0.7543172836303711,68.13865184085444,-2.8382133630009996,14.377154692298793,1461,26,0.0,7183,139485345268132,53,19.5,-382.2333984375,0.8119999766349792,0,0.0,0.0,1.57542003E9,,,,0,,6,2.26,1.57542003E9
Raw,329757672,329824999000000,,,-1457982460431826909,0.7543172836303711,68.13865184085444,-2.8382133630009996,14.377154692298793,1461,27,0.0,7183,139485341448468,871,15.3,589.853271484375,8.062000274658203,0,0.0,0.0,1.57542003E9,,,,0,,6,2.26,1.57542003E9
Fix,gps,45.066026,7.657046,322.134033,0.330000,9.648001,1774277069000
Raw,329758669,329825999000000,,,-1457982460431826913,8.4686279296875E-4,66.08031981159002,-4.176307083180418,14.46550380210045,1461,9,0.0,207,63868359947859,21,26.3,293.0878601074219,0.30970001220703125,0,0.0,0.0,1.60087501E9,,,,0,,3,0.36,1.60087501E9
Raw,329758670,329825999000000,,,-1457982460431826913,8.4686279296875E-4,66.08031981159002,-4.176307083180418,14.46550380210045,1461,19,0.0,207,63868363568003,56,19.1,-294.14923095703125,1.9510000944137573,0,0.0,0.0,1.60368755E9,,,,0,,3,0.36,1.60368755E9
