# 
# Header Description:
# 
# Version: v3.1.1.2 Platform: 13 Manufacturer: samsung Model: SM-A515F GNSS Hardware Model Name: S.LSI,K102
# 
# Raw,utcTimeMillis,TimeNanos,LeapSecond,TimeUncertaintyNanos,FullBiasNanos,BiasNanos,BiasUncertaintyNanos,DriftNanosPerSecond,DriftUncertaintyNanosPerSecond,HardwareClockDiscontinuityCount,Svid,TimeOffsetNanos,State,ReceivedSvTimeNanos,ReceivedSvTimeUncertaintyNanos,Cn0DbHz,PseudorangeRateMetersPerSecond,PseudorangeRateUncertaintyMetersPerSecond,AccumulatedDeltaRangeState,AccumulatedDeltaRangeMeters,AccumulatedDeltaRangeUncertaintyMeters,CarrierFrequencyHz,CarrierCycles,CarrierPhase,CarrierPhaseUncertainty,MultipathIndicator,SnrInDb,ConstellationType,AgcDb,BasebandCn0DbHz,FullInterSignalBiasNanos,FullInterSignalBiasUncertaintyNanos,SatelliteInterSignalBiasNanos,SatelliteInterSignalBiasUncertaintyNanos,CodeType,ChipsetElapsedRealtimeNanos,IsFullTracking,SvPositionEcefXMeters,SvPositionEcefYMeters,SvPositionEcefZMeters,SvVelocityEcefXMetersPerSecond,SvVelocityEcefYMetersPerSecond,SvVelocityEcefZMetersPerSecond,SvClockBiasMeters,SvClockDriftMetersPerSecond,KlobucharAlpha0,KlobucharAlpha1,KlobucharAlpha2,KlobucharAlpha3,KlobucharBeta0,KlobucharBeta1,KlobucharBeta2,KlobucharBeta3
# 
# UncalAccel,utcTimeMillis,elapsedRealtimeNanos,UncalAccelXMps2,UncalAccelYMps2,UncalAccelZMps2,BiasXMps2,BiasYMps2,BiasZMps2,CalibrationAccuracy
# 
# Accel,utcTimeMillis,elapsedRealtimeNanos,AccelXMps2,AccelYMps2,AccelZMps2,CalibrationAccuracy
# 
# UncalGyro,utcTimeMillis,elapsedRealtimeNanos,UncalGyroXRadPerSec,UncalGyroYRadPerSec,UncalGyroZRadPerSec,DriftXRadPerSec,DriftYRadPerSec,DriftZRadPerSec,CalibrationAccuracy
# 
# Gyro,utcTimeMillis,elapsedRealtimeNanos,GyroXRadPerSec,GyroYRadPerSec,GyroZRadPerSec,CalibrationAccuracy
# 
# UncalMag,utcTimeMillis,elapsedRealtimeNanos,UncalMagXMicroT,UncalMagYMicroT,UncalMagZMicroT,BiasXMicroT,BiasYMicroT,BiasZMicroT,CalibrationAccuracy
# 
# Mag,utcTimeMillis,elapsedRealtimeNanos,MagXMicroT,MagYMicroT,MagZMicroT,CalibrationAccuracy
# 
# Pressure,utcTimeMillis,elapsedRealtimeNanos,PressureHpa,CalibrationAccuracy
# 
# OrientationDeg,utcTimeMillis,elapsedRealtimeNanos,yawDeg,rollDeg,pitchDeg,CalibrationAccuracy
# 
# Fix,Provider,LatitudeDegrees,LongitudeDegrees,AltitudeMeters,SpeedMps,AccuracyMeters,BearingDegrees,UnixTimeMillis,SpeedAccuracyMps,BearingAccuracyDegrees,elapsedRealtimeNanos,VerticalAccuracyMeters,MockLocation,NumberOfUsedSignals,VerticalSpeedAccuracyMps,SolutionType
# 
# Nav,Svid,Type,Status,MessageId,Sub-messageId,Data(Bytes)
# 
# Status,UnixTimeMillis,SignalCount,SignalIndex,ConstellationType,Svid,CarrierFrequencyHz,Cn0DbHz,AzimuthDegrees,ElevationDegrees,UsedInFix,HasAlmanacData,HasEphemerisData,BasebandCn0DbHz
# 
# Agc,utcTimeMillis,TimeNanos,LeapSecond,TimeUncertaintyNanos,FullBiasNanos,BiasNanos,BiasUncertaintyNanos,DriftNanosPerSecond,DriftUncertaintyNanosPerSecond,HardwareClockDiscontinuityCount,AgcDb,CarrierFrequencyHz,ConstellationType
# 
# GameRotationVector,utcTimeMillis,elapsedRealtimeNanos,x,y,z,w
# 
Raw,1774276345999,90049851304,18,0.0,-1458311473950148608,0.0,12.65608024597168,62214.03125,0.0,0,2,0.0,47,138763927649518,20,29.299999237060547,1.9322298765182495,0.16935087740421295,20,24.63636792509351,0.11974800541251897,1575420000,,,,0,27.700000762939453,1,3.9000000953674316,24.299999237060547,0.0,0.0,0.0,0.0,C,1053268589672937,,16457508.208276585,-13310086.338359356,16073832.85243831,-454.2794154607127,1951.2326953466552,2188.524962858408,19117.237531314036,0.0024207469868997578,0.000000016763806343078613,0.000000007450580596923828,-0.00000011920928955078125,-0.000000059604644775390625,110592.0,16384.0,-262144.0,-65536.0
Raw,1774276345999,90049851304,18,0.0,-1458311473950148608,0.0,12.65608024597168,62214.03125,0.0,0,32,0.0,47,138763919164516,22,27.600000381469727,-199.16665649414062,0.19578666985034943,20,9444.278729180689,0.13844075425118207,1575420000,,,,0,23.299999237060547,1,3.9000000953674316,22.600000381469727,0.0,0.0,0.0,0.0,C,1053268589672937,,16151033.250096431,21193060.27985681,-642185.7556846805,-129.6445314064743,237.2864964220057,3177.3402991145736,-10347.163223398697,0.006004618546285201,0.000000016763806343078613,0.000000007450580596923828,-0.00000011920928955078125,-0.000000059604644775390625,110592.0,16384.0,-262144.0,-65536.0
Raw,1774276345999,90049851304,18,0.0,-1458311473950148608,0.0,12.65608024597168,62214.03125,0.0,0,8,0.0,47,138763932322185,22,27.799999237060547,143.0650177001953,0.19236689805984497,20,-6608.370935631101,0.13602263361811637,1575420000,,,,0,20.799999237060547,1,3.9000000953674316,22.799999237060547,0.0,0.0,0.0,0.0,C,1053268589672937,,15956977.130201478,-4112011.036338277,20720135.527209368,1616.2540963194017,2129.6403676156815,-766.8710906213163,142031.1549707716,-0.0021682217193301767,0.000000016763806343078613,0.000000007450580596923828,-0.00000011920928955078125,-0.000000059604644775390625,110592.0,16384.0,-262144.0,-65536.0
Raw,1774276345999,90049851304,18,0.0,-1458311473950148608,0.0,12.65608024597168,62214.03125,0.0,0,16,0.0,47,138763922390692,33,22.700000762939453,1031.9476318359375,0.319193035364151,20,-26810.96221830079,0.22570139530599115,1575420000,,,,0,16.899999618530273,1,3.9000000953674316,17.700000762939453,0.0,0.0,0.0,0.0,C,1053268589672937,,26654614.700805653,1500771.3322108197,-2698177.2710815244,-287.4391778186882,252.5169543290754,-3118.11585743208,69337.00055689475,0.0031638516957173124,0.000000016763806343078613,0.000000007450580596923828,-0.00000011920928955078125,-0.000000059604644775390625,110592.0,16384.0,-262144.0,-65536.0
Raw,1774276345999,90049851304,18,0.0,-1458311473950148608,0.0,12.65608024597168,62214.03125,0.0,0,10,0.0,47,138763929295260,33,22.600000381469727,473.60772705078125,0.32283055782318115,20,-1420.7709648184027,0.22827348743677137,1575420000,,,,0,17.299999237060547,1,3.9000000953674316,17.600000381469727,0.0,0.0,0.0,0.0,C,1053268589672937,,14750843.803669512,11342151.959179549,19352717.707556307,-2365.600135670265,277.26603897278875,1631.7621190430457,-176987.56408811331,0.0011044554121326655,0.000000016763806343078613,0.000000007450580596923828,-0.00000011920928955078125,-0.000000059604644775390625,110592.0,16384.0,-262144.0,-65536.0
Raw,1774276345999,90049851304,18,0.0,-1458311473950148608,0.0,12.65608024597168,62214.03125,0.0,0,27,0.0,47,138763932203043,37,21.600000381469727,565.8949584960938,0.3628973662853241,20,-20845.980632233433,0.25660472770035264,1575420000,,,,0,13.399999618530273,1,3.9000000953674316,16.600000381469727,0.0,0.0,0.0,0.0,C,1053268589672937,,19725139.928967796,7193658.857630053,16156497.517775837,1108.2315290254544,1799.41297688004,-2063.989520003089,-23542.242524593265,-0.004276903811842203,0.000000016763806343078613,0.000000007450580596923828,-0.00000011920928955078125,-0.000000059604644775390625,110592.0,16384.0,-262144.0,-65536.0
Raw,1774276345999,90049851304,18,0.0,-1458311473950148608,0.0,12.65608024597168,62214.03125,0.0,0,23,0.0,47,138763923996742,40,20.700000762939453,874.677978515625,0.40569597482681274,20,-32353.283182307146,0.2868676238000393,1575420000,,,,0,14.699999809265137,1,3.9000000953674316,15.699999809265137,0.0,0.0,0.0,0.0,C,1053268589672937,,451641.0466640126,14677026.619900383,22198195.915128823,-2775.4703586056976,316.9579361887425,-179.46621246574304,188126.21790973953,0.0015695107576902956,0.000000016763806343078613,0.000000007450580596923828,-0.00000011920928955078125,-0.000000059604644775390625,110592.0,16384.0,-262144.0,-65536.0
Raw,1774276345999,90049851304,18,0.0,-1458311473950148608,0.0,12.65608024597168,62214.03125,0.0,0,30,0.0,815,138749923955187,16,32.599998474121094,-30.027080535888672,0.13127493858337402,17,1450.8258556927321,0.09282450907230376,1561098000,,,,0,28.299999237060547,5,3.9000000953674316,27.600000381469727,0.0,0.0,0.0,0.0,C,1053268589672937,,13630594.63895202,-12723966.404774394,20739352.328339927,327.62775509944316,2354.3465181018255,1230.076847186392,123676.48773441273,0.0023134541988838464,0.000000016763806343078613,0.000000007450580596923828,-0.00000011920928955078125,-0.000000059604644775390625,110592.0,16384.0,-262144.0,-65536.0
Raw,1774276345999,90049851304,18,0.0,-1458311473950148608,0.0,12.65608024597168,62214.03125,0.0,0,19,0.0,239,63145931991771,19,29.899999618530273,2.9777040481567383,0.16128772497177124,20,-51.49229070486035,0.11404655032753944,1603687600,,,,0,26.899999618530273,3,3.9000000953674316,24.899999618530273,0.0,0.0,0.0,0.0,C,1053268589672937,,11451058.703363469,-9850293.437455513,20562218.276671648,-478.28487822548914,2774.9541239912796,1590.2044677989627,11774.581280200908,0.0005453193043649662,0.000000016763806343078613,0.000000007450580596923828,-0.00000011920928955078125,-0.000000059604644775390625,110592.0,16384.0,-262144.0,-65536.0
Raw,1774276345999,90049851304,18,0.0,-1458311473950148608,0.0,12.65608024597168,62214.03125,0.0,0,3,0.0,239,63145930297604,19,30.0,-55.746246337890625,0.1599999964237213,20,648.523176992283,0.11313599747121333,1604812500,,,,0,24.5,3,3.9000000953674316,25.0,0.0,0.0,0.0,0.0,C,1053268589672937,,14765068.545273222,17485501.775203414,11378041.45835512,-1135.4609623982913,-1067.2629835446576,3123.3086314149978,42311.897937223104,0.0002726596521824831,0.000000016763806343078613,0.000000007450580596923828,-0.00000011920928955078125,-0.000000059604644775390625,110592.0,16384.0,-262144.0,-65536.0
Raw,1774276345999,90049851304,18,0.0,-1458311473950148608,0.0,12.65608024597168,62214.03125,0.0,0,9,0.0,239,63145929699969,21,28.200000762939453,516.5904541015625,0.18579070270061493,20,-20459.32771271607,0.1313726058796048,1600875000,,,,0,22.899999618530273,3,3.9000000953674316,23.200000762939453,0.0,0.0,0.0,0.0,C,1053268589672937,,13576195.015551835,-15078383.721417088,15421468.308238838,1866.2748032700379,-986.1917208948852,-2618.8671948499577,94598.34033402566,0.0005453193043649662,0.000000016763806343078613,0.000000007450580596923828,-0.00000011920928955078125,-0.000000059604644775390625,110592.0,16384.0,-262144.0,-65536.0
Raw,1774276345999,90049851304,18,0.0,-1458311473950148608,0.0,12.65608024597168,62214.03125,0.0,0,36,0.0,815,138749918021192,23,27.399999618530273,516.680419921875,0.19929847121238708,20,-21537.72902385518,0.1409239489942789,1561098000,,,,0,21.399999618530273,5,3.9000000953674316,22.399999618530273,0.0,0.0,0.0,0.0,C,1053268589672937,,11755601.070691405,-20667863.865991678,14638197.335571317,1459.6148387976614,-824.72490536141,-2337.7793778550576,88190.75700653855,-0.0007121106173144653,0.000000016763806343078613,0.000000007450580596923828,-0.00000011920928955078125,-0.000000059604644775390625,110592.0,16384.0,-262144.0,-65536.0
Raw,1774276345999,90049851304,18,0.0,-1458311473950148608,0.0,12.65608024597168,62214.03125,0.0,0,16,0.0,239,63145925190436,24,26.700000762939453,1101.2015380859375,0.21236379444599152,20,-40626.694295070134,0.15016243905276058,1601437400,,,,0,22.299999237060547,3,3.9000000953674316,21.700000762939453,0.0,0.0,0.0,0.0,C,1053268589672937,,23569483.746799234,-9593406.140148353,-1421967.5418463193,-248.40771144594873,-78.37923195546273,-3572.0345922480037,14033.32550450787,0.0,0.000000016763806343078613,0.000000007450580596923828,-0.00000011920928955078125,-0.000000059604644775390625,110592.0,16384.0,-262144.0,-65536.0
Raw,1774276345999,90049851304,18,0.0,-1458311473950148608,0.0,12.65608024597168,62214.03125,0.0,0,21,0.0,7215,138763919145810,29,24.299999237060547,498.962890625,0.2684636116027832,20,-12892.473329169094,0.189830619764328,1575420000,,,,0,16.0,6,3.9000000953674316,19.299999237060547,0.0,0.0,0.0,0.0,C,1053268589672937,,24071097.59399879,-8517423.028432192,14967882.88275729,1500.9078081961393,74.85665769616699,-2369.9579284017445,-218871.1893187629,-0.000822276808321476,0.000000016763806343078613,0.000000007450580596923828,-0.00000011920928955078125,-0.000000059604644775390625,110592.0,16384.0,-262144.0,-65536.0
Raw,1774276345999,90049851304,18,0.0,-1458311473950148608,0.0,12.65608024597168,62214.03125,0.0,0,28,0.0,815,138749918863320,32,23.200000762939453,797.6563720703125,0.3018958866596222,20,-36623.487695661956,0.21347058145701883,1561098000,,,,0,18.600000381469727,5,3.9000000953674316,18.200000762939453,0.0,0.0,0.0,0.0,C,1053268589672937,,9896074.97133665,23396714.840538714,11556954.937853675,-52.08844613673853,1328.092749221308,-2643.604961346872,149319.33547479767,0.0014212780515663326,0.000000016763806343078613,0.000000007450580596923828,-0.00000011920928955078125,-0.000000059604644775390625,110592.0,16384.0,-262144.0,-65536.0
Raw,1774276345999,90049851304,18,0.0,-1458311473950148608,0.0,12.65608024597168,62214.03125,0.0,0,17,0.0,239,63145923237127,31,23.299999237060547,897.8965454101562,0.2986055314540863,20,-42194.517419298296,0.21114397129118442,1604250000,,,,0,19.700000762939453,3,3.9000000953674316,18.299999237060547,0.0,0.0,0.0,0.0,C,1053268589672937,,2797358.367678325,22492102.422525167,11666347.613593657,-24.504829472695974,1607.5123611869235,-3097.4681034691057,84154.46079169915,0.0008179789565474493,0.000000016763806343078613,0.000000007450580596923828,-0.00000011920928955078125,-0.000000059604644775390625,110592.0,16384.0,-262144.0,-65536.0
Raw,1774276345999,90049851304,18,0.0,-1458311473950148608,0.0,12.65608024597168,62214.03125,0.0,0,4,0.0,239,63145923187966,37,21.399999618530273,-486.0766906738281,0.37180250883102417,20,21018.993607801036,0.26290155399441717,1605375000,,,,0,22.0,3,3.9000000953674316,16.399999618530273,0.0,0.0,0.0,0.0,C,1053268589672937,,21214791.665508162,13051000.331560547,-5494280.007721933,732.9892329558801,289.48163211724545,3494.095295409129,103385.99078067702,0.0005453193043649662,0.000000016763806343078613,0.000000007450580596923828,-0.00000011920928955078125,-0.000000059604644775390625,110592.0,16384.0,-262144.0,-65536.0
Raw,1774276345999,90049851304,18,0.0,-1458311473950148608,0.0,12.65608024597168,62214.03125,0.0,0,15,0.0,7215,138763915651594,46,19.399999618530273,720.616943359375,0.48225313425064087,20,-17972.886084308848,0.34100119122862815,1575420000,,,,0,15.399999618530273,6,3.9000000953674316,14.399999618530273,0.0,0.0,0.0,0.0,C,1053268589672937,,5901577.973236887,17553640.920022264,23101872.727255568,-1274.4632108432563,1939.6861404537249,-1146.9853375358173,-73457.20335405493,-0.00084404279186856,0.000000016763806343078613,0.000000007450580596923828,-0.00000011920928955078125,-0.000000059604644775390625,110592.0,16384.0,-262144.0,-65536.0
Raw,1774276345999,90049851304,18,0.0,-1458311473950148608,0.0,12.65608024597168,62214.03125,0.0,0,33,0.0,815,138749916613260,50,18.799999237060547,683.9800415039062,0.5250997543334961,20,-16228.5091667386,0.37129803628921504,1561098000,,,,0,12.0,5,3.9000000953674316,13.800000190734863,0.0,0.0,0.0,0.0,C,1053268589672937,,-1819605.6199375382,15932407.258380461,22836688.704275224,-2342.352456611253,-1143.3474009635024,613.9028060398997,-277604.4934912874,0.0009949473896995187,0.000000016763806343078613,0.000000007450580596923828,-0.00000011920928955078125,-0.000000059604644775390625,110592.0,16384.0,-262144.0,-65536.0
Raw,1774276347000,91049852404,18,0.0,-1458311473950147584,0.0,12.65608024597168,62214.72265625,0.0,0,2,0.0,47,138764927650588,19,29.5,2.6009790897369385,0.16659724712371826,20,23.36974395927973,0.11780091344118117,1575420000,,,,0,26.100000381469727,1,3.9000000953674316,24.5,0.0,0.0,0.0,0.0,C,1053269572767974,,16457053.939731631,-13308134.964555437,16076021.209079217,-454.2566939279133,1951.5107305327283,2188.1836285846607,19117.239952186374,0.0024209925068134908,0.000000016763806343078613,0.000000007450580596923828,-0.00000011920928955078125,-0.000000059604644775390625,110592.0,16384.0,-262144.0,-65536.0
Raw,1774276347000,91049852404,18,0.0,-1458311473950147584,0.0,12.65608024597168,62214.72265625,0.0,0,32,0.0,47,138764919166238,22,27.700000762939453,-198.2754364013672,0.19406546652317047,20,9643.933737184387,0.13722369137853382,1575420000,,,,0,26.0,1,3.9000000953674316,22.700000762939453,0.0,0.0,0.0,0.0,C,1053269572767974,,16150903.49556866,21193297.409479707,-639008.4031626808,-129.86408439156432,236.9719377281829,3177.3537910694054,-10347.157218706994,0.006004744176607346,0.000000016763806343078613,0.000000007450580596923828,-0.00000011920928955078125,-0.000000059604644775390625,110592.0,16384.0,-262144.0,-65536.0
Raw,1774276347000,91049852404,18,0.0,-1458311473950147584,0.0,12.65608024597168,62214.72265625,0.0,0,8,0.0,47,138764932322837,22,27.799999237060547,144.2379913330078,0.19236689805984497,20,-6751.171217222232,0.13602263361811637,1575420000,,,,0,27.600000381469727,1,3.9000000953674316,22.799999237060547,0.0,0.0,0.0,0.0,C,1053269572767974,,15958593.411699262,-4109881.4792197943,20719368.433057927,1616.3067834033307,2129.471085282378,-767.3162088517319,142031.15280263044,-0.0021680578065570444,0.000000016763806343078613,0.000000007450580596923828,-0.00000011920928955078125,-0.000000059604644775390625,110592.0,16384.0,-262144.0,-65536.0
Raw,1774276347000,91049852404,18,0.0,-1458311473950147584,0.0,12.65608024597168,62214.72265625,0.0,0,10,0.0,47,138764929294658,34,22.399999618530273,474.3370056152344,0.3302946388721466,20,-1893.860499789691,0.23355133914649484,1575420000,,,,0,19.200000762939453,1,3.9000000953674316,17.399999618530273,0.0,0.0,0.0,0.0,C,1053269572767974,,14748478.112502147,11342429.31091076,19354349.269354876,-2365.7850372618245,277.43776119337167,1631.3634368630205,-176987.56298367024,0.0011044320999644697,0.000000016763806343078613,0.000000007450580596923828,-0.00000011920928955078125,-0.000000059604644775390625,110592.0,16384.0,-262144.0,-65536.0
Raw,1774276347000,91049852404,18,0.0,-1458311473950147584,0.0,12.65608024597168,62214.72265625,0.0,0,16,0.0,47,138764922388296,33,22.600000381469727,1033.633056640625,0.32283055782318115,20,-27842.912558545126,0.22827348743677137,1575420000,,,,0,13.0,1,3.9000000953674316,17.600000381469727,0.0,0.0,0.0,0.0,C,1053269572767974,,26654327.076611,1501023.8580359896,-2701295.351613842,-287.8105881645421,252.53591453225178,-3118.060138517349,69337.00372081668,0.003164007284794934,0.000000016763806343078613,0.000000007450580596923828,-0.00000011920928955078125,-0.000000059604644775390625,110592.0,16384.0,-262144.0,-65536.0
Raw,1774276347000,91049852404,18,0.0,-1458311473950147584,0.0,12.65608024597168,62214.72265625,0.0,0,27,0.0,47,138764932202248,37,21.399999618530273,567.246337890625,0.37180250883102417,20,-21411.52575621975,0.26290155399441717,1575420000,,,,0,17.899999618530273,1,3.9000000953674316,16.399999618530273,0.0,0.0,0.0,0.0,C,1053269572767974,,19726248.13186343,7195458.130387995,16154433.35671462,1108.1760149918339,1799.1353964109403,-2064.335876660919,-23542.24680138958,-0.0042766956248669885,0.000000016763806343078613,0.000000007450580596923828,-0.00000011920928955078125,-0.000000059604644775390625,110592.0,16384.0,-262144.0,-65536.0
Raw,1774276347000,91049852404,18,0.0,-1458311473950147584,0.0,12.65608024597168,62214.72265625,0.0,0,23,0.0,47,138764923994916,41,20.600000381469727,875.0712890625,0.4109138548374176,20,-33227.110214310116,0.290557186755538,1575420000,,,,0,16.399999618530273,1,3.9000000953674316,15.600000381469727,0.0,0.0,0.0,0.0,C,1053269572767974,,448865.600926867,14677343.66355606,22198016.21460232,-2775.431240150864,317.13053108407587,-179.93549637038566,188126.21947920605,0.0015694280446041375,0.000000016763806343078613,0.000000007450580596923828,-0.00000011920928955078125,-0.000000059604644775390625,110592.0,16384.0,-262144.0,-65536.0
Raw,1774276347000,91049852404,18,0.0,-1458311473950147584,0.0,12.65608024597168,62214.72265625,0.0,0,30,0.0,815,138750923956387,16,32.599998474121094,-29.951862335205078,0.13127493858337402,17,1481.940797904972,0.09282450907230376,1561098000,,,,0,28.399999618530273,5,3.9000000953674316,27.600000381469727,0.0,0.0,0.0,0.0,C,1053269572767974,,13630922.349815179,-12721611.996276226,20740582.21611275,327.7931868645595,2354.4648185318474,1229.6957429976878,123676.49004787108,0.0023134569346439093,0.000000016763806343078613,0.000000007450580596923828,-0.00000011920928955078125,-0.000000059604644775390625,110592.0,16384.0,-262144.0,-65536.0
Raw,1774276347000,91049852404,18,0.0,-1458311473950147584,0.0,12.65608024597168,62214.72265625,0.0,0,19,0.0,239,63146931992840,18,30.399999618530273,3.7600369453430176,0.15500031411647797,20,-59.928478239802644,0.10960072211176156,1603687600,,,,0,30.299999237060547,3,3.9000000953674316,25.399999618530273,0.0,0.0,0.0,0.0,C,1053269572767974,,11450580.513399601,-9847518.353529029,20563808.236085452,-478.0940152773985,2775.2078119464622,1589.7109717256874,11774.581825520796,0.0005453193043649662,0.000000016763806343078613,0.000000007450580596923828,-0.00000011920928955078125,-0.000000059604644775390625,110592.0,16384.0,-262144.0,-65536.0
Raw,1774276347000,91049852404,18,0.0,-1458311473950147584,0.0,12.65608024597168,62214.72265625,0.0,0,3,0.0,239,63146930298881,19,29.899999618530273,-55.91807556152344,0.16128772497177124,20,702.4713140228705,0.11404655032753944,1604812500,,,,0,18.0,3,3.9000000953674316,24.899999618530273,0.0,0.0,0.0,0.0,C,1053269572767974,,14763932.868036952,17484434.431416668,11381164.635090968,-1135.890627870588,-1067.4218468378442,3123.036880206909,42311.898209883104,0.0002726596521824831,0.000000016763806343078613,0.000000007450580596923828,-0.00000011920928955078125,-0.000000059604644775390625,110592.0,16384.0,-262144.0,-65536.0
Raw,1774276347000,91049852404,18,0.0,-1458311473950147584,0.0,12.65608024597168,62214.72265625,0.0,0,9,0.0,239,63146929699375,21,28.200000762939453,517.0523681640625,0.18579070270061493,20,-20966.122403100948,0.1313726058796048,1600875000,,,,0,24.399999618530273,3,3.9000000953674316,23.200000762939453,0.0,0.0,0.0,0.0,C,1053269572767974,,13578061.089958644,-15079369.907180814,15418849.256914575,1865.8762500992589,-986.1809681498139,-2619.238574548782,94598.34087934464,0.0005453193043649662,0.000000016763806343078613,0.000000007450580596923828,-0.00000011920928955078125,-0.000000059604644775390625,110592.0,16384.0,-262144.0,-65536.0
Raw,1774276347000,91049852404,18,0.0,-1458311473950147584,0.0,12.65608024597168,62214.72265625,0.0,0,36,0.0,815,138750918020545,23,27.200000762939453,516.970947265625,0.2029055953025818,20,-22053.500607802882,0.14347454643845556,1561098000,,,,0,19.5,5,3.9000000953674316,22.200000762939453,0.0,0.0,0.0,0.0,C,1053269572767974,,11757060.548077632,-20668688.56252631,14635859.423676709,1459.3418203478823,-824.669222640009,-2338.0474294603346,88190.7562944273,-0.0007121128437574953,0.000000016763806343078613,0.000000007450580596923828,-0.00000011920928955078125,-0.000000059604644775390625,110592.0,16384.0,-262144.0,-65536.0
Raw,1774276347000,91049852404,18,0.0,-1458311473950147584,0.0,12.65608024597168,62214.72265625,0.0,0,16,0.0,239,63146925187882,24,26.600000381469727,1101.1888427734375,0.21433469653129578,20,-41721.12911433575,0.15155606391727924,1601437400,,,,0,16.0,3,3.9000000953674316,21.600000381469727,0.0,0.0,0.0,0.0,C,1053269572767974,,23569235.11291304,-9593484.41106786,-1425539.550161501,-248.8613164848881,-78.16298309009017,-3572.0003011036933,14033.32550450787,0.0,0.000000016763806343078613,0.000000007450580596923828,-0.00000011920928955078125,-0.000000059604644775390625,110592.0,16384.0,-262144.0,-65536.0
Raw,1774276347000,91049852404,18,0.0,-1458311473950147584,0.0,12.65608024597168,62214.72265625,0.0,0,21,0.0,7215,138764919145275,29,24.100000381469727,498.79693603515625,0.27411526441574097,20,-13390.195923571242,0.19382690346837042,1575420000,,,,0,15.0,6,3.9000000953674316,19.100000381469727,0.0,0.0,0.0,0.0,C,1053269572767974,,24072598.385430254,-8517348.238430342,14965512.811031906,1500.6766548079672,74.72343150814274,-2370.1880522559977,-218871.19014103842,-0.000822275091195479,0.000000016763806343078613,0.000000007450580596923828,-0.00000011920928955078125,-0.000000059604644775390625,110592.0,16384.0,-262144.0,-65536.0
Raw,1774276347000,91049852404,18,0.0,-1458311473950147584,0.0,12.65608024597168,62214.72265625,0.0,0,17,0.0,239,63146923235297,32,23.100000381469727,898.79833984375,0.3052409589290619,20,-43071.89641998755,0.21583588205873966,1604250000,,,,0,19.5,3,3.9000000953674316,18.100000381469727,0.0,0.0,0.0,0.0,C,1053269572767974,,2797333.9538948773,22493709.72290428,11663250.010793993,-24.32285076811945,1607.0942903594228,-3097.748845433257,84154.4616096766,0.0008179789565474493,0.000000016763806343078613,0.000000007450580596923828,-0.00000011920928955078125,-0.000000059604644775390625,110592.0,16384.0,-262144.0,-65536.0
Raw,1774276347000,91049852404,18,0.0,-1458311473950147584,0.0,12.65608024597168,62214.72265625,0.0,0,28,0.0,815,138750918861740,32,23.100000381469727,798.6956176757812,0.3052409589290619,20,-37420.63814459101,0.21583588205873966,1561098000,,,,0,15.399999618530273,5,3.9000000953674316,18.100000381469727,0.0,0.0,0.0,0.0,C,1053269572767974,,9896022.915394142,23398042.782681298,11554311.231102794,-52.02361055572256,1327.7957278311746,-2643.816886494104,149319.33689607366,0.0014212784299161285,0.000000016763806343078613,0.000000007450580596923828,-0.00000011920928955078125,-0.000000059604644775390625,110592.0,16384.0,-262144.0,-65536.0
Raw,1774276347000,91049852404,18,0.0,-1458311473950147584,0.0,12.65608024597168,62214.72265625,0.0,0,4,0.0,239,63146923190674,36,21.899999618530273,-484.75384521484375,0.35012781620025635,20,21502.04924167064,0.24757537883520125,1605375000,,,,0,20.600000381469727,3,3.9000000953674316,16.899999618530273,0.0,0.0,0.0,0.0,C,1053269572767974,,21215524.479412574,13051289.63846438,-5490785.836984484,732.6345982816283,289.13063493490154,3494.2272703983485,103385.9913259978,0.0005453193043649662,0.000000016763806343078613,0.000000007450580596923828,-0.00000011920928955078125,-0.000000059604644775390625,110592.0,16384.0,-262144.0,-65536.0
Raw,1774276347000,91049852404,18,0.0,-1458311473950147584,0.0,12.65608024597168,62214.72265625,0.0,0,15,0.0,7215,138764915650239,47,19.299999237060547,721.25537109375,0.4890214502811432,20,-18692.706526254653,0.34578706749379634,1575420000,,,,0,16.399999618530273,6,3.9000000953674316,14.300000190734863,0.0,0.0,0.0,0.0,C,1053269572767974,,5900303.623584815,17555580.608370624,23100725.566093333,-1274.2395444348174,1939.6958041526996,-1147.340092793656,-73457.20419809516,-0.0008440399542450905,0.000000016763806343078613,0.000000007450580596923828,-0.00000011920928955078125,-0.000000059604644775390625,110592.0,16384.0,-262144.0,-65536.0
Raw,1774276347000,91049852404,18,0.0,-1458311473950147584,0.0,12.65608024597168,62214.72265625,0.0,0,33,0.0,815,138750916612090,50,18.700000762939453,683.6593017578125,0.5327934622764587,20,-16910.982139019296,0.37673825717568393,1561098000,,,,0,15.399999618530273,5,3.9000000953674316,13.699999809265137,0.0,0.0,0.0,0.0,C,1053269572767974,,-1821948.0411691545,15931263.979381993,22837302.396901697,-2342.495479554254,-1143.2132652837852,613.4838810937362,-277604.49249633716,0.0009949554223567247,0.000000016763806343078613,0.000000007450580596923828,-0.00000011920928955078125,-0.000000059604644775390625,110592.0,16384.0,-262144.0,-65536.0
Raw,1774276348000,92049853504,18,0.0,-1458311473950146560,0.0,12.65608024597168,62215.703125,0.0,0,2,0.0,47,138765927651715,19,29.5,1.9682080745697021,0.16659724712371826,20,22.379285601782613,0.11780091344118117,1575420000,,,,0,19.200000762939453,1,3.9000000953674316,24.5,0.0,0.0,0.0,0.0,C,1053270585848666,,16456599.693907516,-13306183.312623013,16078209.224488221,-454.2339220346781,1951.7887292741275,2187.8422503523534,19117.242373304365,0.002421238023089245,0.000000016763806343078613,0.000000007450580596923828,-0.00000011920928955078125,-0.000000059604644775390625,110592.0,16384.0,-262144.0,-65536.0
Raw,1774276348000,92049853504,18,0.0,-1458311473950146560,0.0,12.65608024597168,62215.703125,0.0,0,8,0.0,47,138765932323450,22,28.0,143.95103454589844,0.18903592228889465,20,-6893.994881354156,0.1336673006504774,1575420000,,,,0,28.200000762939453,1,3.9000000953674316,23.0,0.0,0.0,0.0,0.0,C,1053270585848666,,15960209.745796558,-4107752.0914880615,20718600.89382723,1616.359421342754,2129.301760429667,-767.7613084110212,142031.15063465326,-0.002167893893783912,0.000000016763806343078613,0.000000007450580596923828,-0.00000011920928955078125,-0.000000059604644775390625,110592.0,16384.0,-262144.0,-65536.0
Raw,1774276348000,92049853504,18,0.0,-1458311473950146560,0.0,12.65608024597168,62215.703125,0.0,0,32,0.0,47,138765919167975,22,27.700000762939453,-196.70858764648438,0.19406546652317047,20,9842.368496999261,0.13722369137853382,1575420000,,,,0,17.0,1,3.9000000953674316,22.700000762939453,0.0,0.0,0.0,0.0,C,1053270585848666,,16150773.521464266,21193534.224561937,-635831.0371345194,-130.0836799267305,236.65740900812196,3177.3672160687383,-10347.151213889572,0.006004869803291513,0.000000016763806343078613,0.000000007450580596923828,-0.00000011920928955078125,-0.000000059604644775390625,110592.0,16384.0,-262144.0,-65536.0
Raw,1774276348000,92049853504,18,0.0,-1458311473950146560,0.0,12.65608024597168,62215.703125,0.0,0,16,0.0,47,138765922385937,34,22.399999618530273,1033.508056640625,0.3302946388721466,20,-28875.158254612354,0.23355133914649484,1575420000,,,,0,9.5,1,3.9000000953674316,17.399999618530273,0.0,0.0,0.0,0.0,C,1053270585848666,,26654039.081001107,1501276.402855928,-2704413.3765107607,-288.1819887509355,252.55492518029345,-3118.004355515125,69337.00688489429,0.0031641628593206406,0.000000016763806343078613,0.000000007450580596923828,-0.00000011920928955078125,-0.000000059604644775390625,110592.0,16384.0,-262144.0,-65536.0
Raw,1774276348000,92049853504,18,0.0,-1458311473950146560,0.0,12.65608024597168,62215.703125,0.0,0,10,0.0,47,138765929294129,35,22.200000762939453,474.65521240234375,0.33802053332328796,20,-2367.2502848777076,0.2390143191128969,1575420000,,,,0,13.0,1,3.9000000953674316,17.200000762939453,0.0,0.0,0.0,0.0,C,1053270585848666,,14746112.236291042,11342706.834395668,19355980.432573635,-2365.9698778788047,277.6095059923076,1630.964720779707,-176987.56187925042,0.0011044087004847825,0.000000016763806343078613,0.000000007450580596923828,-0.00000011920928955078125,-0.000000059604644775390625,110592.0,16384.0,-262144.0,-65536.0
Raw,1774276348000,92049853504,18,0.0,-1458311473950146560,0.0,12.65608024597168,62215.703125,0.0,0,27,0.0,47,138765932201409,38,21.299999237060547,568.627685546875,0.37637853622436523,20,-21978.382428625366,0.2661372629642486,1575420000,,,,0,15.699999809265137,1,3.9000000953674316,16.299999237060547,0.0,0.0,0.0,0.0,C,1053270585848666,,19727356.27916847,7197257.125476526,16152368.849411063,1108.1204452302497,1798.8577960099979,-2064.6821869036708,-23542.251077977526,-0.004276487430615816,0.000000016763806343078613,0.000000007450580596923828,-0.00000011920928955078125,-0.000000059604644775390625,110592.0,16384.0,-262144.0,-65536.0
Raw,1774276348000,92049853504,18,0.0,-1458311473950146560,0.0,12.65608024597168,62215.703125,0.0,0,23,0.0,47,138765923993108,41,20.5,876.0969848632812,0.416233092546463,20,-34101.70729443594,0.294318419739604,1575420000,,,,0,14.199999809265137,1,3.9000000953674316,15.5,0.0,0.0,0.0,0.0,C,1053270585848666,,446090.194292692,14677660.879806269,22197836.04479084,-2775.392052643657,317.3031144847647,-180.4047776455365,188126.2210485899,0.0015693453315179795,0.000000016763806343078613,0.000000007450580596923828,-0.00000011920928955078125,-0.000000059604644775390625,110592.0,16384.0,-262144.0,-65536.0
Raw,1774276348000,92049853504,18,0.0,-1458311473950146560,0.0,12.65608024597168,62215.703125,0.0,0,30,0.0,815,138751923957599,16,32.599998474121094,-30.135780334472656,0.13127493858337402,17,1513.146877384861,0.09282450907230376,1561098000,,,,0,22.299999237060547,5,3.9000000953674316,27.600000381469727,0.0,0.0,0.0,0.0,C,1053270585848666,,13631250.226120718,-12719257.469476687,20741811.7227844,327.95863162856915,2354.5830640735267,1229.3146162486569,123676.49236133219,0.0023134596995078027,0.000000016763806343078613,0.000000007450580596923828,-0.00000011920928955078125,-0.000000059604644775390625,110592.0,16384.0,-262144.0,-65536.0
Raw,1774276348000,92049853504,18,0.0,-1458311473950146560,0.0,12.65608024597168,62215.703125,0.0,0,9,0.0,239,63147929698759,18,30.899999618530273,517.2972412109375,0.1490735113620758,20,-21479.498781133676,0.1054098798841238,1600875000,,,,0,29.799999237060547,3,3.9000000953674316,25.899999618530273,0.0,0.0,0.0,0.0,C,1053270585848666,,13579926.7657546,-15080356.082131574,15416229.83429989,1865.477663212415,-986.1701384502709,-2619.6098914894233,94598.34142466362,0.0005453193043649662,0.000000016763806343078613,0.000000007450580596923828,-0.00000011920928955078125,-0.000000059604644775390625,110592.0,16384.0,-262144.0,-65536.0
Raw,1774276348000,92049853504,18,0.0,-1458311473950146560,0.0,12.65608024597168,62215.703125,0.0,0,19,0.0,239,63147931993947,18,30.700000762939453,2.9718618392944336,0.15140274167060852,20,-56.4887536597671,0.10705687863528728,1603687600,,,,0,26.0,3,3.9000000953674316,25.700000762939453,0.0,0.0,0.0,0.0,C,1053270585848666,,11450102.514303602,-9844743.015848704,20565397.702043828,-477.9031065288234,2775.461420350557,1589.2174372504046,11774.582370840702,0.0005453193043649662,0.000000016763806343078613,0.000000007450580596923828,-0.00000011920928955078125,-0.000000059604644775390625,110592.0,16384.0,-262144.0,-65536.0
Raw,1774276348000,92049853504,18,0.0,-1458311473950146560,0.0,12.65608024597168,62215.703125,0.0,0,36,0.0,815,138751918019919,23,27.100000381469727,516.71923828125,0.20474600791931152,20,-22569.16046717274,0.14477590219974518,1561098000,,,,0,23.200000762939453,5,3.9000000953674316,22.100000381469727,0.0,0.0,0.0,0.0,C,1053270585848666,,11758519.752470776,-20669513.203370284,14633521.243702969,1459.0687910346178,-824.6134893459548,-2338.3154382811094,88190.75558231378,-0.00071211505564861,0.000000016763806343078613,0.000000007450580596923828,-0.00000011920928955078125,-0.000000059604644775390625,110592.0,16384.0,-262144.0,-65536.0
Raw,1774276348000,92049853504,18,0.0,-1458311473950146560,0.0,12.65608024597168,62215.703125,0.0,0,16,0.0,239,63147925185258,24,26.5,1101.9971923828125,0.21633315086364746,20,-42836.453845282784,0.1529691709756851,1601437400,,,,0,23.600000381469727,3,3.9000000953674316,21.5,0.0,0.0,0.0,0.0,C,1053270585848666,,23568986.025458474,-9593562.465699805,-1429111.5238925053,-249.31488533722722,-77.94666659831091,-3571.9659239314974,14033.32550450787,0.0,0.000000016763806343078613,0.000000007450580596923828,-0.00000011920928955078125,-0.000000059604644775390625,110592.0,16384.0,-262144.0,-65536.0
Raw,1774276348000,92049853504,18,0.0,-1458311473950146560,0.0,12.65608024597168,62215.703125,0.0,0,21,0.0,7215,138765919144686,30,24.0,498.8856201171875,0.2770083248615265,20,-13887.95033959311,0.19587258650958536,1575420000,,,,0,21.899999618530273,6,3.9000000953674316,19.0,0.0,0.0,0.0,0.0,C,1053270585848666,,24074098.945610177,-8517273.581642153,14963142.509329021,1500.4454669252316,74.5902382858661,-2370.4181396468284,-218871.1909633121,-0.0008222733449656516,0.000000016763806343078613,0.000000007450580596923828,-0.00000011920928955078125,-0.000000059604644775390625,110592.0,16384.0,-262144.0,-65536.0
Raw,1774276348000,92049853504,18,0.0,-1458311473950146560,0.0,12.65608024597168,62215.703125,0.0,0,17,0.0,239,63147923233351,32,23.0,900.4256591796875,0.3086419701576233,20,-43983.758128985646,0.2182407370984554,1604250000,,,,0,20.299999237060547,3,3.9000000953674316,18.0,0.0,0.0,0.0,0.0,C,1053270585848666,,2797309.7220624103,22495316.604998488,11660152.127649564,-24.140932623996832,1606.6761627680485,-3098.029512888586,84154.46242765397,0.0008179789565474493,0.000000016763806343078613,0.000000007450580596923828,-0.00000011920928955078125,-0.000000059604644775390625,110592.0,16384.0,-262144.0,-65536.0
Raw,1774276348000,92049853504,18,0.0,-1458311473950146560,0.0,12.65608024597168,62215.703125,0.0,0,28,0.0,815,138751918860224,32,23.0,798.7775268554688,0.3086419701576233,20,-38218.130011324305,0.2182407370984554,1561098000,,,,0,21.700000762939453,5,3.9000000953674316,18.0,0.0,0.0,0.0,0.0,C,1053270585848666,,9895970.92426242,23399370.42787456,11551667.31228212,-51.95881761631979,1327.4986796770245,-2644.028763170662,149319.33831735008,0.0014212788082659245,0.000000016763806343078613,0.000000007450580596923828,-0.00000011920928955078125,-0.000000059604644775390625,110592.0,16384.0,-262144.0,-65536.0
Raw,1774276348000,92049853504,18,0.0,-1458311473950146560,0.0,12.65608024597168,62215.703125,0.0,0,4,0.0,239,63147923193328,35,22.200000762939453,-485.6572265625,0.33802053332328796,20,21969.365900343168,0.2390143191128969,1605375000,,,,0,20.5,3,3.9000000953674316,17.200000762939453,0.0,0.0,0.0,0.0,C,1053270585848666,,21216256.938609466,13051578.594377743,-5487291.534502467,732.279899027473,288.7796842683342,3494.359161347491,103385.99187131856,0.0005453193043649662,0.000000016763806343078613,0.000000007450580596923828,-0.00000011920928955078125,-0.000000059604644775390625,110592.0,16384.0,-262144.0,-65536.0
Raw,1774276348000,92049853504,18,0.0,-1458311473950146560,0.0,12.65608024597168,62215.703125,0.0,0,15,0.0,7215,138765915648964,47,19.299999237060547,721.8856811523438,0.4890214502811432,20,-19413.160416730447,0.34578706749379634,1575420000,,,,0,12.699999809265137,6,3.9000000953674316,14.300000190734863,0.0,0.0,0.0,0.0,C,1053270585848666,,5899029.497504008,17557520.30651183,23099578.05009333,-1274.0158638073076,1939.7054157839955,-1147.6948304328969,-73457.20504213263,-0.0008440371457254514,0.000000016763806343078613,0.000000007450580596923828,-0.00000011920928955078125,-0.000000059604644775390625,110592.0,16384.0,-262144.0,-65536.0
Raw,1774276348000,92049853504,18,0.0,-1458311473950146560,0.0,12.65608024597168,62215.703125,0.0,0,33,0.0,815,138751916610935,51,18.600000381469727,682.527099609375,0.5406574010848999,20,-17592.74779921898,0.3822988483071327,1561098000,,,,0,10.600000381469727,5,3.9000000953674316,13.600000381469727,0.0,0.0,0.0,0.0,C,1053270585848666,,-1824290.6054336205,15930120.834519818,22837915.67060734,-2342.6384524363352,-1143.0790937804486,613.0649449988516,-277604.49150137894,0.0009949633968062699,0.000000016763806343078613,0.000000007450580596923828,-0.00000011920928955078125,-0.000000059604644775390625,110592.0,16384.0,-262144.0,-65536.0
Raw,1774276349000,93049854664,18,0.0,-1458311473950145280,0.0,12.65608024597168,62215.5234375,0.0,0,8,0.0,47,138766932324162,14,35.29999923706055,144.427734375,0.10892178863286972,22,-7037.1423856684705,0.07701859674230217,1575420000,,,,0,32.0,1,3.9000000953674316,30.299999237060547,0.0,0.0,0.0,0.0,C,1053271555228781,,15961826.132667273,-4105622.8728917716,20717832.909429982,1616.412010138276,2129.1323930445164,-768.2063893511335,142031.14846683978,-0.0021677299519069493,0.000000016763806343078613,0.000000007450580596923828,-0.00000011920928955078125,-0.000000059604644775390625,110592.0,16384.0,-262144.0,-65536.0
Raw,1774276349000,93049854664,18,0.0,-1458311473950145280,0.0,12.65608024597168,62215.5234375,0.0,0,2,0.0,47,138766927652816,20,29.399999618530273,3.060424566268921,0.1679656058549881,20,20.754499471047893,0.11876847990006208,1575420000,,,,0,16.5,1,3.9000000953674316,24.399999618530273,0.0,0.0,0.0,0.0,C,1053271555228781,,16456145.470892316,-13304231.382760506,16080396.898439763,-454.2110997887669,1952.0666915366587,2187.500828197709,19117.244794667815,0.0024214835357270204,0.000000016763806343078613,0.000000007450580596923828,-0.00000011920928955078125,-0.000000059604644775390625,110592.0,16384.0,-262144.0,-65536.0
Raw,1774276349000,93049854664,18,0.0,-1458311473950145280,0.0,12.65608024597168,62215.5234375,0.0,0,32,0.0,47,138766919169816,22,27.700000762939453,-198.04788208007812,0.19406546652317047,20,10041.291145377443,0.13722369137853382,1575420000,,,,0,24.399999618530273,1,3.9000000953674316,22.700000762939453,0.0,0.0,0.0,0.0,C,1053271555228781,,16150643.327729177,21193770.72515443,-632653.6573843646,-130.30331802379325,236.34291024492254,3177.38057411398,-10347.145208945907,0.006004995417242753,0.000000016763806343078613,0.000000007450580596923828,-0.00000011920928955078125,-0.000000059604644775390625,110592.0,16384.0,-262144.0,-65536.0
Raw,1774276349000,93049854664,18,0.0,-1458311473950145280,0.0,12.65608024597168,62215.5234375,0.0,0,16,0.0,47,138766922383638,35,22.200000762939453,1033.3978271484375,0.33802053332328796,20,-29907.42716862238,0.2390143191128969,1575420000,,,,0,17.600000381469727,1,3.9000000953674316,17.200000762939453,0.0,0.0,0.0,0.0,C,1053271555228781,,26653750.71397909,1501528.966726782,-2707531.345779801,-288.5533795737707,252.5739862719556,-3117.94850842584,69337.01004912764,0.0031643184047425166,0.000000016763806343078613,0.000000007450580596923828,-0.00000011920928955078125,-0.000000059604644775390625,110592.0,16384.0,-262144.0,-65536.0
Raw,1774276349000,93049854664,18,0.0,-1458311473950145280,0.0,12.65608024597168,62215.5234375,0.0,0,27,0.0,47,138766932200704,38,21.200000762939453,569.4514770507812,0.38103944063186646,20,-22546.22378666082,0.2694329884707928,1575420000,,,,0,16.600000381469727,1,3.9000000953674316,16.200000762939453,0.0,0.0,0.0,0.0,C,1053271555228781,,19728464.371024404,7199055.84319595,16150303.995544035,1108.0648197291196,1798.5801756408978,-2065.0284507860692,-23542.255354357847,-0.004276279240002623,0.000000016763806343078613,0.000000007450580596923828,-0.00000011920928955078125,-0.000000059604644775390625,110592.0,16384.0,-262144.0,-65536.0
Raw,1774276349000,93049854664,18,0.0,-1458311473950145280,0.0,12.65608024597168,62215.5234375,0.0,0,23,0.0,47,138766923991330,41,20.399999618530273,876.488525390625,0.4216562807559967,20,-34976.820390385925,0.29815315612256527,1575420000,,,,0,9.899999618530273,1,3.9000000953674316,15.399999618530273,0.0,0.0,0.0,0.0,C,1053271555228781,,443314.826797192,14677978.26864334,22197655.40569483,-2775.352796085608,317.4756863799895,-180.874056286959,188126.22261789106,0.001569262647535652,0.000000016763806343078613,0.000000007450580596923828,-0.00000011920928955078125,-0.000000059604644775390625,110592.0,16384.0,-262144.0,-65536.0
Raw,1774276349000,93049854664,18,0.0,-1458311473950145280,0.0,12.65608024597168,62215.5234375,0.0,0,30,0.0,815,138752923958812,16,32.5,-30.02547836303711,0.13223139941692352,17,1544.311565961223,0.09350082252770661,1561098000,,,,0,25.5,5,3.9000000953674316,27.5,0.0,0.0,0.0,0.0,C,1053271555228781,,13631578.26787805,-12716902.824456567,20743040.848318804,328.12408937949243,2354.7012547221275,1228.933466950513,123676.49467479606,0.002313462449819781,0.000000016763806343078613,0.000000007450580596923828,-0.00000011920928955078125,-0.000000059604644775390625,110592.0,16384.0,-262144.0,-65536.0
Raw,1774276349000,93049854664,18,0.0,-1458311473950145280,0.0,12.65608024597168,62215.5234375,0.0,0,9,0.0,239,63148929698170,17,31.200000762939453,517.0996704101562,0.14567914605140686,20,-22003.175694994396,0.10300972417294979,1600875000,,,,0,25.200000762939453,3,3.9000000953674316,26.200000762939453,0.0,0.0,0.0,0.0,C,1053271555228781,,13581792.042997262,-15081342.246240865,15413610.040329158,1865.0790426086078,-986.1592317910101,-2619.981145680998,94598.3419699826,0.0005453193043649662,0.000000016763806343078613,0.000000007450580596923828,-0.00000011920928955078125,-0.000000059604644775390625,110592.0,16384.0,-262144.0,-65536.0
Raw,1774276349000,93049854664,18,0.0,-1458311473950145280,0.0,12.65608024597168,62215.5234375,0.0,0,19,0.0,239,63148931995075,18,30.700000762939453,2.771486759185791,0.15140274167060852,20,-65.49550922750495,0.10705687863528728,1603687600,,,,0,24.799999237060547,3,3.9000000953674316,25.700000762939453,0.0,0.0,0.0,0.0,C,1053271555228781,,11449624.706129443,-9841967.42454123,20566986.674481306,-477.71215199818585,2775.714949187771,1588.723864393301,11774.582916160623,0.0005453193043649662,0.000000016763806343078613,0.000000007450580596923828,-0.00000011920928955078125,-0.000000059604644775390625,110592.0,16384.0,-262144.0,-65536.0
Raw,1774276349000,93049854664,18,0.0,-1458311473950145280,0.0,12.65608024597168,62215.5234375,0.0,0,16,0.0,239,63148925182810,24,26.5,1101.7940673828125,0.21633315086364746,20,-43917.29407481605,0.1529691709756851,1601437400,,,,0,23.5,3,3.9000000953674316,21.5,0.0,0.0,0.0,0.0,C,1053271555228781,,23568736.484410353,-9593640.303995715,-1432683.4638320063,-249.76841809611915,-77.73028243625026,-3571.931460723759,14033.32550450787,0.0,0.000000016763806343078613,0.000000007450580596923828,-0.00000011920928955078125,-0.000000059604644775390625,110592.0,16384.0,-262144.0,-65536.0
Raw,1774276349000,93049854664,18,0.0,-1458311473950145280,0.0,12.65608024597168,62215.5234375,0.0,0,36,0.0,815,138752918019366,23,27.100000381469727,517.403564453125,0.20474600791931152,20,-23085.23755998013,0.14477590219974518,1561098000,,,,0,16.799999237060547,5,3.9000000953674316,22.100000381469727,0.0,0.0,0.0,0.0,C,1053271555228781,,11759978.683935827,-20670337.788515933,14631182.795571258,1458.7957508545794,-824.557705475472,-2338.5834043264063,88190.75487019801,-0.0007121172820916399,0.000000016763806343078613,0.000000007450580596923828,-0.00000011920928955078125,-0.000000059604644775390625,110592.0,16384.0,-262144.0,-65536.0
Raw,1774276349000,93049854664,18,0.0,-1458311473950145280,0.0,12.65608024597168,62215.5234375,0.0,0,21,0.0,7215,138766919144175,28,24.5,499.005615234375,0.26298487186431885,20,-14385.793631415581,0.18595660289525984,1575420000,,,,0,21.0,6,3.9000000953674316,19.5,0.0,0.0,0.0,0.0,C,1053271555228781,,24075599.274702102,-8517199.058024848,14960771.977372196,1500.2142445245522,74.45707801812446,-2370.6481906010695,-218871.19178558417,-0.0008222715696319938,0.000000016763806343078613,0.000000007450580596923828,-0.00000011920928955078125,-0.000000059604644775390625,110592.0,16384.0,-262144.0,-65536.0
Raw,1774276349000,93049854664,18,0.0,-1458311473950145280,0.0,12.65608024597168,62215.5234375,0.0,0,28,0.0,815,138752918858725,33,22.899999618530273,798.546875,0.3121001422405243,20,-39015.580195028335,0.22068601057827472,1561098000,,,,0,19.200000762939453,5,3.9000000953674316,17.899999618530273,0.0,0.0,0.0,0.0,C,1053271555228781,,9895918.997901332,23400697.77602932,11549023.181564381,-51.89406732631908,1327.2016047829,-2644.240591362694,149319.33973862694,0.0014212791284080595,0.000000016763806343078613,0.000000007450580596923828,-0.00000011920928955078125,-0.000000059604644775390625,110592.0,16384.0,-262144.0,-65536.0
Raw,1774276349000,93049854664,18,0.0,-1458311473950145280,0.0,12.65608024597168,62215.5234375,0.0,0,17,0.0,239,63148923231360,32,23.0,899.3609008789062,0.3086419701576233,20,-44927.95461775304,0.2182407370984554,1604250000,,,,0,17.5,3,3.9000000953674316,18.0,0.0,0.0,0.0,0.0,C,1053271555228781,,2797285.6721185627,22496923.068865202,11657053.964014918,-23.959075039088702,1606.2579783997971,-3098.3101058482303,84154.4632456313,0.0008179789565474493,0.000000016763806343078613,0.000000007450580596923828,-0.00000011920928955078125,-0.000000059604644775390625,110592.0,16384.0,-262144.0,-65536.0
Raw,1774276349000,93049854664,18,0.0,-1458311473950145280,0.0,12.65608024597168,62215.5234375,0.0,0,4,0.0,239,63148923196178,34,22.399999618530273,-485.7755126953125,0.3302946388721466,20,22476.60475615249,0.23355133914649484,1605375000,,,,0,19.100000381469727,3,3.9000000953674316,17.399999618530273,0.0,0.0,0.0,0.0,C,1053271555228781,,21216989.04321736,13051867.199419199,-5483797.099486325,731.9251351181772,288.42878004581166,3494.4909682864372,103385.99241663942,0.0005453193043649662,0.000000016763806343078613,0.000000007450580596923828,-0.00000011920928955078125,-0.000000059604644775390625,110592.0,16384.0,-262144.0,-65536.0
Raw,1774276349000,93049854664,18,0.0,-1458311473950145280,0.0,12.65608024597168,62215.5234375,0.0,0,3,0.0,239,63148930301532,21,28.100000381469727,-55.96831130981445,0.18740276992321014,20,821.6729848939867,0.1325124986127019,1604812500,,,,0,20.600000381469727,3,3.9000000953674316,23.100000381469727,0.0,0.0,0.0,0.0,C,1053271555228781,,14761660.224451417,17482299.267355863,11387410.17342472,-1136.749964491058,-1067.7393253141347,3122.4931544875744,42311.89875520313,0.0002726596521824831,0.000000016763806343078613,0.000000007450580596923828,-0.00000011920928955078125,-0.000000059604644775390625,110592.0,16384.0,-262144.0,-65536.0
Raw,1774276349000,93049854664,18,0.0,-1458311473950145280,0.0,12.65608024597168,62215.5234375,0.0,0,15,0.0,7215,138766915647726,47,19.200000762939453,722.950927734375,0.4959333539009094,20,-20134.533923134557,0.350674474543333,1575420000,,,,0,13.899999618530273,6,3.9000000953674316,14.199999809265137,0.0,0.0,0.0,0.0,C,1053271555228781,,5897755.595063527,17559460.014310367,23098430.179322485,-1273.7921689801829,1939.714975345024,-1148.0495504328396,-73457.20588616733,-0.0008440343226538971,0.000000016763806343078613,0.000000007450580596923828,-0.00000011920928955078125,-0.000000059604644775390625,110592.0,16384.0,-262144.0,-65536.0
Raw,1774276349000,93049854664,18,0.0,-1458311473950145280,0.0,12.65608024597168,62215.5234375,0.0,0,33,0.0,815,138752916609836,51,18.5,680.802734375,0.5486968159675598,20,-18273.126394500025,0.38798351857066155,1561098000,,,,0,11.699999809265137,5,3.9000000953674316,13.5,0.0,0.0,0.0,0.0,C,1053271555228781,,-1826633.3127770275,15928977.823782884,22838528.52540611,-2342.7813752562834,-1142.9448864570636,612.6459977457562,-277604.49050641264,0.000994971429463476,0.000000016763806343078613,0.000000007450580596923828,-0.00000011920928955078125,-0.000000059604644775390625,110592.0,16384.0,-262144.0,-65536.0
Raw,1774276350000,94049855764,18,0.0,-1458311473950144256,0.0,12.65608024597168,62215.16015625,0.0,0,8,0.0,47,138767932324770,14,35.5,144.2978973388672,0.10749798268079758,17,-7180.313614877639,0.07601182355359196,1575420000,,,,0,29.100000381469727,1,3.9000000953674316,30.5,0.0,0.0,0.0,0.0,C,1053272555390049,,15963442.571934124,-4103493.823905658,20717064.480040755,1616.4645497725628,2128.9629831716443,-768.6514515722417,142031.14629919047,-0.002167566039133817,0.000000016763806343078613,0.000000007450580596923828,-0.00000011920928955078125,-0.000000059604644775390625,110592.0,16384.0,-262144.0,-65536.0
Raw,1774276350000,94049855764,18,0.0,-1458311473950144256,0.0,12.65608024597168,62215.16015625,0.0,0,32,0.0,47,138767919171587,22,27.600000381469727,-199.74842834472656,0.19578666985034943,20,10241.507762701483,0.13844075425118207,1575420000,,,,0,18.399999618530273,1,3.9000000953674316,22.600000381469727,0.0,0.0,0.0,0.0,C,1053272555390049,,16150512.914343419,21194006.911246095,-629476.2645320352,-130.5229986368094,236.02844150439412,3177.3938652030297,-10347.139203877046,0.006005121029375005,0.000000016763806343078613,0.000000007450580596923828,-0.00000011920928955078125,-0.000000059604644775390625,110592.0,16384.0,-262144.0,-65536.0
Raw,1774276350000,94049855764,18,0.0,-1458311473950144256,0.0,12.65608024597168,62215.16015625,0.0,0,10,0.0,47,138767929293271,25,25.899999618530273,475.2823181152344,0.2289324849843979,16,0.0,0.16187816013246772,1575420000,,,,0,0.0,1,3.9000000953674316,20.899999618530273,0.0,0.0,0.0,0.0,C,1053272555390049,,14741379.92902651,11343262.396711577,19359241.563104883,-2366.3393761615607,277.9530632752656,1630.1671869423685,-176987.55967048072,0.001104361901525408,0.000000016763806343078613,0.000000007450580596923828,-0.00000011920928955078125,-0.000000059604644775390625,110592.0,16384.0,-262144.0,-65536.0
Raw,1774276350000,94049855764,18,0.0,-1458311473950144256,0.0,12.65608024597168,62215.16015625,0.0,0,2,0.0,47,138767927653860,20,28.899999618530273,1.9006422758102417,0.1750669777393341,20,19.689110307837836,0.12378985995948313,1575420000,,,,0,18.700000762939453,1,3.9000000953674316,23.899999618530273,0.0,0.0,0.0,0.0,C,1053272555390049,,16455691.270750444,-13302279.175064962,16082584.230822146,-454.18822719676757,1952.3446173005946,2187.1593621392058,19117.24721627663,0.002421729044726817,0.000000016763806343078613,0.000000007450580596923828,-0.00000011920928955078125,-0.000000059604644775390625,110592.0,16384.0,-262144.0,-65536.0
Raw,1774276350000,94049855764,18,0.0,-1458311473950144256,0.0,12.65608024597168,62215.16015625,0.0,0,16,0.0,47,138767922381242,35,22.0,1034.593994140625,0.34602075815200806,20,-30940.503577563097,0.24467127808928488,1575420000,,,,0,15.699999809265137,1,3.9000000953674316,17.0,0.0,0.0,0.0,0.0,C,1053272555390049,,26653461.975600034,1501781.5496594436,-2710649.2588674175,-288.9247605621231,252.59309780255015,-3117.892597259984,69337.01321351623,0.003164473921060562,0.000000016763806343078613,0.000000007450580596923828,-0.00000011920928955078125,-0.000000059604644775390625,110592.0,16384.0,-262144.0,-65536.0
Raw,1774276350000,94049855764,18,0.0,-1458311473950144256,0.0,12.65608024597168,62215.16015625,0.0,0,27,0.0,47,138767932199910,39,21.100000381469727,570.310546875,0.3857875466346741,20,-23114.968357824488,0.272790374225378,1575420000,,,,0,13.699999809265137,1,3.9000000953674316,16.100000381469727,0.0,0.0,0.0,0.0,C,1053272555390049,,19729572.407128397,7200854.28312518,16148238.795620408,1108.0091384991736,1798.3025353786443,-2065.3746682239835,-23542.259630529592,-0.004276071042113472,0.000000016763806343078613,0.000000007450580596923828,-0.00000011920928955078125,-0.000000059604644775390625,110592.0,16384.0,-262144.0,-65536.0
Raw,1774276350000,94049855764,18,0.0,-1458311473950144256,0.0,12.65608024597168,62215.16015625,0.0,0,23,0.0,47,138767923989529,42,20.200000762939453,877.4030151367188,0.43282550573349,20,-35852.717416842235,0.3060509151041508,1575420000,,,,0,16.899999618530273,1,3.9000000953674316,15.199999809265137,0.0,0.0,0.0,0.0,C,1053272555390049,,440539.49865655834,14678295.830038933,22197474.297326513,-2775.3134704808103,317.64824674772785,-181.3433322599102,188126.22418710956,0.0015691799053456634,0.000000016763806343078613,0.000000007450580596923828,-0.00000011920928955078125,-0.000000059604644775390625,110592.0,16384.0,-262144.0,-65536.0
Raw,1774276350000,94049855764,18,0.0,-1458311473950144256,0.0,12.65608024597168,62215.16015625,0.0,0,28,0.0,815,138753918857195,26,25.5,797.9701538085938,0.23795360326766968,20,-39812.63430155383,0.16825699287056922,1561098000,,,,0,26.299999237060547,5,3.9000000953674316,20.5,0.0,0.0,0.0,0.0,C,1053272555390049,,9895867.136270728,23402024.82705512,11546378.839124998,-51.82935969357226,1326.9045031731525,-2644.4523710561502,149319.3411599041,0.0014212795067578554,0.000000016763806343078613,0.000000007450580596923828,-0.00000011920928955078125,-0.000000059604644775390625,110592.0,16384.0,-262144.0,-65536.0
Raw,1774276350000,94049855764,18,0.0,-1458311473950144256,0.0,12.65608024597168,62215.16015625,0.0,0,30,0.0,815,138753923960046,16,32.5,-29.90336036682129,0.13223139941692352,17,1575.3786921092542,0.09350082252770661,1561098000,,,,0,24.299999237060547,5,3.9000000953674316,27.5,0.0,0.0,0.0,0.0,C,1053272555390049,,13631906.475106714,-12714548.061223634,20744269.592717968,328.28956011048,2354.819390476575,1228.5522951026492,123676.49698826273,0.002313465185579844,0.000000016763806343078613,0.000000007450580596923828,-0.00000011920928955078125,-0.000000059604644775390625,110592.0,16384.0,-262144.0,-65536.0
Raw,1774276350000,94049855764,18,0.0,-1458311473950144256,0.0,12.65608024597168,62215.16015625,0.0,0,19,0.0,239,63149931996149,18,30.700000762939453,3.479759454727173,0.15140274167060852,20,-72.07161176681984,0.10705687863528728,1603687600,,,,0,29.399999618530273,3,3.9000000953674316,25.700000762939453,0.0,0.0,0.0,0.0,C,1053272555390049,,11449147.088958645,-9839191.579894397,20568575.153240412,-477.52115171495586,2775.9683984276353,1588.2302532031827,11774.583461480514,0.0005453193043649662,0.000000016763806343078613,0.000000007450580596923828,-0.00000011920928955078125,-0.000000059604644775390625,110592.0,16384.0,-262144.0,-65536.0
Raw,1774276350000,94049855764,18,0.0,-1458311473950144256,0.0,12.65608024597168,62215.16015625,0.0,0,9,0.0,239,63149929697534,18,31.100000381469727,518.031005859375,0.14679761230945587,20,-22522.275230030646,0.10380059166401624,1600875000,,,,0,20.200000762939453,3,3.9000000953674316,26.100000381469727,0.0,0.0,0.0,0.0,C,1053272555390049,,13583656.921515126,-15082328.39935858,15410989.875259021,1864.6803883359898,-986.1482481680871,-2620.3523370869584,94598.34251530156,0.0005453193043649662,0.000000016763806343078613,0.000000007450580596923828,-0.00000011920928955078125,-0.000000059604644775390625,110592.0,16384.0,-262144.0,-65536.0
Raw,1774276350000,94049855764,18,0.0,-1458311473950144256,0.0,12.65608024597168,62215.16015625,0.0,0,3,0.0,239,63149930302816,23,27.299999237060547,-55.672245025634766,0.20108991861343384,20,878.0535067359451,0.14219068145155905,1604812500,,,,0,29.899999618530273,3,3.9000000953674316,22.299999237060547,0.0,0.0,0.0,0.0,C,1053272555390049,,14760523.258200727,17481231.44734331,11390532.534592696,-1137.1796355606368,-1067.8979404766817,3122.221180013881,42311.89902786313,0.0002726596521824831,0.000000016763806343078613,0.000000007450580596923828,-0.00000011920928955078125,-0.000000059604644775390625,110592.0,16384.0,-262144.0,-65536.0
Raw,1774276350000,94049855764,18,0.0,-1458311473950144256,0.0,12.65608024597168,62215.16015625,0.0,0,36,0.0,815,138753918018764,23,27.0,516.7640991210938,0.20661157369613647,20,-23601.029727888992,0.14609504376053808,1561098000,,,,0,21.5,5,3.9000000953674316,22.0,0.0,0.0,0.0,0.0,C,1053272555390049,,11761437.342284013,-20671162.317812018,14628844.07960964,1458.522699851988,-824.5018710344879,-2338.8513275586233,88190.75415808008,-0.0007121194939827546,0.000000016763806343078613,0.000000007450580596923828,-0.00000011920928955078125,-0.000000059604644775390625,110592.0,16384.0,-262144.0,-65536.0
Raw,1774276350000,94049855764,18,0.0,-1458311473950144256,0.0,12.65608024597168,62215.16015625,0.0,0,16,0.0,239,63149925180179,24,26.399999618530273,1101.4068603515625,0.21835967898368835,20,-45034.478740163846,0.15440212900936603,1601437400,,,,0,19.200000762939453,3,3.9000000953674316,21.399999618530273,0.0,0.0,0.0,0.0,C,1053272555390049,,23568486.489894476,-9593717.925859956,-1436255.3686116876,-250.22191458033365,-77.51383069094436,-3571.896911493666,14033.32550450787,0.0,0.000000016763806343078613,0.000000007450580596923828,-0.00000011920928955078125,-0.000000059604644775390625,110592.0,16384.0,-262144.0,-65536.0
Raw,1774276350000,94049855764,18,0.0,-1458311473950144256,0.0,12.65608024597168,62215.16015625,0.0,0,21,0.0,7215,138767919143612,28,24.799999237060547,499.18389892578125,0.25507602095603943,20,-14883.787718518754,0.18036425441801546,1575420000,,,,0,18.799999237060547,6,3.9000000953674316,19.799999237060547,0.0,0.0,0.0,0.0,C,1053272555390049,,24077099.37247652,-8517124.667555079,14958401.215506049,1499.9829876431231,74.32395072860726,-2370.8782050852774,-218871.19260785443,-0.0008222698816098273,0.000000016763806343078613,0.000000007450580596923828,-0.00000011920928955078125,-0.000000059604644775390625,110592.0,16384.0,-262144.0,-65536.0
Raw,1774276350000,94049855764,18,0.0,-1458311473950144256,0.0,12.65608024597168,62215.16015625,0.0,0,17,0.0,239,63149923229338,33,22.899999618530273,899.4932861328125,0.3121001422405243,20,-45862.4232951391,0.22068601057827472,1604250000,,,,0,15.300000190734863,3,3.9000000953674316,17.899999618530273,0.0,0.0,0.0,0.0,C,1053272555390049,,2797261.8040023795,22498529.114470173,11653955.519921232,-23.77727802253321,1605.8397372655031,-3098.5906243093136,84154.46406360861,0.0008179789565474493,0.000000016763806343078613,0.000000007450580596923828,-0.00000011920928955078125,-0.000000059604644775390625,110592.0,16384.0,-262144.0,-65536.0
