# 
# Header Description:
# 
# Version: v2.0.0.1 Platform: 10 Manufacturer: Xiaomi Model: Redmi Note 7
# 
# Raw,ElapsedRealtimeMillis,TimeNanos,LeapSecond,TimeUncertaintyNanos,FullBiasNanos,BiasNanos,BiasUncertaintyNanos,DriftNanosPerSecond,DriftUncertaintyNanosPerSecond,HardwareClockDiscontinuityCount,Svid,TimeOffsetNanos,State,ReceivedSvTimeNanos,ReceivedSvTimeUncertaintyNanos,Cn0DbHz,PseudorangeRateMetersPerSecond,PseudorangeRateUncertaintyMetersPerSecond,AccumulatedDeltaRangeState,AccumulatedDeltaRangeMeters,AccumulatedDeltaRangeUncertaintyMeters,CarrierFrequencyHz,CarrierCycles,CarrierPhase,CarrierPhaseUncertainty,MultipathIndicator,SnrInDb,ConstellationType,AgcDb,CarrierFrequencyHz
# 
# Fix,Provider,Latitude,Longitude,Altitude,Speed,Accuracy,(UTC)TimeInMs
# 
# Nav,Svid,Type,Status,MessageId,Sub-messageId,Data(Bytes)
# 
Fix,gps,45.066093,7.657052,306.065002,0.000000,11.792000,1774276345000
Raw,329034672,329101999000000,,,-1457982460431824571,0.9849271774291992,99.07135972753167,-0.26053039448097604,17.748176006474317,1461,9,0.0,207,63144360520745,61,18.3,179.60862731933594,1.2764999866485596,0,0.0,0.0,1.60087501E9,,,,0,,3,-0.02,1.60087501E9
Raw,329034673,329101999000000,,,-1457982460431824571,0.9849271774291992,99.07135972753167,-0.26053039448097604,17.748176006474317,1461,16,0.0,207,63144356014189,40,21.2,765.4974975585938,1.0705000162124634,0,0.0,0.0,1.60143744E9,,,,0,,3,-0.02,1.60143744E9
Raw,329034673,329101999000000,,,-1457982460431824571,0.9849271774291992,99.07135972753167,-0.26053039448097604,17.748176006474317,1461,19,0.0,207,63144362809676,31,23.3,-332.3876953125,0.9294999837875366,0,0.0,0.0,1.60368755E9,,,,0,,3,-0.02,1.60368755E9
Raw,329034674,329101999000000,,,-1457982460431824571,0.9849271774291992,99.07135972753167,-0.26053039448097604,17.748176006474317,1461,3,0.0,207,63144361115179,35,22.9,-392.3257141113281,0.9879999756813049,0,0.0,0.0,1.60481254E9,,,,0,,3,-0.02,1.60481254E9
Raw,329034674,329101999000000,,,-1457982460431824571,0.9849271774291992,99.07135972753167,-0.26053039448097604,17.748176006474317,1461,2,0.0,15,138762358472325,21,26.5,-334.00958251953125,0.13819999992847443,0,0.0,0.0,1.57542003E9,,,,0,,1,1.94,1.57542003E9
Raw,329034675,329101999000000,,,-1457982460431824571,0.9849271774291992,99.07135972753167,-0.26053039448097604,17.748176006474317,1461,8,0.0,15,138762363145750,27,24.6,-192.37738037109375,0.6210000514984131,0,0.0,0.0,1.57542003E9,,,,0,,1,1.94,1.57542003E9
Raw,329034675,329101999000000,,,-1457982460431824571,0.9849271774291992,99.07135972753167,-0.26053039448097604,17.748176006474317,1461,16,0.0,15,138762353218725,80,16.9,697.473876953125,1.1859999895095825,0,0.0,0.0,1.57542003E9,,,,0,,1,1.94,1.57542003E9
Raw,329034675,329101999000000,,,-1457982460431824571,0.9849271774291992,99.07135972753167,-0.26053039448097604,17.748176006474317,1461,23,0.0,15,138762354823828,346,11.4,540.5957641601562,10.137500762939453,0,0.0,0.0,1.57542003E9,,,,0,,1,1.94,1.57542003E9
Raw,329034676,329101999000000,,,-1457982460431824571,0.9849271774291992,99.07135972753167,-0.26053039448097604,17.748176006474317,1461,32,0.0,15,138762349986207,17,28.2,-534.6880493164062,0.046800002455711365,0,0.0,0.0,1.57542003E9,,,,0,,1,1.94,1.57542003E9
Raw,329034676,329101999000000,,,-1457982460431824571,0.9849271774291992,99.07135972753167,-0.26053039448097604,17.748176006474317,1461,28,0.0,15,138748349692896,96,15.8,461.73016357421875,1.840000033378601,0,0.0,0.0,1.56109798E9,,,,0,,5,1.63,1.56109798E9
Raw,329034677,329101999000000,,,-1457982460431824571,0.9849271774291992,99.07135972753167,-0.26053039448097604,17.748176006474317,1461,13,0.0,7183,138762352890692,180,13.3,-28.762889862060547,5.780500411987305,0,0.0,0.0,1.57542003E9,,,,0,,6,2.03,1.57542003E9
Raw,329034677,329101999000000,,,-1457982460431824571,0.9849271774291992,99.07135972753167,-0.26053039448097604,17.748176006474317,1461,23,0.0,7183,138762344024643,238,12.5,-360.8634033203125,7.380500316619873,0,0.0,0.0,1.57542003E9,,,,0,,6,2.03,1.57542003E9
Fix,gps,45.066089,7.657048,305.788574,0.000000,10.720000,1774276346000
Raw,329035681,329102999000000,,,-1457982460431824573,0.7795553207397461,98.01228588912636,-0.10080743763358326,18.867244583566315,1461,16,0.0,207,63145356011409,61,18.9,765.2260131835938,1.3005000352859497,0,0.0,0.0,1.60143744E9,,,,0,,3,-0.21,1.60143744E9
Raw,329035682,329102999000000,,,-1457982460431824573,0.7795553207397461,98.01228588912636,-0.10080743763358326,18.867244583566315,1461,19,0.0,207,63145362810792,19,27.2,-333.19207763671875,0.2443000078201294,0,0.0,0.0,1.60368755E9,,,,0,,3,-0.21,1.60368755E9
Raw,329035682,329102999000000,,,-1457982460431824573,0.7795553207397461,98.01228588912636,-0.10080743763358326,18.867244583566315,1461,3,0.0,207,63145361116492,46,20.9,-392.0548095703125,1.1180000305175781,0,0.0,0.0,1.60481254E9,,,,0,,3,-0.21,1.60481254E9
Raw,329035683,329102999000000,,,-1457982460431824573,0.7795553207397461,98.01228588912636,-0.10080743763358326,18.867244583566315,1461,4,0.0,207,63145354005830,97,15.7,-822.5,2.327500104904175,0,0.0,0.0,1.60537498E9,,,,0,,3,-0.21,1.60537498E9
Raw,329035683,329102999000000,,,-1457982460431824573,0.7795553207397461,98.01228588912636,-0.10080743763358326,18.867244583566315,1461,2,0.0,15,138763358473428,24,25.3,-334.4012145996094,0.40880000591278076,0,0.0,0.0,1.57542003E9,,,,0,,1,1.76,1.57542003E9
Raw,329035684,329102999000000,,,-1457982460431824573,0.7795553207397461,98.01228588912636,-0.10080743763358326,18.867244583566315,1461,8,0.0,15,138763363146368,31,23.1,-192.7484588623047,0.7310000061988831,0,0.0,0.0,1.57542003E9,,,,0,,1,1.76,1.57542003E9
Raw,329035684,329102999000000,,,-1457982460431824573,0.7795553207397461,98.01228588912636,-0.10080743763358326,18.867244583566315,1461,10,0.0,15,138763360119741,140,13.8,138.56234741210938,3.7265000343322754,0,0.0,0.0,1.57542003E9,,,,0,,1,1.76,1.57542003E9
Raw,329035684,329102999000000,,,-1457982460431824573,0.7795553207397461,98.01228588912636,-0.10080743763358326,18.867244583566315,1461,16,0.0,15,138763353216407,81,16.4,697.0742797851562,1.2760000228881836,0,0.0,0.0,1.57542003E9,,,,0,,1,1.76,1.57542003E9
Raw,329035685,329102999000000,,,-1457982460431824573,0.7795553207397461,98.01228588912636,-0.10080743763358326,18.867244583566315,1461,32,0.0,15,138763349988002,24,25.7,-534.9067993164062,0.3953000009059906,0,0.0,0.0,1.57542003E9,,,,0,,1,1.76,1.57542003E9
Raw,329035685,329102999000000,,,-1457982460431824573,0.7795553207397461,98.01228588912636,-0.10080743763358326,18.867244583566315,1461,13,0.0,7183,138763352890723,61,18.3,-27.154905319213867,0.8704999685287476,0,0.0,0.0,1.57542003E9,,,,0,,6,1.84,1.57542003E9
Raw,329035685,329102999000000,,,-1457982460431824573,0.7795553207397461,98.01228588912636,-0.10080743763358326,18.867244583566315,1461,21,0.0,7183,138763349972453,73,17.1,162.28244018554688,1.6920000314712524,0,0.0,0.0,1.57542003E9,,,,0,,6,1.84,1.57542003E9
Fix,gps,45.066085,7.657042,306.106567,0.000000,10.720000,1774276347000
Raw,329036657,329103999000000,,,-1457982460431824578,0.8919744491577148,87.63645746512339,-1.5807130945882366,13.288057786444103,1461,9,0.0,207,63146360519408,73,17.9,179.54307556152344,2.11650013923645,0,0.0,0.0,1.60087501E9,,,,0,,3,-0.71,1.60087501E9
Raw,329036658,329103999000000,,,-1457982460431824578,0.8919744491577148,87.63645746512339,-1.5807130945882366,13.288057786444103,1461,19,0.0,207,63146362811845,19,27.3,-333.5143127441406,0.2443000078201294,0,0.0,0.0,1.60368755E9,,,,0,,3,-0.71,1.60368755E9
Raw,329036658,329103999000000,,,-1457982460431824578,0.8919744491577148,87.63645746512339,-1.5807130945882366,13.288057786444103,1461,3,0.0,207,63146361117732,46,20.1,-392.4564514160156,1.1180000305175781,0,0.0,0.0,1.60481254E9,,,,0,,3,-0.71,1.60481254E9
Raw,329036659,329103999000000,,,-1457982460431824578,0.8919744491577148,87.63645746512339,-1.5807130945882366,13.288057786444103,1461,4,0.0,207,63146354008582,81,16.6,-823.0789184570312,1.477500081062317,0,0.0,0.0,1.60537498E9,,,,0,,3,-0.71,1.60537498E9
Raw,329036659,329103999000000,,,-1457982460431824578,0.8919744491577148,87.63645746512339,-1.5807130945882366,13.288057786444103,1461,2,0.0,15,138764358474574,31,23.2,-334.7075500488281,0.7534999847412109,0,0.0,0.0,1.57542003E9,,,,0,,1,1.31,1.57542003E9
Raw,329036660,329103999000000,,,-1457982460431824578,0.8919744491577148,87.63645746512339,-1.5807130945882366,13.288057786444103,1461,8,0.0,15,138764363147019,21,26.0,-192.70285034179688,0.11569999903440475,0,0.0,0.0,1.57542003E9,,,,0,,1,1.31,1.57542003E9
Raw,329036661,329103999000000,,,-1457982460431824578,0.8919744491577148,87.63645746512339,-1.5807130945882366,13.288057786444103,1461,10,0.0,15,138764360119386,70,17.5,138.29592895507812,1.0764999389648438,0,0.0,0.0,1.57542003E9,,,,0,,1,1.31,1.57542003E9
Raw,329036661,329103999000000,,,-1457982460431824578,0.8919744491577148,87.63645746512339,-1.5807130945882366,13.288057786444103,1461,32,0.0,15,138764349989655,40,21.5,-535.0772705078125,0.800000011920929,0,0.0,0.0,1.57542003E9,,,,0,,1,1.31,1.57542003E9
Raw,329036662,329103999000000,,,-1457982460431824578,0.8919744491577148,87.63645746512339,-1.5807130945882366,13.288057786444103,1461,28,0.0,15,138750349689818,73,17.3,461.7685546875,1.6800000667572021,0,0.0,0.0,1.56109798E9,,,,0,,5,1.06,1.56109798E9
Raw,329036662,329103999000000,,,-1457982460431824578,0.8919744491577148,87.63645746512339,-1.5807130945882366,13.288057786444103,1461,21,0.0,7183,138764349971841,35,22.7,162.06361389160156,0.6420000195503235,0,0.0,0.0,1.57542003E9,,,,0,,6,1.66,1.57542003E9
Raw,329036662,329103999000000,,,-1457982460431824578,0.8919744491577148,87.63645746512339,-1.5807130945882366,13.288057786444103,1461,23,0.0,7183,138764344027152,73,17.5,-360.1878662109375,1.690500020980835,0,0.0,0.0,1.57542003E9,,,,0,,6,1.66,1.57542003E9
Fix,gps,45.066083,7.657035,305.611084,0.340000,10.720000,1774276348000
Raw,329037648,329104999000000,,,-1457982460431824576,0.08406734466552734,87.00337639311329,-2.5685810526317456,13.322380427865808,1461,9,0.0,207,63147360518855,24,25.1,180.97442626953125,0.5817999839782715,0,0.0,0.0,1.60087501E9,,,,0,,3,-0.24,1.60087501E9
Raw,329037649,329104999000000,,,-1457982460431824576,0.08406734466552734,87.00337639311329,-2.5685810526317456,13.322380427865808,1461,19,0.0,207,63147362813036,16,29.2,-333.0635681152344,0.2296999990940094,0,0.0,0.0,1.60368755E9,,,,0,,3,-0.24,1.60368755E9
Raw,329037649,329104999000000,,,-1457982460431824576,0.08406734466552734,87.00337639311329,-2.5685810526317456,13.322380427865808,1461,3,0.0,207,63147361119098,46,20.7,-391.8586730957031,1.1180000305175781,0,0.0,0.0,1.60481254E9,,,,0,,3,-0.24,1.60481254E9
Raw,329037650,329104999000000,,,-1457982460431824576,0.08406734466552734,87.00337639311329,-2.5685810526317456,13.322380427865808,1461,2,0.0,15,138765358475621,35,22.4,-334.7170715332031,0.8134999871253967,0,0.0,0.0,1.57542003E9,,,,0,,1,1.97,1.57542003E9
Raw,329037652,329104999000000,,,-1457982460431824576,0.08406734466552734,87.00337639311329,-2.5685810526317456,13.322380427865808,1461,8,0.0,15,138765363147624,31,23.4,-191.92068481445312,0.7310000061988831,0,0.0,0.0,1.57542003E9,,,,0,,1,1.97,1.57542003E9
Raw,329037654,329104999000000,,,-1457982460431824576,0.08406734466552734,87.00337639311329,-2.5685810526317456,13.322380427865808,1461,32,0.0,15,138765349991579,35,22.5,-534.0592041015625,0.7400000095367432,0,0.0,0.0,1.57542003E9,,,,0,,1,1.97,1.57542003E9
Raw,329037654,329104999000000,,,-1457982460431824576,0.08406734466552734,87.00337639311329,-2.5685810526317456,13.322380427865808,1461,21,0.0,7183,138765349971337,70,17.3,162.02554321289062,0.9419999718666077,0,0.0,0.0,1.57542003E9,,,,0,,6,2.03,1.57542003E9
Fix,gps,45.066081,7.657039,305.670410,0.480000,11.792000,1774276349000
Raw,329038664,329105999000000,,,-1457982460431824577,0.9648580551147461,82.35787390731275,-0.6573033760414771,13.314894468745772,1461,9,0.0,207,63148360518024,61,18.6,181.97755432128906,1.2764999866485596,0,0.0,0.0,1.60087501E9,,,,0,,3,-0.23,1.60087501E9
Raw,329038665,329105999000000,,,-1457982460431824577,0.9648580551147461,82.35787390731275,-0.6573033760414771,13.314894468745772,1461,19,0.0,207,63148362814075,17,28.4,-332.7705078125,0.2363000065088272,0,0.0,0.0,1.60368755E9,,,,0,,3,-0.23,1.60368755E9
Raw,329038665,329105999000000,,,-1457982460431824577,0.9648580551147461,82.35787390731275,-0.6573033760414771,13.314894468745772,1461,2,0.0,15,138766358476640,31,23.8,-334.30792236328125,0.6934999823570251,0,0.0,0.0,1.57542003E9,,,,0,,1,1.7,1.57542003E9
Raw,329038665,329105999000000,,,-1457982460431824577,0.9648580551147461,82.35787390731275,-0.6573033760414771,13.314894468745772,1461,8,0.0,15,138766363148315,46,20.4,-191.86358642578125,0.9210000038146973,0,0.0,0.0,1.57542003E9,,,,0,,1,1.7,1.57542003E9
Raw,329038666,329105999000000,,,-1457982460431824577,0.9648580551147461,82.35787390731275,-0.6573033760414771,13.314894468745772,1461,10,0.0,15,138766360118587,110,14.7,138.9619598388672,2.1065001487731934,0,0.0,0.0,1.57542003E9,,,,0,,1,1.7,1.57542003E9
Raw,329038666,329105999000000,,,-1457982460431824577,0.9648580551147461,82.35787390731275,-0.6573033760414771,13.314894468745772,1461,32,0.0,15,138766349993388,35,22.4,-534.886962890625,0.800000011920929,0,0.0,0.0,1.57542003E9,,,,0,,1,1.7,1.57542003E9
Raw,329038667,329105999000000,,,-1457982460431824577,0.9648580551147461,82.35787390731275,-0.6573033760414771,13.314894468745772,1461,5,0.0,783,138752297974125,581,19.3,-15.726806640625,19.351999282836914,0,0.0,0.0,1.56109798E9,,,,0,,5,1.11,1.56109798E9
Raw,329038667,329105999000000,,,-1457982460431824577,0.9648580551147461,82.35787390731275,-0.6573033760414771,13.314894468745772,1461,28,0.0,15,138752349686647,73,17.1,462.85357666015625,1.6800000667572021,0,0.0,0.0,1.56109798E9,,,,0,,5,1.11,1.56109798E9
Raw,329038667,329105999000000,,,-1457982460431824577,0.9648580551147461,82.35787390731275,-0.6573033760414771,13.314894468745772,1461,13,0.0,7183,138766352891048,115,14.4,-27.38326072692871,2.690500020980835,0,0.0,0.0,1.57542003E9,,,,0,,6,1.81,1.57542003E9
Raw,329038668,329105999000000,,,-1457982460431824577,0.9648580551147461,82.35787390731275,-0.6573033760414771,13.314894468745772,1461,21,0.0,7183,138766349970724,40,21.5,163.90945434570312,0.6919999718666077,0,0.0,0.0,1.57542003E9,,,,0,,6,1.81,1.57542003E9
Raw,329038668,329105999000000,,,-1457982460431824577,0.9648580551147461,82.35787390731275,-0.6573033760414771,13.314894468745772,1461,23,0.0,7183,138766344029531,84,16.8,-359.7691955566406,1.7705000638961792,0,0.0,0.0,1.57542003E9,,,,0,,6,1.81,1.57542003E9
Fix,gps,45.066079,7.657044,305.510254,0.000000,10.720000,1774276350000
Raw,329039659,329106999000000,,,-1457982460431824579,0.9383001327514648,86.30483353044838,-1.3765619510415732,13.592510383929246,1461,9,0.0,207,63149360517527,46,20.9,181.72474670410156,1.1165000200271606,0,0.0,0.0,1.60087501E9,,,,0,,3,-0.06,1.60087501E9
Raw,329039661,329106999000000,,,-1457982460431824579,0.9383001327514648,86.30483353044838,-1.3765619510415732,13.592510383929246,1461,19,0.0,207,63149362815193,24,25.2,-332.9298400878906,0.5848000049591064,0,0.0,0.0,1.60368755E9,,,,0,,3,-0.06,1.60368755E9
Raw,329039662,329106999000000,,,-1457982460431824579,0.9383001327514648,86.30483353044838,-1.3765619510415732,13.592510383929246,1461,3,0.0,207,63149361121647,64,18.9,-391.19549560546875,2.0280001163482666,0,0.0,0.0,1.60481254E9,,,,0,,3,-0.06,1.60481254E9
Raw,329039662,329106999000000,,,-1457982460431824579,0.9383001327514648,86.30483353044838,-1.3765619510415732,13.592510383929246,1461,2,0.0,15,138767358477770,53,19.3,-334.0034484863281,1.0234999656677246,0,0.0,0.0,1.57542003E9,,,,0,,1,1.91,1.57542003E9
Raw,329039662,329106999000000,,,-1457982460431824579,0.9383001327514648,86.30483353044838,-1.3765619510415732,13.592510383929246,1461,8,0.0,15,138767363148932,61,18.2,-192.0348663330078,1.0809999704360962,0,0.0,0.0,1.57542003E9,,,,0,,1,1.91,1.57542003E9
Raw,329039663,329106999000000,,,-1457982460431824579,0.9383001327514648,86.30483353044838,-1.3765619510415732,13.592510383929246,1461,32,0.0,15,138767349995169,31,23.9,-534.201904296875,0.6800000071525574,0,0.0,0.0,1.57542003E9,,,,0,,1,1.91,1.57542003E9
Raw,329039663,329106999000000,,,-1457982460431824579,0.9383001327514648,86.30483353044838,-1.3765619510415732,13.592510383929246,1461,5,0.0,783,138753297974168,621,19.1,-14.823623657226562,20.052000045776367,0,0.0,0.0,1.56109798E9,,,,0,,5,1.48,1.56109798E9
Raw,329039663,329106999000000,,,-1457982460431824579,0.9383001327514648,86.30483353044838,-1.3765619510415732,13.592510383929246,1461,8,0.0,7183,138767337397255,1056,13.6,-521.9945678710938,6.067000389099121,0,0.0,0.0,1.57542003E9,,,,0,,6,1.95,1.57542003E9
Raw,329039665,329106999000000,,,-1457982460431824579,0.9383001327514648,86.30483353044838,-1.3765619510415732,13.592510383929246,1461,21,0.0,7183,138767349970143,53,19.3,162.36807250976562,0.8119999766349792,0,0.0,0.0,1.57542003E9,,,,0,,6,1.95,1.57542003E9
Raw,329039665,329106999000000,,,-1457982460431824579,0.9383001327514648,86.30483353044838,-1.3765619510415732,13.592510383929246,1461,26,0.0,7183,138767344327772,217,12.4,-401.94781494140625,6.630500316619873,0,0.0,0.0,1.57542003E9,,,,0,,6,1.95,1.57542003E9
Fix,gps,45.066079,7.657045,305.102905,0.000000,10.720000,1774276351000
Raw,329040667,329107999000000,,,-1457982460431824578,0.4896430969238281,86.49258234072477,-1.0509539440119862,13.818100752133597,1461,9,0.0,207,63150360517091,35,22.4,181.89328002929688,0.9864999651908875,0,0.0,0.0,1.60087501E9,,,,0,,3,0.23,1.60087501E9
Raw,329040667,329107999000000,,,-1457982460431824578,0.4896430969238281,86.49258234072477,-1.0509539440119862,13.818100752133597,1461,16,0.0,207,63150355998817,154,13.1,765.8905639648438,4.820500373840332,0,0.0,0.0,1.60143744E9,,,,0,,3,0.23,1.60143744E9
Raw,329040667,329107999000000,,,-1457982460431824578,0.4896430969238281,86.49258234072477,-1.0509539440119862,13.818100752133597,1461,19,0.0,207,63150362816332,14,30.4,-332.7669982910156,0.2287999987602234,0,0.0,0.0,1.60368755E9,,,,0,,3,0.23,1.60368755E9
Raw,329040668,329107999000000,,,-1457982460431824578,0.4896430969238281,86.49258234072477,-1.0509539440119862,13.818100752133597,1461,3,0.0,207,63150361123016,61,18.6,-391.21417236328125,1.277999997138977,0,0.0,0.0,1.60481254E9,,,,0,,3,0.23,1.60481254E9
Raw,329040669,329107999000000,,,-1457982460431824578,0.4896430969238281,86.49258234072477,-1.0509539440119862,13.818100752133597,1461,2,0.0,15,138768358478960,61,18.9,-332.9949035644531,1.0234999656677246,0,0.0,0.0,1.57542003E9,,,,0,,1,2.24,1.57542003E9
Raw,329040669,329107999000000,,,-1457982460431824578,0.4896430969238281,86.49258234072477,-1.0509539440119862,13.818100752133597,1461,8,0.0,15,138768363149610,53,19.3,-191.2070770263672,1.0010000467300415,0,0.0,0.0,1.57542003E9,,,,0,,1,2.24,1.57542003E9
Raw,329040670,329107999000000,,,-1457982460431824578,0.4896430969238281,86.49258234072477,-1.0509539440119862,13.818100752133597,1461,16,0.0,15,138768353204737,152,13.7,697.150390625,4.496000289916992,0,0.0,0.0,1.57542003E9,,,,0,,1,2.24,1.57542003E9
Raw,329040670,329107999000000,,,-1457982460431824578,0.4896430969238281,86.49258234072477,-1.0509539440119862,13.818100752133597,1461,32,0.0,15,138768349996902,24,25.4,-534.44384765625,0.3953000009059906,0,0.0,0.0,1.57542003E9,,,,0,,1,2.24,1.57542003E9
Raw,329040670,329107999000000,,,-1457982460431824578,0.4896430969238281,86.49258234072477,-1.0509539440119862,13.818100752133597,1461,5,0.0,783,138754297974236,685,19.1,-15.326004028320312,21.177000045776367,0,0.0,0.0,1.56109798E9,,,,0,,5,1.66,1.56109798E9
Raw,329040671,329107999000000,,,-1457982460431824578,0.4896430969238281,86.49258234072477,-1.0509539440119862,13.818100752133597,1461,28,0.0,15,138754349683563,83,16.6,463.4969177246094,1.7600001096725464,0,0.0,0.0,1.56109798E9,,,,0,,5,1.66,1.56109798E9
Raw,329040671,329107999000000,,,-1457982460431824578,0.4896430969238281,86.49258234072477,-1.0509539440119862,13.818100752133597,1461,8,0.0,7183,138768337398945,933,14.0,-522.7938232421875,6.3520002365112305,0,0.0,0.0,1.57542003E9,,,,0,,6,2.18,1.57542003E9
Raw,329040671,329107999000000,,,-1457982460431824578,0.4896430969238281,86.49258234072477,-1.0509539440119862,13.818100752133597,1461,21,0.0,7183,138768349969613,53,19.1,162.22535705566406,0.8119999766349792,0,0.0,0.0,1.57542003E9,,,,0,,6,2.18,1.57542003E9
Raw,329040672,329107999000000,,,-1457982460431824578,0.4896430969238281,86.49258234072477,-1.0509539440119862,13.818100752133597,1461,23,0.0,7183,138768344031965,96,15.8,-359.08416748046875,1.8504999876022339,0,0.0,0.0,1.57542003E9,,,,0,,6,2.18,1.57542003E9
Fix,gps,45.066075,7.657039,304.840942,0.000000,10.720000,1774276352000
Raw,329041643,329108999000000,,,-1457982460431824581,0.80743408203125,81.28841000143439,-0.7900154224040673,13.096628618069895,1461,9,0.0,207,63151360516474,35,22.8,181.8839111328125,0.9864999651908875,0,0.0,0.0,1.60087501E9,,,,0,,3,0.19,1.60087501E9
Raw,329041643,329108999000000,,,-1457982460431824581,0.80743408203125,81.28841000143439,-0.7900154224040673,13.096628618069895,1461,16,0.0,207,63151355996344,53,19.8,766.9296264648438,1.2190001010894775,0,0.0,0.0,1.60143744E9,,,,0,,3,0.19,1.60143744E9
Raw,329041643,329108999000000,,,-1457982460431824581,0.80743408203125,81.28841000143439,-0.7900154224040673,13.096628618069895,1461,19,0.0,207,63151362817466,21,26.5,-332.63934326171875,0.3141999840736389,0,0.0,0.0,1.60368755E9,,,,0,,3,0.19,1.60368755E9
Raw,329041644,329108999000000,,,-1457982460431824581,0.80743408203125,81.28841000143439,-0.7900154224040673,13.096628618069895,1461,3,0.0,207,63151361124321,40,21.7,-390.4015808105469,1.0479999780654907,0,0.0,0.0,1.60481254E9,,,,0,,3,0.19,1.60481254E9
Raw,329041644,329108999000000,,,-1457982460431824581,0.80743408203125,81.28841000143439,-0.7900154224040673,13.096628618069895,1461,2,0.0,15,138769358480160,70,17.6,-333.9559020996094,1.1034998893737793,0,0.0,0.0,1.57542003E9,,,,0,,1,2.18,1.57542003E9
Raw,329041644,329108999000000,,,-1457982460431824581,0.80743408203125,81.28841000143439,-0.7900154224040673,13.096628618069895,1461,8,0.0,15,138769363150290,40,21.8,-191.83505249023438,0.7910000085830688,0,0.0,0.0,1.57542003E9,,,,0,,1,2.18,1.57542003E9
Raw,329041645,329108999000000,,,-1457982460431824581,0.80743408203125,81.28841000143439,-0.7900154224040673,13.096628618069895,1461,10,0.0,15,138769360117108,102,15.8,138.4957275390625,2.756500005722046,0,0.0,0.0,1.57542003E9,,,,0,,1,2.18,1.57542003E9
Raw,329041645,329108999000000,,,-1457982460431824581,0.80743408203125,81.28841000143439,-0.7900154224040673,13.096628618069895,1461,16,0.0,15,138769353202432,53,19.7,697.0267333984375,0.9359999895095825,0,0.0,0.0,1.57542003E9,,,,0,,1,2.18,1.57542003E9
Raw,329041645,329108999000000,,,-1457982460431824581,0.80743408203125,81.28841000143439,-0.7900154224040673,13.096628618069895,1461,32,0.0,15,138769349998709,24,25.5,-534.4259643554688,0.3953000009059906,0,0.0,0.0,1.57542003E9,,,,0,,1,2.18,1.57542003E9
Raw,329041645,329108999000000,,,-1457982460431824581,0.80743408203125,81.28841000143439,-0.7900154224040673,13.096628618069895,1461,28,0.0,15,138755349682099,61,18.1,462.5174865722656,0.8600000143051147,0,0.0,0.0,1.56109798E9,,,,0,,5,1.73,1.56109798E9
Raw,329041646,329108999000000,,,-1457982460431824581,0.80743408203125,81.28841000143439,-0.7900154224040673,13.096628618069895,1461,8,0.0,7183,138769337400676,1086,13.9,-522.5750122070312,7.192000389099121,0,0.0,0.0,1.57542003E9,,,,0,,6,2.18,1.57542003E9
Raw,329041646,329108999000000,,,-1457982460431824581,0.80743408203125,81.28841000143439,-0.7900154224040673,13.096628618069895,1461,21,0.0,7183,138769349969172,61,18.2,162.72962951660156,0.871999979019165,0,0.0,0.0,1.57542003E9,,,,0,,6,2.18,1.57542003E9
Raw,329041646,329108999000000,,,-1457982460431824581,0.80743408203125,81.28841000143439,-0.7900154224040673,13.096628618069895,1461,23,0.0,7183,138769344033184,70,17.3,-359.8548583984375,0.9404999613761902,0,0.0,0.0,1.57542003E9,,,,0,,6,2.18,1.57542003E9
Raw,329041647,329108999000000,,,-1457982460431824581,0.80743408203125,81.28841000143439,-0.7900154224040673,13.096628618069895,1461,26,0.0,7183,138769344330429,84,16.8,-403.79364013671875,1.7705000638961792,0,0.0,0.0,1.57542003E9,,,,0,,6,2.18,1.57542003E9
Raw,329042642,329109999000000,,,-1457982460431824590,0.9859466552734375,79.70069418661296,-1.0107293399726722,12.922241478590113,1461,9,0.0,207,63152360515824,46,20.5,182.5393524169922,1.1165000200271606,0,0.0,0.0,1.60087501E9,,,,0,,3,-0.02,1.60087501E9
Raw,329042643,329109999000000,,,-1457982460431824590,0.9859466552734375,79.70069418661296,-1.0107293399726722,12.922241478590113,1461,16,0.0,207,63152355993609,70,17.7,766.1807250976562,1.3890000581741333,0,0.0,0.0,1.60143744E9,,,,0,,3,-0.02,1.60143744E9
Raw,329042644,329109999000000,,,-1457982460431824590,0.9859466552734375,79.70069418661296,-1.0107293399726722,12.922241478590113,1461,19,0.0,207,63152362818540,19,27.1,-332.49365234375,0.2443000078201294,0,0.0,0.0,1.60368755E9,,,,0,,3,-0.02,1.60368755E9
Raw,329042645,329109999000000,,,-1457982460431824590,0.9859466552734375,79.70069418661296,-1.0107293399726722,12.922241478590113,1461,3,0.0,207,63152361125686,31,23.6,-391.02734375,0.9279999732971191,0,0.0,0.0,1.60481254E9,,,,0,,3,-0.02,1.60481254E9
Raw,329042645,329109999000000,,,-1457982460431824590,0.9859466552734375,79.70069418661296,-1.0107293399726722,12.922241478590113,1461,4,0.0,207,63152354025431,169,13.7,-822.1265258789062,5.567500114440918,0,0.0,0.0,1.60537498E9,,,,0,,3,-0.02,1.60537498E9
Raw,329042646,329109999000000,,,-1457982460431824590,0.9859466552734375,79.70069418661296,-1.0107293399726722,12.922241478590113,1461,1,0.0,15,138770350208400,345,11.1,-583.4308471679688,10.131500244140625,0,0.0,0.0,1.57542003E9,,,,0,,1,1.94,1.57542003E9
Raw,329042646,329109999000000,,,-1457982460431824590,0.9859466552734375,79.70069418661296,-1.0107293399726722,12.922241478590113,1461,2,0.0,15,138770358481143,46,20.1,-333.5657653808594,0.9434999823570251,0,0.0,0.0,1.57542003E9,,,,0,,1,1.94,1.57542003E9
Raw,329042646,329109999000000,,,-1457982460431824590,0.9859466552734375,79.70069418661296,-1.0107293399726722,12.922241478590113,1461,8,0.0,15,138770363150936,27,24.3,-191.23562622070312,0.6710000038146973,0,0.0,0.0,1.57542003E9,,,,0,,1,1.94,1.57542003E9
Raw,329042646,329109999000000,,,-1457982460431824590,0.9859466552734375,79.70069418661296,-1.0107293399726722,12.922241478590113,1461,10,0.0,15,138770360116530,61,18.7,138.69554138183594,0.9965000152587891,0,0.0,0.0,1.57542003E9,,,,0,,1,1.94,1.57542003E9
Raw,329042647,329109999000000,,,-1457982460431824590,0.9859466552734375,79.70069418661296,-1.0107293399726722,12.922241478590113,1461,32,0.0,15,138770350000499,31,23.8,-533.6785888671875,0.6814999580383301,0,0.0,0.0,1.57542003E9,,,,0,,1,1.94,1.57542003E9
Raw,329042647,329109999000000,,,-1457982460431824590,0.9859466552734375,79.70069418661296,-1.0107293399726722,12.922241478590113,1461,28,0.0,15,138756349680578,53,19.5,462.6807556152344,0.800000011920929,0,0.0,0.0,1.56109798E9,,,,0,,5,1.51,1.56109798E9
Raw,329042647,329109999000000,,,-1457982460431824590,0.9859466552734375,79.70069418661296,-1.0107293399726722,12.922241478590113,1461,3,0.0,7183,138770339882547,203,14.3,-264.72705078125,7.189000129699707,0,0.0,0.0,1.57542003E9,,,,0,,6,2.03,1.57542003E9
Raw,329042648,329109999000000,,,-1457982460431824590,0.9859466552734375,79.70069418661296,-1.0107293399726722,12.922241478590113,1461,8,0.0,7183,138770337402409,1109,13.7,-522.5083618164062,7.942000389099121,0,0.0,0.0,1.57542003E9,,,,0,,6,2.03,1.57542003E9
Raw,329042648,329109999000000,,,-1457982460431824590,0.9859466552734375,79.70069418661296,-1.0107293399726722,12.922241478590113,1461,21,0.0,7183,138770349968631,46,20.9,163.966552734375,0.7519999742507935,0,0.0,0.0,1.57542003E9,,,,0,,6,2.03,1.57542003E9
Raw,329042648,329109999000000,,,-1457982460431824590,0.9859466552734375,79.70069418661296,-1.0107293399726722,12.922241478590113,1461,23,0.0,7183,138770344034324,61,18.1,-357.8948059082031,0.8704999685287476,0,0.0,0.0,1.57542003E9,,,,0,,6,2.03,1.57542003E9
Fix,gps,45.066070,7.657039,305.910278,0.000000,10.720000,1774276353000
Fix,gps,45.066068,7.657040,306.408203,0.000000,10.720000,1774276354000
Raw,329043643,329110999000000,,,-1457982460431824586,0.10028934478759766,76.86797471251339,0.8011638391080341,12.203291968804404,1461,9,0.0,207,63153360515258,61,18.6,182.92324829101562,1.2764999866485596,0,0.0,0.0,1.60087501E9,,,,0,,3,-0.02,1.60087501E9
Raw,329043643,329110999000000,,,-1457982460431824586,0.10028934478759766,76.86797471251339,0.8011638391080341,12.203291968804404,1461,19,0.0,207,63153362819617,19,27.1,-332.2747497558594,0.2443000078201294,0,0.0,0.0,1.60368755E9,,,,0,,3,-0.02,1.60368755E9
Raw,329043644,329110999000000,,,-1457982460431824586,0.10028934478759766,76.86797471251339,0.8011638391080341,12.203291968804404,1461,3,0.0,207,63153361126838,93,15.7,-391.8212890625,1.558000087738037,0,0.0,0.0,1.60481254E9,,,,0,,3,-0.02,1.60481254E9
Raw,329043644,329110999000000,,,-1457982460431824586,0.10028934478759766,76.86797471251339,0.8011638391080341,12.203291968804404,1461,2,0.0,15,138771358482261,19,27.2,-333.2419738769531,0.06830000132322311,0,0.0,0.0,1.57542003E9,,,,0,,1,1.94,1.57542003E9
Raw,329043644,329110999000000,,,-1457982460431824586,0.10028934478759766,76.86797471251339,0.8011638391080341,12.203291968804404,1461,8,0.0,15,138771363151505,31,23.8,-190.940673828125,0.6710000038146973,0,0.0,0.0,1.57542003E9,,,,0,,1,1.94,1.57542003E9
Raw,329043645,329110999000000,,,-1457982460431824586,0.10028934478759766,76.86797471251339,0.8011638391080341,12.203291968804404,1461,32,0.0,15,138771350002242,46,20.7,-533.8499145507812,0.8614999651908875,0,0.0,0.0,1.57542003E9,,,,0,,1,1.94,1.57542003E9
Raw,329043645,329110999000000,,,-1457982460431824586,0.10028934478759766,76.86797471251339,0.8011638391080341,12.203291968804404,1461,3,0.0,7183,138771339883382,61,18.4,-263.699462890625,0.8689999580383301,0,0.0,0.0,1.57542003E9,,,,0,,6,2.03,1.57542003E9
Raw,329043645,329110999000000,,,-1457982460431824586,0.10028934478759766,76.86797471251339,0.8011638391080341,12.203291968804404,1461,23,0.0,7183,138771344035555,40,21.0,-359.322021484375,0.6904999613761902,0,0.0,0.0,1.57542003E9,,,,0,,6,2.03,1.57542003E9
Raw,329043645,329110999000000,,,-1457982460431824586,0.10028934478759766,76.86797471251339,0.8011638391080341,12.203291968804404,1461,26,0.0,7183,138771344333094,84,16.7,-403.2037658691406,1.7705000638961792,0,0.0,0.0,1.57542003E9,,,,0,,6,2.03,1.57542003E9
Fix,gps,45.066069,7.657043,307.099976,0.550000,10.720000,1774276355000
Raw,329044645,329111999000000,,,-1457982460431824580,0.40348052978515625,77.93554686941206,0.45345548223314974,15.23130636570511,1461,9,0.0,207,63154360514446,46,20.1,182.4457244873047,1.1165000200271606,0,0.0,0.0,1.60087501E9,,,,0,,3,-0.02,1.60087501E9
Raw,329044646,329111999000000,,,-1457982460431824580,0.40348052978515625,77.93554686941206,0.45345548223314974,15.23130636570511,1461,19,0.0,207,63154362820688,14,30.0,-332.51177978515625,0.2287999987602234,0,0.0,0.0,1.60368755E9,,,,0,,3,-0.02,1.60368755E9
Raw,329044646,329111999000000,,,-1457982460431824580,0.40348052978515625,77.93554686941206,0.45345548223314974,15.23130636570511,1461,3,0.0,207,63154361128304,53,19.0,-390.5696716308594,1.1980000734329224,0,0.0,0.0,1.60481254E9,,,,0,,3,-0.02,1.60481254E9
Raw,329044647,329111999000000,,,-1457982460431824580,0.40348052978515625,77.93554686941206,0.45345548223314974,15.23130636570511,1461,4,0.0,207,63154354030568,97,15.5,-823.4057006835938,2.327500104904175,0,0.0,0.0,1.60537498E9,,,,0,,3,-0.02,1.60537498E9
Raw,329044647,329111999000000,,,-1457982460431824580,0.40348052978515625,77.93554686941206,0.45345548223314974,15.23130636570511,1461,2,0.0,15,138772358483393,16,29.0,-333.3053894042969,0.053700003772974014,0,0.0,0.0,1.57542003E9,,,,0,,1,1.94,1.57542003E9
Raw,329044648,329111999000000,,,-1457982460431824580,0.40348052978515625,77.93554686941206,0.45345548223314974,15.23130636570511,1461,8,0.0,15,138772363152135,21,26.7,-191.33444213867188,0.11569999903440475,0,0.0,0.0,1.57542003E9,,,,0,,1,1.94,1.57542003E9
Raw,329044648,329111999000000,,,-1457982460431824580,0.40348052978515625,77.93554686941206,0.45345548223314974,15.23130636570511,1461,10,0.0,15,138772360115653,84,16.3,138.8572998046875,2.006500005722046,0,0.0,0.0,1.57542003E9,,,,0,,1,1.94,1.57542003E9
Raw,329044648,329111999000000,,,-1457982460431824580,0.40348052978515625,77.93554686941206,0.45345548223314974,15.23130636570511,1461,32,0.0,15,138772350004110,40,21.4,-533.554931640625,0.8614999651908875,0,0.0,0.0,1.57542003E9,,,,0,,1,1.94,1.57542003E9
Raw,329044649,329111999000000,,,-1457982460431824580,0.40348052978515625,77.93554686941206,0.45345548223314974,15.23130636570511,1461,28,0.0,15,138758349677506,83,16.9,462.02783203125,1.7600001096725464,0,0.0,0.0,1.56109798E9,,,,0,,5,1.59,1.56109798E9
Raw,329044650,329111999000000,,,-1457982460431824580,0.40348052978515625,77.93554686941206,0.45345548223314974,15.23130636570511,1461,3,0.0,7183,138772339884239,61,18.5,-263.94683837890625,0.8689999580383301,0,0.0,0.0,1.57542003E9,,,,0,,6,2.03,1.57542003E9
Raw,329044650,329111999000000,,,-1457982460431824580,0.40348052978515625,77.93554686941206,0.45345548223314974,15.23130636570511,1461,8,0.0,7183,138772337405906,1163,13.2,-522.4417724609375,9.442000389099121,0,0.0,0.0,1.57542003E9,,,,0,,6,2.03,1.57542003E9
Raw,329044651,329111999000000,,,-1457982460431824580,0.40348052978515625,77.93554686941206,0.45345548223314974,15.23130636570511,1461,23,0.0,7183,138772344036766,70,17.8,-360.08319091796875,0.9404999613761902,0,0.0,0.0,1.57542003E9,,,,0,,6,2.03,1.57542003E9
Raw,329044651,329111999000000,,,-1457982460431824580,0.40348052978515625,77.93554686941206,0.45345548223314974,15.23130636570511,1461,26,0.0,7183,138772344334522,40,21.0,-402.7660827636719,0.6904999613761902,0,0.0,0.0,1.57542003E9,,,,0,,6,2.03,1.57542003E9
Fix,gps,45.066065,7.657046,306.689148,0.000000,10.720000,1774276356000
Raw,329045637,329112999000000,,,-1457982460431824579,0.49126529693603516,74.94367309845984,-0.4923364627801341,12.523075155257668,1461,19,0.0,207,63155362821903,24,25.2,-332.3418884277344,0.5848000049591064,0,0.0,0.0,1.60368755E9,,,,0,,3,-0.02,1.60368755E9
Raw,329045638,329112999000000,,,-1457982460431824579,0.49126529693603516,74.94367309845984,-0.4923364627801341,12.523075155257668,1461,3,0.0,207,63155361129539,93,15.7,-391.6905212402344,1.558000087738037,0,0.0,0.0,1.60481254E9,,,,0,,3,-0.02,1.60481254E9
Raw,329045638,329112999000000,,,-1457982460431824579,0.49126529693603516,74.94367309845984,-0.4923364627801341,12.523075155257668,1461,2,0.0,15,138773358484512,14,30.8,-333.32745361328125,0.052800003439188004,0,0.0,0.0,1.57542003E9,,,,0,,1,1.94,1.57542003E9
Raw,329045638,329112999000000,,,-1457982460431824579,0.49126529693603516,74.94367309845984,-0.4923364627801341,12.523075155257668,1461,8,0.0,15,138773363152718,35,22.8,-191.30223083496094,0.7310000061988831,0,0.0,0.0,1.57542003E9,,,,0,,1,1.94,1.57542003E9
Raw,329045639,329112999000000,,,-1457982460431824579,0.49126529693603516,74.94367309845984,-0.4923364627801341,12.523075155257668,1461,10,0.0,15,138773360115334,92,15.7,138.71456909179688,1.256500005722046,0,0.0,0.0,1.57542003E9,,,,0,,1,1.94,1.57542003E9
Raw,329045639,329112999000000,,,-1457982460431824579,0.49126529693603516,74.94367309845984,-0.4923364627801341,12.523075155257668,1461,32,0.0,15,138773350005838,19,27.6,-534.1783447265625,0.056300003081560135,0,0.0,0.0,1.57542003E9,,,,0,,1,1.94,1.57542003E9
Raw,329045640,329112999000000,,,-1457982460431824579,0.49126529693603516,74.94367309845984,-0.4923364627801341,12.523075155257668,1461,28,0.0,15,138759349675963,70,17.6,463.1512451171875,0.9300000071525574,0,0.0,0.0,1.56109798E9,,,,0,,5,1.57,1.56109798E9
Raw,329045640,329112999000000,,,-1457982460431824579,0.49126529693603516,74.94367309845984,-0.4923364627801341,12.523075155257668,1461,3,0.0,7183,138773339885169,53,19.9,-263.8326721191406,0.8089999556541443,0,0.0,0.0,1.57542003E9,,,,0,,6,2.03,1.57542003E9
Raw,329045640,329112999000000,,,-1457982460431824579,0.49126529693603516,74.94367309845984,-0.4923364627801341,12.523075155257668,1461,8,0.0,7183,138773337407636,341,13.3,-522.2705078125,10.567000389099121,0,0.0,0.0,1.57542003E9,,,,0,,6,2.03,1.57542003E9
Raw,329045640,329112999000000,,,-1457982460431824579,0.49126529693603516,74.94367309845984,-0.4923364627801341,12.523075155257668,1461,26,0.0,7183,138773344335772,46,20.7,-402.5472717285156,0.750499963760376,0,0.0,0.0,1.57542003E9,,,,0,,6,2.03,1.57542003E9
Raw,329046632,329113999000000,,,-1457982460431824579,0.5955734252929688,73.8032249500975,-0.9772109242133645,13.035097899158053,1461,19,0.0,207,63156362823023,17,28.2,-332.4781188964844,0.2363000065088272,0,0.0,0.0,1.60368755E9,,,,0,,3,-0.02,1.60368755E9
Raw,329046633,329113999000000,,,-1457982460431824579,0.5955734252929688,73.8032249500975,-0.9772109242133645,13.035097899158053,1461,3,0.0,207,63156361131004,61,18.5,-390.1307067871094,1.277999997138977,0,0.0,0.0,1.60481254E9,,,,0,,3,-0.02,1.60481254E9
Raw,329046633,329113999000000,,,-1457982460431824579,0.5955734252929688,73.8032249500975,-0.9772109242133645,13.035097899158053,1461,2,0.0,15,138774358485652,13,31.7,-333.4643859863281,0.05220000073313713,0,0.0,0.0,1.57542003E9,,,,0,,1,1.94,1.57542003E9
Raw,329046633,329113999000000,,,-1457982460431824579,0.5955734252929688,73.8032249500975,-0.9772109242133645,13.035097899158053,1461,8,0.0,15,138774363153377,27,24.4,-190.90261840820312,0.6710000038146973,0,0.0,0.0,1.57542003E9,,,,0,,1,1.94,1.57542003E9
Raw,329046634,329113999000000,,,-1457982460431824579,0.5955734252929688,73.8032249500975,-0.9772109242133645,13.035097899158053,1461,10,0.0,15,138774360114873,70,17.4,139.9419708251953,1.1664999723434448,0,0.0,0.0,1.57542003E9,,,,0,,1,1.94,1.57542003E9
Raw,329046634,329113999000000,,,-1457982460431824579,0.5955734252929688,73.8032249500975,-0.9772109242133645,13.035097899158053,1461,32,0.0,15,138774350007628,19,27.8,-534.4158325195312,0.056300003081560135,0,0.0,0.0,1.57542003E9,,,,0,,1,1.94,1.57542003E9
Raw,329046634,329113999000000,,,-1457982460431824579,0.5955734252929688,73.8032249500975,-0.9772109242133645,13.035097899158053,1461,3,0.0,7183,138774339886079,46,20.0,-263.10003662109375,0.7489999532699585,0,0.0,0.0,1.57542003E9,,,,0,,6,2.03,1.57542003E9
Raw,329046635,329113999000000,,,-1457982460431824579,0.5955734252929688,73.8032249500975,-0.9772109242133645,13.035097899158053,1461,26,0.0,7183,138774344337139,53,19.0,-401.7194519042969,0.8104999661445618,0,0.0,0.0,1.57542003E9,,,,0,,6,2.03,1.57542003E9
Fix,gps,45.066065,7.657046,306.462646,0.000000,10.720000,1774276357000
Raw,329047629,329114999000000,,,-1457982460431824585,0.5308008193969727,73.71764513663948,-1.6141683850946864,13.441418550360872,1461,9,0.0,207,63157360512685,90,16.1,182.09927368164062,2.9565000534057617,0,0.0,0.0,1.60087501E9,,,,0,,3,0.18,1.60087501E9
Raw,329047630,329114999000000,,,-1457982460431824585,0.5308008193969727,73.71764513663948,-1.6141683850946864,13.441418550360872,1461,19,0.0,207,63157362824150,17,28.9,-332.72503662109375,0.2363000065088272,0,0.0,0.0,1.60368755E9,,,,0,,3,0.18,1.60368755E9
Raw,329047630,329114999000000,,,-1457982460431824585,0.5308008193969727,73.71764513663948,-1.6141683850946864,13.441418550360872,1461,2,0.0,15,138775358486772,16,29.9,-333.7216796875,0.053700003772974014,0,0.0,0.0,1.57542003E9,,,,0,,1,2.18,1.57542003E9
Raw,329047630,329114999000000,,,-1457982460431824585,0.5308008193969727,73.71764513663948,-1.6141683850946864,13.441418550360872,1461,8,0.0,15,138775363154052,21,26.3,-191.5657958984375,0.11569999903440475,0,0.0,0.0,1.57542003E9,,,,0,,1,2.18,1.57542003E9
Raw,329047631,329114999000000,,,-1457982460431824585,0.5308008193969727,73.71764513663948,-1.6141683850946864,13.441418550360872,1461,10,0.0,15,138775360114373,46,20.9,139.4662322998047,0.8464999794960022,0,0.0,0.0,1.57542003E9,,,,0,,1,2.18,1.57542003E9
Raw,329047631,329114999000000,,,-1457982460431824585,0.5308008193969727,73.71764513663948,-1.6141683850946864,13.441418550360872,1461,16,0.0,15,138775353188560,185,12.1,696.79833984375,5.496000289916992,0,0.0,0.0,1.57542003E9,,,,0,,1,2.18,1.57542003E9
Raw,329047631,329114999000000,,,-1457982460431824585,0.5308008193969727,73.71764513663948,-1.6141683850946864,13.441418550360872,1461,32,0.0,15,138775350009384,19,27.6,-534.613525390625,0.056300003081560135,0,0.0,0.0,1.57542003E9,,,,0,,1,2.18,1.57542003E9
Raw,329047632,329114999000000,,,-1457982460431824585,0.5308008193969727,73.71764513663948,-1.6141683850946864,13.441418550360872,1461,3,0.0,7183,138775339886977,46,20.2,-264.2513122558594,0.7489999532699585,0,0.0,0.0,1.57542003E9,,,,0,,6,2.1,1.57542003E9
Raw,329047632,329114999000000,,,-1457982460431824585,0.5308008193969727,73.71764513663948,-1.6141683850946864,13.441418550360872,1461,26,0.0,7183,138775344338448,53,19.0,-402.9087829589844,0.8104999661445618,0,0.0,0.0,1.57542003E9,,,,0,,6,2.1,1.57542003E9
Fix,gps,45.066065,7.657046,306.273071,0.000000,10.720000,1774276358000
Fix,gps,45.066065,7.657046,306.853882,0.000000,10.720000,1774276359000
Raw,329048645,329115999000000,,,-1457982460431824591,0.4958305358886719,72.44545122375712,-2.535574796404288,13.634464520487024,1461,18,0.0,207,63158363996952,1159,15.6,249.73455810546875,3.631000280380249,0,0.0,0.0,1.60031245E9,,,,0,,3,-0.58,1.60031245E9
Raw,329048646,329115999000000,,,-1457982460431824591,0.4958305358886719,72.44545122375712,-2.535574796404288,13.634464520487024,1461,9,0.0,207,63158360512157,19,27.0,182.28485107421875,0.24130000174045563,0,0.0,0.0,1.60087501E9,,,,0,,3,-0.58,1.60087501E9
Raw,329048647,329115999000000,,,-1457982460431824591,0.4958305358886719,72.44545122375712,-2.535574796404288,13.634464520487024,1461,19,0.0,207,63158362825171,17,28.7,-332.6717224121094,0.2363000065088272,0,0.0,0.0,1.60368755E9,,,,0,,3,-0.58,1.60368755E9
Raw,329048647,329115999000000,,,-1457982460431824591,0.4958305358886719,72.44545122375712,-2.535574796404288,13.634464520487024,1461,3,0.0,207,63158361133187,96,15.4,-389.5702819824219,2.308000087738037,0,0.0,0.0,1.60481254E9,,,,0,,3,-0.58,1.60481254E9
Raw,329048647,329115999000000,,,-1457982460431824591,0.4958305358886719,72.44545122375712,-2.535574796404288,13.634464520487024,1461,2,0.0,15,138776358487851,40,21.2,-333.80364990234375,0.8734999895095825,0,0.0,0.0,1.57542003E9,,,,0,,1,1.42,1.57542003E9
Raw,329048648,329115999000000,,,-1457982460431824591,0.4958305358886719,72.44545122375712,-2.535574796404288,13.634464520487024,1461,8,0.0,15,138776363154718,31,23.0,-191.84457397460938,0.7310000061988831,0,0.0,0.0,1.57542003E9,,,,0,,1,1.42,1.57542003E9
Raw,329048648,329115999000000,,,-1457982460431824591,0.4958305358886719,72.44545122375712,-2.535574796404288,13.634464520487024,1461,32,0.0,15,138776350011115,35,22.7,-534.7347412109375,0.7414999604225159,0,0.0,0.0,1.57542003E9,,,,0,,1,1.42,1.57542003E9
Raw,329048649,329115999000000,,,-1457982460431824591,0.4958305358886719,72.44545122375712,-2.535574796404288,13.634464520487024,1461,28,0.0,15,138762349671277,61,19.4,461.6821594238281,2.299999952316284,0,0.0,0.0,1.56109798E9,,,,0,,5,1.25,1.56109798E9
Raw,329048649,329115999000000,,,-1457982460431824591,0.4958305358886719,72.44545122375712,-2.535574796404288,13.634464520487024,1461,23,0.0,7183,138776344041508,97,16.2,-359.05560302734375,3.2705001831054688,0,0.0,0.0,1.57542003E9,,,,0,,6,1.73,1.57542003E9
Raw,329048650,329115999000000,,,-1457982460431824591,0.4958305358886719,72.44545122375712,-2.535574796404288,13.634464520487024,1461,26,0.0,7183,138776344339842,53,19.6,-402.6709289550781,0.8104999661445618,0,0.0,0.0,1.57542003E9,,,,0,,6,1.73,1.57542003E9
Fix,gps,45.066065,7.657046,306.637939,0.000000,10.720000,1774276360000
Raw,329049644,329116999000000,,,-1457982460431824587,0.1615161895751953,72.87131302291527,-2.2805457925623527,13.520412000639732,1461,18,0.0,207,63159363996170,1018,16.1,249.75331115722656,4.281000137329102,0,0.0,0.0,1.60031245E9,,,,0,,3,-0.76,1.60031245E9
Raw,329049645,329116999000000,,,-1457982460431824587,0.1615161895751953,72.87131302291527,-2.2805457925623527,13.520412000639732,1461,9,0.0,207,63159360511597,21,26.5,182.25404357910156,0.31119999289512634,0,0.0,0.0,1.60087501E9,,,,0,,3,-0.76,1.60087501E9
Raw,329049645,329116999000000,,,-1457982460431824587,0.1615161895751953,72.87131302291527,-2.2805457925623527,13.520412000639732,1461,16,0.0,207,63159355975599,185,13.3,765.8344116210938,6.319000244140625,0,0.0,0.0,1.60143744E9,,,,0,,3,-0.76,1.60143744E9
Raw,329049646,329116999000000,,,-1457982460431824587,0.1615161895751953,72.87131302291527,-2.2805457925623527,13.520412000639732,1461,19,0.0,207,63159362826306,14,30.1,-332.8380126953125,0.2287999987602234,0,0.0,0.0,1.60368755E9,,,,0,,3,-0.76,1.60368755E9
Raw,329049646,329116999000000,,,-1457982460431824587,0.1615161895751953,72.87131302291527,-2.2805457925623527,13.520412000639732,1461,3,0.0,207,63159361134737,53,19.5,-390.7938537597656,1.1980000734329224,0,0.0,0.0,1.60481254E9,,,,0,,3,-0.76,1.60481254E9
Raw,329049646,329116999000000,,,-1457982460431824587,0.1615161895751953,72.87131302291527,-2.2805457925623527,13.520412000639732,1461,2,0.0,15,138777358489042,53,19.2,-333.8321838378906,1.0234999656677246,0,0.0,0.0,1.57542003E9,,,,0,,1,1.03,1.57542003E9
Raw,329049647,329116999000000,,,-1457982460431824587,0.1615161895751953,72.87131302291527,-2.2805457925623527,13.520412000639732,1461,8,0.0,15,138777363155288,35,22.8,-191.42591857910156,0.7310000061988831,0,0.0,0.0,1.57542003E9,,,,0,,1,1.03,1.57542003E9
Raw,329049647,329116999000000,,,-1457982460431824587,0.1615161895751953,72.87131302291527,-2.2805457925623527,13.520412000639732,1461,10,0.0,15,138777360113454,96,15.5,139.2569122314453,2.006500005722046,0,0.0,0.0,1.57542003E9,,,,0,,1,1.03,1.57542003E9
Raw,329049647,329116999000000,,,-1457982460431824587,0.1615161895751953,72.87131302291527,-2.2805457925623527,13.520412000639732,1461,32,0.0,15,138777350012933,31,23.3,-535.3722534179688,0.7414999604225159,0,0.0,0.0,1.57542003E9,,,,0,,1,1.03,1.57542003E9
Raw,329049648,329116999000000,,,-1457982460431824587,0.1615161895751953,72.87131302291527,-2.2805457925623527,13.520412000639732,1461,28,0.0,15,138763349669722,53,19.3,462.54632568359375,0.800000011920929,0,0.0,0.0,1.56109798E9,,,,0,,5,1.0,1.56109798E9
Raw,329049648,329116999000000,,,-1457982460431824587,0.1615161895751953,72.87131302291527,-2.2805457925623527,13.520412000639732,1461,8,0.0,7183,138777337414683,116,15.7,-524.2019653320312,3.8470001220703125,0,0.0,0.0,1.57542003E9,,,,0,,6,1.55,1.57542003E9
Raw,329049648,329116999000000,,,-1457982460431824587,0.1615161895751953,72.87131302291527,-2.2805457925623527,13.520412000639732,1461,13,0.0,7183,138777352891955,288,12.5,-26.48887825012207,8.880500793457031,0,0.0,0.0,1.57542003E9,,,,0,,6,1.55,1.57542003E9
Raw,329049649,329116999000000,,,-1457982460431824587,0.1615161895751953,72.87131302291527,-2.2805457925623527,13.520412000639732,1461,21,0.0,7183,138777349964813,199,12.9,163.1007080078125,5.88200044631958,0,0.0,0.0,1.57542003E9,,,,0,,6,1.55,1.57542003E9
Raw,329049649,329116999000000,,,-1457982460431824587,0.1615161895751953,72.87131302291527,-2.2805457925623527,13.520412000639732,1461,23,0.0,7183,138777344042699,53,19.5,-358.6940612792969,0.8104999661445618,0,0.0,0.0,1.57542003E9,,,,0,,6,1.55,1.57542003E9
Raw,329049650,329116999000000,,,-1457982460431824587,0.1615161895751953,72.87131302291527,-2.2805457925623527,13.520412000639732,1461,26,0.0,7183,138777344341178,53,19.5,-403.3274230957031,0.8104999661445618,0,0.0,0.0,1.57542003E9,,,,0,,6,1.55,1.57542003E9
Raw,329049650,329116999000000,,,-1457982460431824587,0.1615161895751953,72.87131302291527,-2.2805457925623527,13.520412000639732,1461,27,0.0,7183,138777342818988,770,15.4,569.701171875,3.9235000610351562,0,0.0,0.0,1.57542003E9,,,,0,,6,1.55,1.57542003E9
Raw,329050637,329117999000000,,,-1457982460431824589,0.7757081985473633,69.13956167409196,-3.1801997387863046,13.296486150913893,1461,18,0.0,207,63160363995348,1031,16.1,249.56597900390625,5.031000137329102,0,0.0,0.0,1.60031245E9,,,,0,,3,-0.79,1.60031245E9
Raw,329050637,329117999000000,,,-1457982460431824589,0.7757081985473633,69.13956167409196,-3.1801997387863046,13.296486150913893,1461,9,0.0,207,63160360510918,21,26.2,182.30148315429688,0.31119999289512634,0,0.0,0.0,1.60087501E9,,,,0,,3,-0.79,1.60087501E9
Raw,329050638,329117999000000,,,-1457982460431824589,0.7757081985473633,69.13956167409196,-3.1801997387863046,13.296486150913893,1461,19,0.0,207,63160362827352,16,29.1,-332.9966735839844,0.2296999990940094,0,0.0,0.0,1.60368755E9,,,,0,,3,-0.79,1.60368755E9
Raw,329050638,329117999000000,,,-1457982460431824589,0.7757081985473633,69.13956167409196,-3.1801997387863046,13.296486150913893,1461,3,0.0,207,63160361136077,93,15.7,-392.11083984375,1.558000087738037,0,0.0,0.0,1.60481254E9,,,,0,,3,-0.79,1.60481254E9
Raw,329050638,329117999000000,,,-1457982460431824589,0.7757081985473633,69.13956167409196,-3.1801997387863046,13.296486150913893,1461,2,0.0,15,138778358490073,35,22.1,-333.8797607421875,0.8134999871253967,0,0.0,0.0,1.57542003E9,,,,0,,1,0.98,1.57542003E9
Raw,329050639,329117999000000,,,-1457982460431824589,0.7757081985473633,69.13956167409196,-3.1801997387863046,13.296486150913893,1461,8,0.0,15,138778363155952,31,23.3,-192.0634002685547,0.7310000061988831,0,0.0,0.0,1.57542003E9,,,,0,,1,0.98,1.57542003E9
Raw,329050639,329117999000000,,,-1457982460431824589,0.7757081985473633,69.13956167409196,-3.1801997387863046,13.296486150913893,1461,10,0.0,15,138778360113045,53,19.1,140.11322021484375,0.9965000152587891,0,0.0,0.0,1.57542003E9,,,,0,,1,0.98,1.57542003E9
Raw,329050640,329117999000000,,,-1457982460431824589,0.7757081985473633,69.13956167409196,-3.1801997387863046,13.296486150913893,1461,32,0.0,15,138778350014720,35,22.9,-534.9345703125,0.7414999604225159,0,0.0,0.0,1.57542003E9,,,,0,,1,0.98,1.57542003E9
Raw,329050641,329117999000000,,,-1457982460431824589,0.7757081985473633,69.13956167409196,-3.1801997387863046,13.296486150913893,1461,8,0.0,7183,138778337416475,46,20.4,-524.4113159179688,0.7519999742507935,0,0.0,0.0,1.57542003E9,,,,0,,6,1.52,1.57542003E9
Raw,329050641,329117999000000,,,-1457982460431824589,0.7757081985473633,69.13956167409196,-3.1801997387863046,13.296486150913893,1461,23,0.0,7183,138778344043897,70,17.7,-358.96044921875,0.9404999613761902,0,0.0,0.0,1.57542003E9,,,,0,,6,1.52,1.57542003E9
Raw,329050641,329117999000000,,,-1457982460431824589,0.7757081985473633,69.13956167409196,-3.1801997387863046,13.296486150913893,1461,26,0.0,7183,138778344342515,61,18.7,-403.66998291015625,0.8704999685287476,0,0.0,0.0,1.57542003E9,,,,0,,6,1.52,1.57542003E9
Raw,329050641,329117999000000,,,-1457982460431824589,0.7757081985473633,69.13956167409196,-3.1801997387863046,13.296486150913893,1461,27,0.0,7183,138778342817072,783,15.4,570.024658203125,4.673500061035156,0,0.0,0.0,1.57542003E9,,,,0,,6,1.52,1.57542003E9
Fix,gps,45.066065,7.657046,307.132935,0.000000,10.720000,1774276361000
Raw,329051644,329118999000000,,,-1457982460431824585,0.6947135925292969,67.88959581172094,-3.3628911792467946,12.83397666833873,1461,18,0.0,207,63161363994492,1046,16.6,249.63153076171875,5.781000137329102,0,0.0,0.0,1.60031245E9,,,,0,,3,-0.75,1.60031245E9
Raw,329051644,329118999000000,,,-1457982460431824585,0.6947135925292969,67.88959581172094,-3.3628911792467946,12.83397666833873,1461,9,0.0,207,63161360510322,21,26.8,182.327392578125,0.31119999289512634,0,0.0,0.0,1.60087501E9,,,,0,,3,-0.75,1.60087501E9
Raw,329051645,329118999000000,,,-1457982460431824585,0.6947135925292969,67.88959581172094,-3.3628911792467946,12.83397666833873,1461,19,0.0,207,63161362828573,16,29.1,-333.0329895019531,0.2296999990940094,0,0.0,0.0,1.60368755E9,,,,0,,3,-0.75,1.60368755E9
Raw,329051645,329118999000000,,,-1457982460431824585,0.6947135925292969,67.88959581172094,-3.3628911792467946,12.83397666833873,1461,3,0.0,207,63161361137250,70,17.3,-390.9246520996094,1.3680000305175781,0,0.0,0.0,1.60481254E9,,,,0,,3,-0.75,1.60481254E9
Raw,329051645,329118999000000,,,-1457982460431824585,0.6947135925292969,67.88959581172094,-3.3628911792467946,12.83397666833873,1461,4,0.0,207,63161354049873,249,10.1,-822.7054443359375,6.747500419616699,0,0.0,0.0,1.60537498E9,,,,0,,3,-0.75,1.60537498E9
Raw,329051646,329118999000000,,,-1457982460431824585,0.6947135925292969,67.88959581172094,-3.3628911792467946,12.83397666833873,1461,2,0.0,15,138779358491174,35,22.9,-333.5943298339844,0.7534999847412109,0,0.0,0.0,1.57542003E9,,,,0,,1,1.03,1.57542003E9
Raw,329051646,329118999000000,,,-1457982460431824585,0.6947135925292969,67.88959581172094,-3.3628911792467946,12.83397666833873,1461,8,0.0,15,138779363156675,53,19.6,-191.6828155517578,0.9210000038146973,0,0.0,0.0,1.57542003E9,,,,0,,1,1.03,1.57542003E9
Raw,329051646,329118999000000,,,-1457982460431824585,0.6947135925292969,67.88959581172094,-3.3628911792467946,12.83397666833873,1461,32,0.0,15,138779350016554,27,24.3,-535.1343994140625,0.6814999580383301,0,0.0,0.0,1.57542003E9,,,,0,,1,1.03,1.57542003E9
Raw,329051647,329118999000000,,,-1457982460431824585,0.6947135925292969,67.88959581172094,-3.3628911792467946,12.83397666833873,1461,5,0.0,783,138765297974848,699,18.0,-16.153839111328125,20.177000045776367,0,0.0,0.0,1.56109798E9,,,,0,,5,1.11,1.56109798E9
Raw,329051647,329118999000000,,,-1457982460431824585,0.6947135925292969,67.88959581172094,-3.3628911792467946,12.83397666833873,1461,28,0.0,15,138765349666626,63,18.1,462.41192626953125,1.6100000143051147,0,0.0,0.0,1.56109798E9,,,,0,,5,1.11,1.56109798E9
Raw,329051647,329118999000000,,,-1457982460431824585,0.6947135925292969,67.88959581172094,-3.3628911792467946,12.83397666833873,1461,8,0.0,7183,138779337418211,61,18.5,-523.8784790039062,0.871999979019165,0,0.0,0.0,1.57542003E9,,,,0,,6,1.59,1.57542003E9
Raw,329051648,329118999000000,,,-1457982460431824585,0.6947135925292969,67.88959581172094,-3.3628911792467946,12.83397666833873,1461,21,0.0,7183,138779349963704,96,15.6,163.74769592285156,1.8519999980926514,0,0.0,0.0,1.57542003E9,,,,0,,6,1.59,1.57542003E9
Raw,329051648,329118999000000,,,-1457982460431824585,0.6947135925292969,67.88959581172094,-3.3628911792467946,12.83397666833873,1461,23,0.0,7183,138779344045089,53,19.4,-357.96142578125,0.8104999661445618,0,0.0,0.0,1.57542003E9,,,,0,,6,1.59,1.57542003E9
Raw,329051648,329118999000000,,,-1457982460431824585,0.6947135925292969,67.88959581172094,-3.3628911792467946,12.83397666833873,1461,26,0.0,7183,138779344343908,46,20.1,-403.68902587890625,0.750499963760376,0,0.0,0.0,1.57542003E9,,,,0,,6,1.59,1.57542003E9
Raw,329051648,329118999000000,,,-1457982460431824585,0.6947135925292969,67.88959581172094,-3.3628911792467946,12.83397666833873,1461,27,0.0,7183,138779342815170,798,15.4,569.9866333007812,5.423500061035156,0,0.0,0.0,1.57542003E9,,,,0,,6,1.59,1.57542003E9
Fix,gps,45.066065,7.657046,307.528259,0.000000,10.720000,1774276362000
Raw,329052636,329119999000000,,,-1457982460431824587,0.04230690002441406,64.40624565584585,-2.7259740787633633,12.804426494852787,1461,18,0.0,207,63162363993615,1064,16.1,249.65963745117188,6.531000137329102,0,0.0,0.0,1.60031245E9,,,,0,,3,-0.78,1.60031245E9
Raw,329052636,329119999000000,,,-1457982460431824587,0.04230690002441406,64.40624565584585,-2.7259740787633633,12.804426494852787,1461,9,0.0,207,63162360509697,21,26.2,182.62078857421875,0.31119999289512634,0,0.0,0.0,1.60087501E9,,,,0,,3,-0.78,1.60087501E9
Raw,329052637,329119999000000,,,-1457982460431824587,0.04230690002441406,64.40624565584585,-2.7259740787633633,12.804426494852787,1461,19,0.0,207,63162362829628,14,30.0,-332.76239013671875,0.2287999987602234,0,0.0,0.0,1.60368755E9,,,,0,,3,-0.78,1.60368755E9
Raw,329052637,329119999000000,,,-1457982460431824587,0.04230690002441406,64.40624565584585,-2.7259740787633633,12.804426494852787,1461,2,0.0,15,138780358492340,31,23.6,-333.5943298339844,0.6934999823570251,0,0.0,0.0,1.57542003E9,,,,0,,1,0.98,1.57542003E9
Raw,329052638,329119999000000,,,-1457982460431824587,0.04230690002441406,64.40624565584585,-2.7259740787633633,12.804426494852787,1461,8,0.0,15,138780363157249,61,18.7,-192.25369262695312,1.0010000467300415,0,0.0,0.0,1.57542003E9,,,,0,,1,0.98,1.57542003E9
Raw,329052638,329119999000000,,,-1457982460431824587,0.04230690002441406,64.40624565584585,-2.7259740787633633,12.804426494852787,1461,10,0.0,15,138780360112178,110,14.2,140.13226318359375,2.2265000343322754,0,0.0,0.0,1.57542003E9,,,,0,,1,0.98,1.57542003E9
Raw,329052639,329119999000000,,,-1457982460431824587,0.04230690002441406,64.40624565584585,-2.7259740787633633,12.804426494852787,1461,16,0.0,15,138780353177050,170,12.5,696.5700073242188,4.616000175476074,0,0.0,0.0,1.57542003E9,,,,0,,1,0.98,1.57542003E9
Raw,329052639,329119999000000,,,-1457982460431824587,0.04230690002441406,64.40624565584585,-2.7259740787633633,12.804426494852787,1461,32,0.0,15,138780350018328,24,25.1,-534.788330078125,0.3968000113964081,0,0.0,0.0,1.57542003E9,,,,0,,1,0.98,1.57542003E9
Raw,329052640,329119999000000,,,-1457982460431824587,0.04230690002441406,64.40624565584585,-2.7259740787633633,12.804426494852787,1461,28,0.0,15,138766349665121,70,17.0,462.843994140625,0.9300000071525574,0,0.0,0.0,1.56109798E9,,,,0,,5,1.0,1.56109798E9
Raw,329052640,329119999000000,,,-1457982460431824587,0.04230690002441406,64.40624565584585,-2.7259740787633633,12.804426494852787,1461,8,0.0,7183,138780337419930,53,19.7,-523.4978637695312,0.8119999766349792,0,0.0,0.0,1.57542003E9,,,,0,,6,1.52,1.57542003E9
Raw,329052640,329119999000000,,,-1457982460431824587,0.04230690002441406,64.40624565584585,-2.7259740787633633,12.804426494852787,1461,15,0.0,7183,138780346456755,1504,11.6,384.7833251953125,9.963500022888184,0,0.0,0.0,1.57542003E9,,,,0,,6,1.52,1.57542003E9
Raw,329052642,329119999000000,,,-1457982460431824587,0.04230690002441406,64.40624565584585,-2.7259740787633633,12.804426494852787,1461,27,0.0,7183,138780342813270,716,16.0,570.100830078125,6.093500137329102,0,0.0,0.0,1.57542003E9,,,,0,,6,1.52,1.57542003E9
Fix,gps,45.066065,7.657046,307.838745,0.000000,10.720000,1774276363000
Raw,329053642,329120999000000,,,-1457982460431824589,0.656498908996582,61.552360421046615,-2.10354019771205,12.849984039545367,1461,18,0.0,207,63163363992750,1085,16.1,249.87506103515625,7.281000137329102,0,0.0,0.0,1.60031245E9,,,,0,,3,-0.79,1.60031245E9
Raw,329053642,329120999000000,,,-1457982460431824589,0.656498908996582,61.552360421046615,-2.10354019771205,12.849984039545367,1461,9,0.0,207,63163360509088,27,24.5,182.84835815429688,0.8664999604225159,0,0.0,0.0,1.60087501E9,,,,0,,3,-0.79,1.60087501E9
Raw,329053643,329120999000000,,,-1457982460431824589,0.656498908996582,61.552360421046615,-2.10354019771205,12.849984039545367,1461,19,0.0,207,63163362830719,16,29.6,-332.6878356933594,0.2296999990940094,0,0.0,0.0,1.60368755E9,,,,0,,3,-0.79,1.60368755E9
Raw,329053643,329120999000000,,,-1457982460431824589,0.656498908996582,61.552360421046615,-2.10354019771205,12.849984039545367,1461,4,0.0,207,63163354055523,110,14.2,-822.2572021484375,2.447500228881836,0,0.0,0.0,1.60537498E9,,,,0,,3,-0.79,1.60537498E9
Raw,329053643,329120999000000,,,-1457982460431824589,0.656498908996582,61.552360421046615,-2.10354019771205,12.849984039545367,1461,2,0.0,15,138781358493431,27,24.6,-333.7655944824219,0.643500030040741,0,0.0,0.0,1.57542003E9,,,,0,,1,0.98,1.57542003E9
Raw,329053644,329120999000000,,,-1457982460431824589,0.656498908996582,61.552360421046615,-2.10354019771205,12.849984039545367,1461,8,0.0,15,138781363157849,40,21.7,-190.588623046875,0.7910000085830688,0,0.0,0.0,1.57542003E9,,,,0,,1,0.98,1.57542003E9
Raw,329053644,329120999000000,,,-1457982460431824589,0.656498908996582,61.552360421046615,-2.10354019771205,12.849984039545367,1461,10,0.0,15,138781360111680,61,18.4,139.45672607421875,1.0764999389648438,0,0.0,0.0,1.57542003E9,,,,0,,1,0.98,1.57542003E9
Raw,329053644,329120999000000,,,-1457982460431824589,0.656498908996582,61.552360421046615,-2.10354019771205,12.849984039545367,1461,32,0.0,15,138781350020093,19,27.2,-534.7836303710938,0.056300003081560135,0,0.0,0.0,1.57542003E9,,,,0,,1,0.98,1.57542003E9
