# 
# Header Description:
# 
# Version: v3.1.1.2 Platform: 13 Manufacturer: samsung Model: SM-A515F GNSS Hardware Model Name: S.LSI,K102
# 
# Raw,utcTimeMillis,TimeNanos,LeapSecond,TimeUncertaintyNanos,FullBiasNanos,BiasNanos,BiasUncertaintyNanos,DriftNanosPerSecond,DriftUncertaintyNanosPerSecond,HardwareClockDiscontinuityCount,Svid,TimeOffsetNanos,State,ReceivedSvTimeNanos,ReceivedSvTimeUncertaintyNanos,Cn0DbHz,PseudorangeRateMetersPerSecond,PseudorangeRateUncertaintyMetersPerSecond,AccumulatedDeltaRangeState,AccumulatedDeltaRangeMeters,AccumulatedDeltaRangeUncertaintyMeters,CarrierFrequencyHz,CarrierCycles,CarrierPhase,CarrierPhaseUncertainty,MultipathIndicator,SnrInDb,ConstellationType,AgcDb,BasebandCn0DbHz,FullInterSignalBiasNanos,FullInterSignalBiasUncertaintyNanos,SatelliteInterSignalBiasNanos,SatelliteInterSignalBiasUncertaintyNanos,CodeType,ChipsetElapsedRealtimeNanos,IsFullTracking,SvPositionEcefXMeters,SvPositionEcefYMeters,SvPositionEcefZMeters,SvVelocityEcefXMetersPerSecond,SvVelocityEcefYMetersPerSecond,SvVelocityEcefZMetersPerSecond,SvClockBiasMeters,SvClockDriftMetersPerSecond,KlobucharAlpha0,KlobucharAlpha1,KlobucharAlpha2,KlobucharAlpha3,KlobucharBeta0,KlobucharBeta1,KlobucharBeta2,KlobucharBeta3
# 
# UncalAccel,utcTimeMillis,elapsedRealtimeNanos,UncalAccelXMps2,UncalAccelYMps2,UncalAccelZMps2,BiasXMps2,BiasYMps2,BiasZMps2,CalibrationAccuracy
# 
# Accel,utcTimeMillis,elapsedRealtimeNanos,AccelXMps2,AccelYMps2,AccelZMps2,CalibrationAccuracy
# 
# UncalGyro,utcTimeMillis,elapsedRealtimeNanos,UncalGyroXRadPerSec,UncalGyroYRadPerSec,UncalGyroZRadPerSec,DriftXRadPerSec,DriftYRadPerSec,DriftZRadPerSec,CalibrationAccuracy
# 
# Gyro,utcTimeMillis,elapsedRealtimeNanos,GyroXRadPerSec,GyroYRadPerSec,GyroZRadPerSec,CalibrationAccuracy
# 
# UncalMag,utcTimeMillis,elapsedRealtimeNanos,UncalMagXMicroT,UncalMagYMicroT,UncalMagZMicroT,BiasXMicroT,BiasYMicroT,BiasZMicroT,CalibrationAccuracy
# 
# Mag,utcTimeMillis,elapsedRealtimeNanos,MagXMicroT,MagYMicroT,MagZMicroT,CalibrationAccuracy
# 
# Pressure,utcTimeMillis,elapsedRealtimeNanos,PressureHpa,CalibrationAccuracy
# 
# OrientationDeg,utcTimeMillis,elapsedRealtimeNanos,yawDeg,rollDeg,pitchDeg,CalibrationAccuracy
# 
# Fix,Provider,LatitudeDegrees,LongitudeDegrees,AltitudeMeters,SpeedMps,AccuracyMeters,BearingDegrees,UnixTimeMillis,SpeedAccuracyMps,BearingAccuracyDegrees,elapsedRealtimeNanos,VerticalAccuracyMeters,MockLocation,NumberOfUsedSignals,VerticalSpeedAccuracyMps,SolutionType
# 
# Nav,Svid,Type,Status,MessageId,Sub-messageId,Data(Bytes)
# 
# Status,UnixTimeMillis,SignalCount,SignalIndex,ConstellationType,Svid,CarrierFrequencyHz,Cn0DbHz,AzimuthDegrees,ElevationDegrees,UsedInFix,HasAlmanacData,HasEphemerisData,BasebandCn0DbHz
# 
# Agc,utcTimeMillis,TimeNanos,LeapSecond,TimeUncertaintyNanos,FullBiasNanos,BiasNanos,BiasUncertaintyNanos,DriftNanosPerSecond,DriftUncertaintyNanosPerSecond,HardwareClockDiscontinuityCount,AgcDb,CarrierFrequencyHz,ConstellationType
# 
# GameRotationVector,utcTimeMillis,elapsedRealtimeNanos,x,y,z,w
# 
Raw,1774277400999,6344414136,18,0.0,-1458312612655585792,0.0,50.034610748291016,62211.265625,0.0,0,2,0.0,47,139818928725659,12,37.400001525878906,56.583770751953125,0.09525986015796661,17,-166.49877773471235,0.0673582471176982,1575420000,,,,0,33.20000076293945,1,3.9000000953674316,32.400001525878906,0.0,0.0,0.0,0.0,C,1054323564666988,,16000401.587941768,-11104482.48874163,18184597.958974645,-403.5772363900875,2222.2057306079423,1805.5610908342283,19119.92715352891,0.0026769531905301847,0.000000016763806343078613,0.000000007450580596923828,-0.00000011920928955078125,-0.000000059604644775390625,110592.0,16384.0,-262144.0,-65536.0
Raw,1774277400999,6344414136,18,0.0,-1458312612655585792,0.0,50.034610748291016,62211.265625,0.0,0,32,0.0,47,139818920972093,13,36.099998474121094,-154.68881225585938,0.1033901646733284,17,545.2742456243577,0.07310718544051051,1575420000,,,,0,31.5,1,3.9000000953674316,31.100000381469727,0.0,0.0,0.0,0.0,C,1054323564666988,,15884179.555877957,21274751.254718713,2704363.6631241995,-383.31085631055055,-75.83436341671845,3154.461592431024,-10340.760073960739,0.0061323456502577756,0.000000016763806343078613,0.000000007450580596923828,-0.00000011920928955078125,-0.000000059604644775390625,110592.0,16384.0,-262144.0,-65536.0
Raw,1774277400999,6344414136,18,0.0,-1458312612655585792,0.0,50.034610748291016,62211.265625,0.0,0,1,0.0,47,139818921371673,23,26.899999618530273,-218.9881591796875,0.20850275456905365,20,662.5955397871876,0.14743229775577782,1575420000,,,,0,21.700000762939453,1,3.9000000953674316,21.899999618530273,0.0,0.0,0.0,0.0,C,1054323564666988,,15192940.519472055,-20199725.793284632,8021884.690819679,-163.61512364533314,1046.293450446626,2949.6897459809984,93618.07666109985,-0.0022717105894116685,0.000000016763806343078613,0.000000007450580596923828,-0.00000011920928955078125,-0.000000059604644775390625,110592.0,16384.0,-262144.0,-65536.0
Raw,1774277400999,6344414136,18,0.0,-1458312612655585792,0.0,50.034610748291016,62211.265625,0.0,0,23,0.0,47,139818921980461,27,25.200000762939453,935.3202514648438,0.24507398903369904,20,-2243.0173758875317,0.17329181764572857,1575420000,,,,0,20.5,1,3.9000000953674316,20.200000762939453,0.0,0.0,0.0,0.0,C,1054323564666988,,-2441345.0461732945,15104564.440439746,21748720.64361627,-2696.3509011923943,490.16963376660004,-671.1681931174511,188127.82691823892,0.0014800723874941468,0.000000016763806343078613,0.000000007450580596923828,-0.00000011920928955078125,-0.000000059604644775390625,110592.0,16384.0,-262144.0,-65536.0
Raw,1774277400999,6344414136,18,0.0,-1458312612655585792,0.0,50.034610748291016,62211.265625,0.0,0,27,0.0,47,139818931212655,29,24.100000381469727,665.5209350585938,0.27411526441574097,20,-664.3988585914667,0.19382690346837042,1575420000,,,,0,20.5,1,3.9000000953674316,19.100000381469727,0.0,0.0,0.0,0.0,C,1054323564666988,,20852481.01539272,8934340.24768049,13795649.190307928,1018.4925533138371,1498.0483769833356,-2402.311582232912,-23546.63821463457,-0.004055835219332948,0.000000016763806343078613,0.000000007450580596923828,-0.00000011920928955078125,-0.000000059604644775390625,110592.0,16384.0,-262144.0,-65536.0
Raw,1774277400999,6344414136,18,0.0,-1458312612655585792,0.0,50.034610748291016,62211.265625,0.0,0,8,0.0,47,139818932820872,27,25.0,244.4935760498047,0.25,20,-583.3866654235608,0.176775,1575420000,,,,0,19.100000381469727,1,3.9000000953674316,20.0,0.0,0.0,0.0,0.0,C,1054323564666988,,17681526.214078873,-1967209.8312614886,19667498.011789028,1643.3382039851272,1929.4986960454103,-1224.2835107763,142028.95974961942,-0.00199253112077713,0.000000016763806343078613,0.000000007450580596923828,-0.00000011920928955078125,-0.000000059604644775390625,110592.0,16384.0,-262144.0,-65536.0
Raw,1774277400999,6344414136,18,0.0,-1458312612655585792,0.0,50.034610748291016,62211.265625,0.0,0,19,0.0,239,64200933060168,16,32.70000076293945,60.75568771362305,0.13032881915569305,22,-134.63741942604247,0.09215550802499055,1603687600,,,,0,31.0,3,3.9000000953674316,27.700000762939453,0.0,0.0,0.0,0.0,C,1054323564666988,,,,,,,,,,0.000000016763806343078613,0.000000007450580596923828,-0.00000011920928955078125,-0.000000059604644775390625,110592.0,16384.0,-262144.0,-65536.0
Raw,1774277400999,6344414136,18,0.0,-1458312612655585792,0.0,50.034610748291016,62211.265625,0.0,0,30,0.0,815,139804925176588,17,31.700000762939453,7.455667972564697,0.14027409255504608,20,-17.69144701831101,0.09918781084567307,1561098000,,,,0,27.899999618530273,5,3.9000000953674316,26.700000762939453,0.0,0.0,0.0,0.0,C,1054323564666988,,14070318.556408908,-10185171.87310175,21820952.510170925,507.3727288892152,2448.07947564301,816.8607547744451,123678.93016549932,0.002316933445399627,0.000000016763806343078613,0.000000007450580596923828,-0.00000011920928955078125,-0.000000059604644775390625,110592.0,16384.0,-262144.0,-65536.0
Raw,1774277400999,6344414136,18,0.0,-1458312612655585792,0.0,50.034610748291016,62211.265625,0.0,0,36,0.0,815,139804917215282,18,30.899999618530273,610.0645141601562,0.1490735113620758,20,-1461.1092310633248,0.1054098798841238,1561098000,,,,0,26.399999618530273,5,3.9000000953674316,25.899999618530273,0.0,0.0,0.0,0.0,C,1054323564666988,,13141996.669273678,-21497056.281340092,12031274.306544177,1167.6816536934125,-737.8081495651662,-2595.86596661241,88190.00430952603,-0.000714979410986416,0.000000016763806343078613,0.000000007450580596923828,-0.00000011920928955078125,-0.000000059604644775390625,110592.0,16384.0,-262144.0,-65536.0
Raw,1774277400999,6344414136,18,0.0,-1458312612655585792,0.0,50.034610748291016,62211.265625,0.0,0,10,0.0,239,64200924961591,19,29.799999237060547,43.85646438598633,0.16259105503559113,20,-109.5982735503203,0.11496813501566648,1598062500,,,,0,24.399999618530273,3,3.9000000953674316,24.799999237060547,0.0,0.0,0.0,0.0,C,1054323564666988,,,,,,,,,,0.000000016763806343078613,0.000000007450580596923828,-0.00000011920928955078125,-0.000000059604644775390625,110592.0,16384.0,-262144.0,-65536.0
Raw,1774277400999,6344414136,18,0.0,-1458312612655585792,0.0,50.034610748291016,62211.265625,0.0,0,28,0.0,815,139804917189885,23,27.399999618530273,823.9808349609375,0.19929847121238708,20,-1973.609967247743,0.1409239489942789,1561098000,,,,0,20.299999237060547,5,3.9000000953674316,22.399999618530273,0.0,0.0,0.0,0.0,C,1054323564666988,,9868647.682475837,24627856.97642614,8659682.636075543,-8.216874754846685,1001.8824399850436,-2839.517342305851,149320.83509158375,0.0014215725532267243,0.000000016763806343078613,0.000000007450580596923828,-0.00000011920928955078125,-0.000000059604644775390625,110592.0,16384.0,-262144.0,-65536.0
Raw,1774277400999,6344414136,18,0.0,-1458312612655585792,0.0,50.034610748291016,62211.265625,0.0,0,27,0.0,815,139804926924305,32,23.0,553.6474609375,0.3086419701576233,16,0.0,0.2182407370984554,1561098000,,,,0,21.799999237060547,5,3.9000000953674316,18.0,0.0,0.0,0.0,0.0,C,1054323564666988,,15822122.69885167,12336112.174352568,19374722.835262865,234.9407044085531,2209.3082067725372,-1595.9181007306856,183093.77972951447,0.0013648535823449492,0.000000016763806343078613,0.000000007450580596923828,-0.00000011920928955078125,-0.000000059604644775390625,110592.0,16384.0,-262144.0,-65536.0
Raw,1774277400999,6344414136,18,0.0,-1458312612655585792,0.0,50.034610748291016,62211.265625,0.0,0,4,0.0,239,64200926019322,32,23.200000762939453,-446.6133117675781,0.3018958866596222,20,488.6429476965968,0.21347058145701883,1605375000,,,,0,20.5,3,3.9000000953674316,18.200000762939453,0.0,0.0,0.0,0.0,C,1054323564666988,,,,,,,,,,0.000000016763806343078613,0.000000007450580596923828,-0.00000011920928955078125,-0.000000059604644775390625,110592.0,16384.0,-262144.0,-65536.0
Raw,1774277400999,6344414136,18,0.0,-1458312612655585792,0.0,50.034610748291016,62211.265625,0.0,0,21,0.0,7215,139818918411750,29,24.100000381469727,588.0172729492188,0.27411526441574097,20,-1408.1996296021825,0.19382690346837042,1575420000,,,,0,17.200000762939453,6,3.9000000953674316,19.100000381469727,0.0,0.0,0.0,0.0,C,1054323564666988,,25519551.190708954,-8505837.940892408,12346811.544357117,1239.3106717249773,-46.202326731521275,-2591.811453110292,-218872.05617817678,-0.0008203854958992451,0.000000016763806343078613,0.000000007450580596923828,-0.00000011920928955078125,-0.000000059604644775390625,110592.0,16384.0,-262144.0,-65536.0
Raw,1774277400999,6344414136,18,0.0,-1458312612655585792,0.0,50.034610748291016,62211.265625,0.0,0,17,0.0,239,64200921224703,30,23.799999237060547,915.3275146484375,0.28293347358703613,16,0.0,0.20006225917339324,1604250000,,,,0,0.0,3,3.9000000953674316,18.799999237060547,0.0,0.0,0.0,0.0,C,1054323564666988,,,,,,,,,,0.000000016763806343078613,0.000000007450580596923828,-0.00000011920928955078125,-0.000000059604644775390625,110592.0,16384.0,-262144.0,-65536.0
Raw,1774277402000,7344415236,18,0.0,-1458312612655584768,0.0,50.034610748291016,62211.65625,0.0,0,2,0.0,47,139819928726570,12,37.400001525878906,56.55123519897461,0.09525986015796661,17,-221.9428484756645,0.0673582471176982,1575420000,,,,0,28.799999237060547,1,3.9000000953674316,32.400001525878906,0.0,0.0,0.0,0.0,C,1054324560245718,,15999998.046396995,-11102260.16412085,18186403.33012414,-403.5051107852569,2222.4394540331236,1805.1779129213446,19119.929830604167,0.0026771924312924966,0.000000016763806343078613,0.000000007450580596923828,-0.00000011920928955078125,-0.000000059604644775390625,110592.0,16384.0,-262144.0,-65536.0
Raw,1774277402000,7344415236,18,0.0,-1458312612655584768,0.0,50.034610748291016,62211.65625,0.0,0,32,0.0,47,139819920973712,13,36.099998474121094,-154.62353515625,0.1033901646733284,17,701.0319387480122,0.07310718544051051,1575420000,,,,0,32.0,1,3.9000000953674316,31.100000381469727,0.0,0.0,0.0,0.0,C,1054324560245718,,15883796.114537738,21274675.28166682,2707518.1014507483,-383.57058810447603,-76.1114876083354,3154.404835721158,-10340.753941547136,0.006132461692686775,0.000000016763806343078613,0.000000007450580596923828,-0.00000011920928955078125,-0.000000059604644775390625,110592.0,16384.0,-262144.0,-65536.0
Raw,1774277402000,7344415236,18,0.0,-1458312612655584768,0.0,50.034610748291016,62211.65625,0.0,0,1,0.0,47,139819921373513,23,26.899999618530273,-216.97616577148438,0.20850275456905365,20,881.4684050585929,0.14743229775577782,1575420000,,,,0,19.100000381469727,1,3.9000000953674316,21.899999618530273,0.0,0.0,0.0,0.0,C,1054324560245718,,15192776.858363029,-20198679.32378282,8024834.300226186,-163.70648318765842,1046.6417015993268,2949.518201938087,93618.07438938819,-0.002271704390295781,0.000000016763806343078613,0.000000007450580596923828,-0.00000011920928955078125,-0.000000059604644775390625,110592.0,16384.0,-262144.0,-65536.0
Raw,1774277402000,7344415236,18,0.0,-1458312612655584768,0.0,50.034610748291016,62211.65625,0.0,0,23,0.0,47,139819921978459,27,25.200000762939453,935.0963134765625,0.24507398903369904,20,-3177.0735227210025,0.17329181764572857,1575420000,,,,0,18.5,1,3.9000000953674316,20.200000762939453,0.0,0.0,0.0,0.0,C,1054324560245718,,-2444041.336541336,15105054.685806729,21748049.246258173,-2696.2406200644227,490.3230590380439,-671.629209193505,188127.82839826503,0.001479985861806199,0.000000016763806343078613,0.000000007450580596923828,-0.00000011920928955078125,-0.000000059604644775390625,110592.0,16384.0,-262144.0,-65536.0
Raw,1774277402000,7344415236,18,0.0,-1458312612655584768,0.0,50.034610748291016,62211.65625,0.0,0,27,0.0,47,139819931211582,29,24.299999237060547,664.0877075195312,0.2684636116027832,20,-1327.8492018644683,0.189830619764328,1575420000,,,,0,20.899999618530273,1,3.9000000953674316,19.299999237060547,0.0,0.0,0.0,0.0,C,1054324560245718,,20853499.449504677,8935838.148807272,13793246.734399276,1018.3778468112502,1497.7570899894044,-2402.6053818405585,-23546.642270360408,-0.004055625158798648,0.000000016763806343078613,0.000000007450580596923828,-0.00000011920928955078125,-0.000000059604644775390625,110592.0,16384.0,-262144.0,-65536.0
Raw,1774277402000,7344415236,18,0.0,-1458312612655584768,0.0,50.034610748291016,62211.65625,0.0,0,8,0.0,47,139819932821190,28,24.799999237060547,245.55874633789062,0.25507602095603943,20,-827.4337795679967,0.18036425441801546,1575420000,,,,0,20.100000381469727,1,3.9000000953674316,19.799999237060547,0.0,0.0,0.0,0.0,C,1054324560245718,,17683169.551611528,-1965280.4360043379,19666273.517737675,1643.3358070074848,1929.290586007091,-1224.7038084063802,142028.95775717188,-0.001992362638702616,0.000000016763806343078613,0.000000007450580596923828,-0.00000011920928955078125,-0.000000059604644775390625,110592.0,16384.0,-262144.0,-65536.0
Raw,1774277402000,7344415236,18,0.0,-1458312612655584768,0.0,50.034610748291016,62211.65625,0.0,0,19,0.0,239,64201933061098,15,33.29999923706055,60.73442840576172,0.12486109882593155,17,-184.13854092411202,0.0882892829798162,1603687600,,,,0,29.100000381469727,3,3.9000000953674316,28.299999237060547,0.0,0.0,0.0,0.0,C,1054324560245718,,,,,,,,,,0.000000016763806343078613,0.000000007450580596923828,-0.00000011920928955078125,-0.000000059604644775390625,110592.0,16384.0,-262144.0,-65536.0
Raw,1774277402000,7344415236,18,0.0,-1458312612655584768,0.0,50.034610748291016,62211.65625,0.0,0,30,0.0,815,139805925177663,17,31.700000762939453,6.821934700012207,0.14027409255504608,20,-23.559288473814377,0.09918781084567307,1561098000,,,,0,25.299999237060547,5,3.9000000953674316,26.700000762939453,0.0,0.0,0.0,0.0,C,1054324560245718,,14070826.016377708,-10182723.761530843,21821769.17134266,507.54611799212984,2448.1383931990076,816.4598303912654,123678.93248243717,0.002316937272553332,0.000000016763806343078613,0.000000007450580596923828,-0.00000011920928955078125,-0.000000059604644775390625,110592.0,16384.0,-262144.0,-65536.0
Raw,1774277402000,7344415236,18,0.0,-1458312612655584768,0.0,50.034610748291016,62211.65625,0.0,0,36,0.0,815,139805917214337,18,30.899999618530273,610.2296142578125,0.1490735113620758,20,-2070.147976957778,0.1054098798841238,1561098000,,,,0,25.600000381469727,5,3.9000000953674316,25.899999618530273,0.0,0.0,0.0,0.0,C,1054324560245718,,13143164.210634608,-21497794.0342565,12028678.332859427,1167.4032749774074,-737.6990692132763,-2596.086301400579,88190.00359454568,-0.0007149826269596815,0.000000016763806343078613,0.000000007450580596923828,-0.00000011920928955078125,-0.000000059604644775390625,110592.0,16384.0,-262144.0,-65536.0
Raw,1774277402000,7344415236,18,0.0,-1458312612655584768,0.0,50.034610748291016,62211.65625,0.0,0,10,0.0,239,64201924962615,19,29.799999237060547,44.49065399169922,0.16259105503559113,20,-130.91273778356117,0.11496813501566648,1598062500,,,,0,21.299999237060547,3,3.9000000953674316,24.799999237060547,0.0,0.0,0.0,0.0,C,1054324560245718,,,,,,,,,,0.000000016763806343078613,0.000000007450580596923828,-0.00000011920928955078125,-0.000000059604644775390625,110592.0,16384.0,-262144.0,-65536.0
Raw,1774277402000,7344415236,18,0.0,-1458312612655584768,0.0,50.034610748291016,62211.65625,0.0,0,28,0.0,815,139805917188202,23,27.299999237060547,821.8698120117188,0.20108991861343384,20,-2794.995821450422,0.14219068145155905,1561098000,,,,0,23.600000381469727,5,3.9000000953674316,22.299999237060547,0.0,0.0,0.0,0.0,C,1054324560245718,,9868639.474424977,24628858.697457142,8656843.044112828,-8.1992623322367,1001.5629912062379,-2839.6761325414586,149320.83651315406,0.0014215727569535375,0.000000016763806343078613,0.000000007450580596923828,-0.00000011920928955078125,-0.000000059604644775390625,110592.0,16384.0,-262144.0,-65536.0
Raw,1774277402000,7344415236,18,0.0,-1458312612655584768,0.0,50.034610748291016,62211.65625,0.0,0,27,0.0,815,139805926923517,26,25.600000381469727,553.7210083007812,0.235648974776268,20,-552.6057954573807,0.1666273900642991,1561098000,,,,0,22.100000381469727,5,3.9000000953674316,20.600000381469727,0.0,0.0,0.0,0.0,C,1054324560245718,,15822357.69721694,12338321.383172324,19373126.740441564,235.05639124472066,2209.112906850756,-1596.2740524348949,183093.78109437,0.0013648596359416842,0.000000016763806343078613,0.000000007450580596923828,-0.00000011920928955078125,-0.000000059604644775390625,110592.0,16384.0,-262144.0,-65536.0
Raw,1774277402000,7344415236,18,0.0,-1458312612655584768,0.0,50.034610748291016,62211.65625,0.0,0,17,0.0,239,64201921222610,26,25.299999237060547,915.0623779296875,0.24266545474529266,20,-955.7877704830644,0.17158874305039643,1604250000,,,,0,21.600000381469727,3,3.9000000953674316,20.299999237060547,0.0,0.0,0.0,0.0,C,1054324560245718,,,,,,,,,,0.000000016763806343078613,0.000000007450580596923828,-0.00000011920928955078125,-0.000000059604644775390625,110592.0,16384.0,-262144.0,-65536.0
Raw,1774277402000,7344415236,18,0.0,-1458312612655584768,0.0,50.034610748291016,62211.65625,0.0,0,21,0.0,7215,139819918410859,29,24.100000381469727,588.4278564453125,0.27411526441574097,20,-1995.37542300723,0.19382690346837042,1575420000,,,,0,21.600000381469727,6,3.9000000953674316,19.100000381469727,0.0,0.0,0.0,0.0,C,1054324560245718,,25520790.368600674,-8505884.190777658,12344219.64030325,1239.0473155237967,-46.29751978460679,-2592.0012667540586,-218872.0569985606,-0.0008203836041502655,0.000000016763806343078613,0.000000007450580596923828,-0.00000011920928955078125,-0.000000059604644775390625,110592.0,16384.0,-262144.0,-65536.0
Raw,1774277402000,7344415236,18,0.0,-1458312612655584768,0.0,50.034610748291016,62211.65625,0.0,0,4,0.0,239,64201926021812,31,23.600000381469727,-447.1343994140625,0.28905072808265686,20,906.7388617518372,0.20438776982724666,1605375000,,,,0,19.5,3,3.9000000953674316,18.600000381469727,0.0,0.0,0.0,0.0,C,1054324560245718,,,,,,,,,,0.000000016763806343078613,0.000000007450580596923828,-0.00000011920928955078125,-0.000000059604644775390625,110592.0,16384.0,-262144.0,-65536.0
Raw,1774277402000,7344415236,18,0.0,-1458312612655584768,0.0,50.034610748291016,62211.65625,0.0,0,9,0.0,239,64201928770920,25,25.899999618530273,678.1637573242188,0.2289324849843979,16,0.0,0.16187816013246772,1600875000,,,,0,0.0,3,3.9000000953674316,20.899999618530273,0.0,0.0,0.0,0.0,C,1054324560245718,,,,,,,,,,0.000000016763806343078613,0.000000007450580596923828,-0.00000011920928955078125,-0.000000059604644775390625,110592.0,16384.0,-262144.0,-65536.0
Raw,1774277403000,8344416336,18,0.0,-1458312612655583744,0.0,10.082616806030273,62211.953125,0.0,0,2,0.0,47,139820928727472,12,37.29999923706055,56.8036994934082,0.0958506315946579,16,0.0,0.0677759816005826,1575420000,,,,0,29.100000381469727,1,2.5999999046325684,32.29999923706055,0.0,0.0,0.0,0.0,C,1054325562878833,,15999594.57700294,-11100037.605820067,18188208.31806149,-403.43294230821596,2222.6731302429343,1804.7946997437957,19119.93250791863,0.002677431664778851,0.000000016763806343078613,0.000000007450580596923828,-0.00000011920928955078125,-0.000000059604644775390625,110592.0,16384.0,-262144.0,-65536.0
Raw,1774277403000,8344416336,18,0.0,-1458312612655583744,0.0,10.082616806030273,62211.953125,0.0,0,32,0.0,47,139820920975328,13,36.099998474121094,-154.40374755859375,0.1033901646733284,16,0.0,0.07310718544051051,1575420000,,,,0,30.5,1,2.5999999046325684,31.100000381469727,0.0,0.0,0.0,0.0,C,1054325562878833,,15883412.413449848,21274599.03151082,2710672.4829780296,-383.8303531398798,-76.38857116278211,3154.3480130436733,-10340.74780901752,0.006132577722382848,0.000000016763806343078613,0.000000007450580596923828,-0.00000011920928955078125,-0.000000059604644775390625,110592.0,16384.0,-262144.0,-65536.0
Raw,1774277403000,8344416336,18,0.0,-1458312612655583744,0.0,10.082616806030273,62211.953125,0.0,0,1,0.0,47,139820921375297,24,26.799999237060547,-219.3948516845703,0.21042001247406006,16,0.0,0.14878799082040786,1575420000,,,,0,23.399999618530273,1,2.5999999046325684,21.799999237060547,0.0,0.0,0.0,0.0,C,1054325562878833,,15192613.105930235,-20197632.506089605,8027783.737891657,-163.79778923800336,1046.9899491543981,2949.3465948779103,93618.07211768284,-0.002271698205731809,0.000000016763806343078613,0.000000007450580596923828,-0.00000011920928955078125,-0.000000059604644775390625,110592.0,16384.0,-262144.0,-65536.0
Raw,1774277403000,8344416336,18,0.0,-1458312612655583744,0.0,10.082616806030273,62211.953125,0.0,0,27,0.0,47,139820931210416,28,24.600000381469727,664.8352661132812,0.2603082060813904,16,0.0,0.18406393252015113,1575420000,,,,0,20.299999237060547,1,2.5999999046325684,19.600000381469727,0.0,0.0,0.0,0.0,C,1054325562878833,,20854517.76878758,8937335.75850505,13790843.984941319,1018.263084344554,1497.4657970158328,-2402.899128410435,-23546.646325875805,-0.00405541509098839,0.000000016763806343078613,0.000000007450580596923828,-0.00000011920928955078125,-0.000000059604644775390625,110592.0,16384.0,-262144.0,-65536.0
Raw,1774277403000,8344416336,18,0.0,-1458312612655583744,0.0,10.082616806030273,62211.953125,0.0,0,8,0.0,47,139820932821510,28,24.600000381469727,244.7649383544922,0.2603082060813904,16,0.0,0.18406393252015113,1575420000,,,,0,22.5,1,2.5999999046325684,19.600000381469727,0.0,0.0,0.0,0.0,C,1054325562878833,,17684812.886723075,-1963351.248868824,19665048.60340026,1643.3333551951032,1929.0824451470858,-1225.124077758014,142028.95576489283,-0.0019921941857319325,0.000000016763806343078613,0.000000007450580596923828,-0.00000011920928955078125,-0.000000059604644775390625,110592.0,16384.0,-262144.0,-65536.0
Raw,1774277403000,8344416336,18,0.0,-1458312612655583744,0.0,10.082616806030273,62211.953125,0.0,0,23,0.0,47,139820921976400,27,25.100000381469727,935.8988647460938,0.2475186139345169,16,0.0,0.1750204119130969,1575420000,,,,0,17.399999618530273,1,2.5999999046325684,20.100000381469727,0.0,0.0,0.0,0.0,C,1054325562878833,,-2446737.5164421787,15105545.084558364,21747377.38792974,-2696.1302736283333,490.47645959246586,-672.0902122095133,188127.8298782046,0.0014798993070144206,0.000000016763806343078613,0.000000007450580596923828,-0.00000011920928955078125,-0.000000059604644775390625,110592.0,16384.0,-262144.0,-65536.0
Raw,1774277403000,8344416336,18,0.0,-1458312612655583744,0.0,10.082616806030273,62211.953125,0.0,0,16,0.0,46,139820919883651,42,20.299999237060547,1055.2462158203125,0.42718610167503357,16,0.0,0.3020632924944162,1575420000,,,,0,17.299999237060547,1,2.5999999046325684,15.300000190734863,0.0,0.0,0.0,0.0,C,1054325562878833,,26145881.884828173,1788071.2898730943,-5950398.430234369,-672.1212779105348,300.24512165807283,-3023.8529591984898,69340.42724325041,0.0033156458666780964,0.000000016763806343078613,0.000000007450580596923828,-0.00000011920928955078125,-0.000000059604644775390625,110592.0,16384.0,-262144.0,-65536.0
Raw,1774277403000,8344416336,18,0.0,-1458312612655583744,0.0,10.082616806030273,62211.953125,0.0,0,19,0.0,239,64202933061929,15,33.599998474121094,60.891441345214844,0.1222553625702858,16,0.0,0.08644676687344909,1603687600,,,,0,30.5,3,2.5999999046325684,28.600000381469727,0.0,0.0,0.0,0.0,C,1054325562878833,,,,,,,,,,0.000000016763806343078613,0.000000007450580596923828,-0.00000011920928955078125,-0.000000059604644775390625,110592.0,16384.0,-262144.0,-65536.0
Raw,1774277403000,8344416336,18,0.0,-1458312612655583744,0.0,10.082616806030273,62211.953125,0.0,0,30,0.0,815,139806925178742,17,31.700000762939453,8.054215431213379,0.14027409255504608,16,0.0,0.09918781084567307,1561098000,,,,0,25.100000381469727,5,2.5999999046325684,26.700000762939453,0.0,0.0,0.0,0.0,C,1054325562878833,,14071333.649738817,-10180275.591061182,21822585.431585368,507.7195090943429,2448.197253488155,816.0588910591445,123678.9347993789,0.0023169411288108677,0.000000016763806343078613,0.000000007450580596923828,-0.00000011920928955078125,-0.000000059604644775390625,110592.0,16384.0,-262144.0,-65536.0
Raw,1774277403000,8344416336,18,0.0,-1458312612655583744,0.0,10.082616806030273,62211.953125,0.0,0,36,0.0,815,139806917213400,17,31.200000762939453,610.12353515625,0.14567914605140686,16,0.0,0.10300972417294979,1561098000,,,,0,27.200000762939453,5,2.5999999046325684,26.200000762939453,0.0,0.0,0.0,0.0,C,1054325562878833,,13144331.473626835,-21498531.67807342,12026082.138843047,1167.1248969698704,-737.5899386236797,-2596.3065886704508,88190.00287956212,-0.000714985842932947,0.000000016763806343078613,0.000000007450580596923828,-0.00000011920928955078125,-0.000000059604644775390625,110592.0,16384.0,-262144.0,-65536.0
Raw,1774277403000,8344416336,18,0.0,-1458312612655583744,0.0,10.082616806030273,62211.953125,0.0,0,9,0.0,239,64202928769713,20,29.100000381469727,677.8345947265625,0.17217335104942322,16,0.0,0.12174377652704715,1600875000,,,,0,28.0,3,2.5999999046325684,24.100000381469727,0.0,0.0,0.0,0.0,C,1054325562878833,,,,,,,,,,0.000000016763806343078613,0.000000007450580596923828,-0.00000011920928955078125,-0.000000059604644775390625,110592.0,16384.0,-262144.0,-65536.0
Raw,1774277403000,8344416336,18,0.0,-1458312612655583744,0.0,10.082616806030273,62211.953125,0.0,0,10,0.0,239,64202924963565,19,29.700000762939453,44.997650146484375,0.16391023993492126,16,0.0,0.11590093065798282,1598062500,,,,0,23.200000762939453,3,2.5999999046325684,24.700000762939453,0.0,0.0,0.0,0.0,C,1054325562878833,,,,,,,,,,0.000000016763806343078613,0.000000007450580596923828,-0.00000011920928955078125,-0.000000059604644775390625,110592.0,16384.0,-262144.0,-65536.0
Raw,1774277403000,8344416336,18,0.0,-1458312612655583744,0.0,10.082616806030273,62211.953125,0.0,0,28,0.0,815,139806917186607,23,27.200000762939453,823.0966186523438,0.2029055953025818,16,0.0,0.14347454643845556,1561098000,,,,0,20.799999237060547,5,2.5999999046325684,22.200000762939453,0.0,0.0,0.0,0.0,C,1054325562878833,,9868631.283962565,24629860.09912019,8654003.293136295,-8.181696394531372,1001.2435267885364,-2839.8348707135465,149320.83793472464,0.0014215729606803507,0.000000016763806343078613,0.000000007450580596923828,-0.00000011920928955078125,-0.000000059604644775390625,110592.0,16384.0,-262144.0,-65536.0
Raw,1774277403000,8344416336,18,0.0,-1458312612655583744,0.0,10.082616806030273,62211.953125,0.0,0,27,0.0,815,139806926922799,26,25.600000381469727,552.697509765625,0.235648974776268,16,0.0,0.1666273900642991,1561098000,,,,0,19.799999237060547,5,2.5999999046325684,20.600000381469727,0.0,0.0,0.0,0.0,C,1054325562878833,,15822592.811269654,12340530.396824123,19371530.289571766,235.1720465818087,2208.9175612481968,-1596.6299747777405,183093.78245923165,0.0013648656022269279,0.000000016763806343078613,0.000000007450580596923828,-0.00000011920928955078125,-0.000000059604644775390625,110592.0,16384.0,-262144.0,-65536.0
Raw,1774277403000,8344416336,18,0.0,-1458312612655583744,0.0,10.082616806030273,62211.953125,0.0,0,21,0.0,7215,139820918410050,28,24.700000762939453,587.6124877929688,0.25767216086387634,16,0.0,0.18219998494684694,1575420000,,,,0,18.200000762939453,6,2.5999999046325684,19.700000762939453,0.0,0.0,0.0,0.0,C,1054325562878833,,25522029.283224832,-8505930.535840308,12341627.546243276,1238.7839329764174,-46.39267397511473,-2592.1910405530666,-218872.05781894262,-0.0008203817415051162,0.000000016763806343078613,0.000000007450580596923828,-0.00000011920928955078125,-0.000000059604644775390625,110592.0,16384.0,-262144.0,-65536.0
Raw,1774277403000,8344416336,18,0.0,-1458312612655583744,0.0,10.082616806030273,62211.953125,0.0,0,17,0.0,239,64202921220622,27,25.200000762939453,915.1124877929688,0.24507398903369904,16,0.0,0.17329181764572857,1604250000,,,,0,18.100000381469727,3,2.5999999046325684,20.200000762939453,0.0,0.0,0.0,0.0,C,1054325562878833,,,,,,,,,,0.000000016763806343078613,0.000000007450580596923828,-0.00000011920928955078125,-0.000000059604644775390625,110592.0,16384.0,-262144.0,-65536.0
Raw,1774277403000,8344416336,18,0.0,-1458312612655583744,0.0,10.082616806030273,62211.953125,0.0,0,4,0.0,239,64202926024376,31,23.600000381469727,-447.2909240722656,0.28905072808265686,16,0.0,0.20438776982724666,1605375000,,,,0,18.5,3,2.5999999046325684,18.600000381469727,0.0,0.0,0.0,0.0,C,1054325562878833,,,,,,,,,,0.000000016763806343078613,0.000000007450580596923828,-0.00000011920928955078125,-0.000000059604644775390625,110592.0,16384.0,-262144.0,-65536.0
Raw,1774277404000,9344417496,18,0.0,-1458312612655582464,0.0,10.082616806030273,62212.7734375,0.0,0,32,0.0,47,139821920976997,13,36.099998474121094,-154.34190368652344,0.1033901646733284,20,155.50673235989962,0.07310718544051051,1575420000,,,,0,24.299999237060547,1,3.9000000953674316,31.100000381469727,0.0,0.0,0.0,0.0,C,1054326560749602,,15883028.45255949,21274522.5042871,2713826.8078167397,-384.09015142147575,-76.66561408654128,3154.2911243970166,-10340.741676371545,0.0061326937429839745,0.000000016763806343078613,0.000000007450580596923828,-0.00000011920928955078125,-0.000000059604644775390625,110592.0,16384.0,-262144.0,-65536.0
Raw,1774277404000,9344417496,18,0.0,-1458312612655582464,0.0,10.082616806030273,62212.7734375,0.0,0,1,0.0,47,139821921377212,24,26.700000762939453,-220.07774353027344,0.21236379444599152,20,220.78596229143295,0.15016243905276058,1575420000,,,,0,21.200000762939453,1,3.9000000953674316,21.700000762939453,0.0,0.0,0.0,0.0,C,1054326560749602,,15192449.262196496,-20196585.340012815,8030733.00430459,-163.88904181245573,1047.338193163532,2949.174924772087,93618.06984598341,-0.0022716919775120914,0.000000016763806343078613,0.000000007450580596923828,-0.00000011920928955078125,-0.000000059604644775390625,110592.0,16384.0,-262144.0,-65536.0
Raw,1774277404000,9344417496,18,0.0,-1458312612655582464,0.0,10.082616806030273,62212.7734375,0.0,0,8,0.0,47,139821932821874,28,24.600000381469727,245.2711639404297,0.2603082060813904,20,-244.02930212728825,0.18406393252015113,1575420000,,,,0,18.899999618530273,1,3.9000000953674316,19.600000381469727,0.0,0.0,0.0,0.0,C,1054326560749602,,17686456.2194277,-1961422.2698048148,19663823.26875357,1643.3308485437997,1928.8742734683929,-1225.544318840114,142028.95377278217,-0.0019920257036574185,0.000000016763806343078613,0.000000007450580596923828,-0.00000011920928955078125,-0.000000059604644775390625,110592.0,16384.0,-262144.0,-65536.0
Raw,1774277404000,9344417496,18,0.0,-1458312612655582464,0.0,10.082616806030273,62212.7734375,0.0,0,27,0.0,47,139821931209370,28,24.600000381469727,664.9227905273438,0.2603082060813904,20,-663.7468114566072,0.18406393252015113,1575420000,,,,0,17.700000762939453,1,3.9000000953674316,19.600000381469727,0.0,0.0,0.0,0.0,C,1054326560749602,,20855535.973402333,8938833.077086892,13788440.941475242,1018.1482658905068,1497.174498013787,-2403.1928219995075,-23546.650381181626,-0.004055205026816111,0.000000016763806343078613,0.000000007450580596923828,-0.00000011920928955078125,-0.000000059604644775390625,110592.0,16384.0,-262144.0,-65536.0
Raw,1774277404000,9344417496,18,0.0,-1458312612655582464,0.0,10.082616806030273,62212.7734375,0.0,0,23,0.0,47,139821921974405,27,25.0,935.9502563476562,0.25,20,-934.7357335571214,0.176775,1575420000,,,,0,17.200000762939453,1,3.9000000953674316,20.0,0.0,0.0,0.0,0.0,C,1054326560749602,,-2449433.5861367006,15106035.636729289,21746705.06856273,-2696.019861875824,490.6298354363885,-672.5512022114536,188127.83135805762,0.0014798127813264728,0.000000016763806343078613,0.000000007450580596923828,-0.00000011920928955078125,-0.000000059604644775390625,110592.0,16384.0,-262144.0,-65536.0
Raw,1774277404000,9344417496,18,0.0,-1458312612655582464,0.0,10.082616806030273,62212.7734375,0.0,0,2,0.0,46,139821928728434,13,37.0,56.962337493896484,0.09765625,20,-55.669684458152915,0.069052734375,1575420000,,,,0,25.100000381469727,1,3.9000000953674316,32.0,0.0,0.0,0.0,0.0,C,1054326560749602,,15999191.17977468,-11097814.813733064,18190012.92287596,-403.36073096223515,2222.9067592443052,1804.411451283646,19119.93518547249,0.0026776708909892477,0.000000016763806343078613,0.000000007450580596923828,-0.00000011920928955078125,-0.000000059604644775390625,110592.0,16384.0,-262144.0,-65536.0
Raw,1774277404000,9344417496,18,0.0,-1458312612655582464,0.0,10.082616806030273,62212.7734375,0.0,0,16,0.0,47,139821919881306,42,20.299999237060547,1055.385498046875,0.42718610167503357,20,-1054.2691015150413,0.3020632924944162,1575420000,,,,0,13.199999809265137,1,3.9000000953674316,15.300000190734863,0.0,0.0,0.0,0.0,C,1054326560749602,,26145209.58804146,1788371.5697017442,-5953422.214972948,-672.4754448235803,300.3159519138993,-3023.7306893393575,69340.43055895406,0.003315776979434304,0.000000016763806343078613,0.000000007450580596923828,-0.00000011920928955078125,-0.000000059604644775390625,110592.0,16384.0,-262144.0,-65536.0
Raw,1774277404000,9344417496,18,0.0,-1458312612655582464,0.0,10.082616806030273,62212.7734375,0.0,0,19,0.0,239,64203933062863,15,33.70000076293945,61.116943359375,0.12140488624572754,20,-66.95552328191843,0.08584539506435394,1603687600,,,,0,27.200000762939453,3,3.9000000953674316,28.700000762939453,0.0,0.0,0.0,0.0,C,1054326560749602,,,,,,,,,,0.000000016763806343078613,0.000000007450580596923828,-0.00000011920928955078125,-0.000000059604644775390625,110592.0,16384.0,-262144.0,-65536.0
Raw,1774277404000,9344417496,18,0.0,-1458312612655582464,0.0,10.082616806030273,62212.7734375,0.0,0,30,0.0,815,139807925179878,17,31.600000381469727,7.020113468170166,0.1413307636976242,20,-6.128275896982814,0.09993498301059008,1561098000,,,,0,23.5,5,3.9000000953674316,26.600000381469727,0.0,0.0,0.0,0.0,C,1054326560749602,,14071841.456521159,-10177827.36162024,21823401.290927336,507.8929021944339,2448.2560565125164,815.6579367642095,123678.93711632457,0.0023169449559645727,0.000000016763806343078613,0.000000007450580596923828,-0.00000011920928955078125,-0.000000059604644775390625,110592.0,16384.0,-262144.0,-65536.0
Raw,1774277404000,9344417496,18,0.0,-1458312612655582464,0.0,10.082616806030273,62212.7734375,0.0,0,36,0.0,815,139807917212542,17,31.200000762939453,610.6091918945312,0.14567914605140686,20,-609.3337921012208,0.10300972417294979,1561098000,,,,0,23.600000381469727,5,3.9000000953674316,26.200000762939453,0.0,0.0,0.0,0.0,C,1054326560749602,,13145498.458333835,-21499269.212792993,12023485.724358257,1166.8465196619734,-737.4807577901331,-2596.526828433612,88190.0021645753,-0.0007149890589062124,0.000000016763806343078613,0.000000007450580596923828,-0.00000011920928955078125,-0.000000059604644775390625,110592.0,16384.0,-262144.0,-65536.0
Raw,1774277404000,9344417496,18,0.0,-1458312612655582464,0.0,10.082616806030273,62212.7734375,0.0,0,9,0.0,239,64203928768653,19,29.600000381469727,678.0433349609375,0.16524554789066315,20,-664.8992016684278,0.1168451269134879,1600875000,,,,0,28.5,3,3.9000000953674316,24.600000381469727,0.0,0.0,0.0,0.0,C,1054326560749602,,,,,,,,,,0.000000016763806343078613,0.000000007450580596923828,-0.00000011920928955078125,-0.000000059604644775390625,110592.0,16384.0,-262144.0,-65536.0
Raw,1774277404000,9344417496,18,0.0,-1458312612655582464,0.0,10.082616806030273,62212.7734375,0.0,0,10,0.0,239,64203924964539,19,29.600000381469727,45.208534240722656,0.16524554789066315,20,-55.22378401793685,0.1168451269134879,1598062500,,,,0,18.700000762939453,3,3.9000000953674316,24.600000381469727,0.0,0.0,0.0,0.0,C,1054326560749602,,,,,,,,,,0.000000016763806343078613,0.000000007450580596923828,-0.00000011920928955078125,-0.000000059604644775390625,110592.0,16384.0,-262144.0,-65536.0
Raw,1774277404000,9344417496,18,0.0,-1458312612655582464,0.0,10.082616806030273,62212.7734375,0.0,0,28,0.0,815,139807917185013,23,27.100000381469727,824.167236328125,0.20474600791931152,20,-822.6275177817806,0.14477590219974518,1561098000,,,,0,19.5,5,3.9000000953674316,22.100000381469727,0.0,0.0,0.0,0.0,C,1054326560749602,,9868623.111042788,24630861.181312535,8651163.383445017,-8.164176945771914,1000.9240467706647,-2839.993556805389,149320.8393562954,0.0014215731353033334,0.000000016763806343078613,0.000000007450580596923828,-0.00000011920928955078125,-0.000000059604644775390625,110592.0,16384.0,-262144.0,-65536.0
Raw,1774277404000,9344417496,18,0.0,-1458312612655582464,0.0,10.082616806030273,62212.7734375,0.0,0,27,0.0,815,139807926922137,26,25.600000381469727,552.1796264648438,0.235648974776268,20,-551.3490113090738,0.1666273900642991,1561098000,,,,0,15.0,5,3.9000000953674316,20.600000381469727,0.0,0.0,0.0,0.0,C,1054326560749602,,15822828.040975058,12342739.215231277,19369933.482705154,235.28767041003982,2208.7221699747515,-1596.985867747693,183093.78382409937,0.0013648716267198324,0.000000016763806343078613,0.000000007450580596923828,-0.00000011920928955078125,-0.000000059604644775390625,110592.0,16384.0,-262144.0,-65536.0
Raw,1774277404000,9344417496,18,0.0,-1458312612655582464,0.0,10.082616806030273,62212.7734375,0.0,0,21,0.0,7215,139821918409260,28,24.700000762939453,587.4059448242188,0.25767216086387634,20,-586.4332778785392,0.18219998494684694,1575420000,,,,0,15.199999809265137,6,3.9000000953674316,19.700000762939453,0.0,0.0,0.0,0.0,C,1054326560749602,,25523267.93447704,-8505976.976038469,12339035.262380324,1238.5205241077451,-46.48778929224576,-2592.3807744924325,-218872.05863932281,-0.0008203799079637975,0.000000016763806343078613,0.000000007450580596923828,-0.00000011920928955078125,-0.000000059604644775390625,110592.0,16384.0,-262144.0,-65536.0
Raw,1774277404000,9344417496,18,0.0,-1458312612655582464,0.0,10.082616806030273,62212.7734375,0.0,0,17,0.0,239,64203921218889,27,25.100000381469727,914.6915283203125,0.2475186139345169,20,-866.7885884042844,0.1750204119130969,1604250000,,,,0,16.399999618530273,3,3.9000000953674316,20.100000381469727,0.0,0.0,0.0,0.0,C,1054326560749602,,,,,,,,,,0.000000016763806343078613,0.000000007450580596923828,-0.00000011920928955078125,-0.000000059604644775390625,110592.0,16384.0,-262144.0,-65536.0
Raw,1774277404000,9344417496,18,0.0,-1458312612655582464,0.0,10.082616806030273,62212.7734375,0.0,0,4,0.0,239,64203926027295,31,23.600000381469727,-446.5445556640625,0.28905072808265686,20,528.1288282800451,0.20438776982724666,1605375000,,,,0,17.600000381469727,3,3.9000000953674316,18.600000381469727,0.0,0.0,0.0,0.0,C,1054326560749602,,,,,,,,,,0.000000016763806343078613,0.000000007450580596923828,-0.00000011920928955078125,-0.000000059604644775390625,110592.0,16384.0,-262144.0,-65536.0
Raw,1774277404000,9344417496,18,0.0,-1458312612655582464,0.0,10.082616806030273,62212.7734375,0.0,0,33,0.0,815,139807915236699,38,21.299999237060547,770.255126953125,0.37637853622436523,20,-768.8553531426951,0.2661372629642486,1561098000,,,,0,16.700000762939453,5,3.9000000953674316,16.299999237060547,0.0,0.0,0.0,0.0,C,1054326560749602,,-4367645.956180978,14804394.055053947,23249938.181686085,-2464.393406571176,-983.2587906623837,165.97182697478127,-277603.43634407804,0.0010034458828158677,0.000000016763806343078613,0.000000007450580596923828,-0.00000011920928955078125,-0.000000059604644775390625,110592.0,16384.0,-262144.0,-65536.0
Raw,1774277405000,10344418596,18,0.0,-1458312612655581440,0.0,10.082616806030273,62212.125,0.0,0,32,0.0,47,139822920978619,14,35.5,-154.65634155273438,0.10749798268079758,20,311.1899493048186,0.07601182355359196,1575420000,,,,0,24.5,1,3.9000000953674316,30.5,0.0,0.0,0.0,0.0,C,1054327556590293,,15882644.231871925,21274445.700043898,2716981.0755854826,-384.3499829134517,-76.94261634287197,3154.2341697885167,-10340.73554360985,0.006132809754490154,0.000000016763806343078613,0.000000007450580596923828,-0.00000011920928955078125,-0.000000059604644775390625,110592.0,16384.0,-262144.0,-65536.0
Raw,1774277405000,10344418596,18,0.0,-1458312612655581440,0.0,10.082616806030273,62212.125,0.0,0,2,0.0,47,139822928729334,13,36.0,57.510372161865234,0.10405827313661575,20,-111.8549474617248,0.073579604934901,1575420000,,,,0,24.100000381469727,1,3.9000000953674316,31.0,0.0,0.0,0.0,0.0,C,1054327556590293,,15998787.854804244,-11095591.788178327,18191817.144312114,-403.2884767643643,2223.1403409995505,1804.028167596166,19119.937863265397,0.0026779101026477292,0.000000016763806343078613,0.000000007450580596923828,-0.00000011920928955078125,-0.000000059604644775390625,110592.0,16384.0,-262144.0,-65536.0
Raw,1774277405000,10344418596,18,0.0,-1458312612655581440,0.0,10.082616806030273,62212.125,0.0,0,1,0.0,47,139822921379070,24,26.600000381469727,-219.53541564941406,0.21433469653129578,20,441.48168338558025,0.15155606391727924,1575420000,,,,0,17.700000762939453,1,3.9000000953674316,21.600000381469727,0.0,0.0,0.0,0.0,C,1054327556590293,,15192285.32724611,-20195537.825752858,8033682.098847483,-163.98024089288228,1047.6864335478253,2949.0031916566013,93618.06757429031,-0.002271685763844289,0.000000016763806343078613,0.000000007450580596923828,-0.00000011920928955078125,-0.000000059604644775390625,110592.0,16384.0,-262144.0,-65536.0
Raw,1774277405000,10344418596,18,0.0,-1458312612655581440,0.0,10.082616806030273,62212.125,0.0,0,8,0.0,47,139822932822134,28,24.5,244.91204833984375,0.26298487186431885,20,-487.9039758434301,0.18595660289525984,1575420000,,,,0,20.600000381469727,1,3.9000000953674316,19.5,0.0,0.0,0.0,0.0,C,1054327556590293,,17688099.549427345,-1959493.4991285056,19662597.514007296,1643.328287049859,1928.6660710135816,-1225.9645315817468,142028.9517808402,-0.001991857192479074,0.000000016763806343078613,0.000000007450580596923828,-0.00000011920928955078125,-0.000000059604644775390625,110592.0,16384.0,-262144.0,-65536.0
Raw,1774277405000,10344418596,18,0.0,-1458312612655581440,0.0,10.082616806030273,62212.125,0.0,0,27,0.0,47,139822931208199,28,24.5,665.2526245117188,0.26298487186431885,20,-1327.7546573607033,0.18595660289525984,1575420000,,,,0,14.0,1,3.9000000953674316,19.5,0.0,0.0,0.0,0.0,C,1054327556590293,,20856554.063043498,8940330.104179962,13786037.604642838,1018.0333914784552,1496.8831930678462,-2403.486462530215,-23546.654436276876,-0.004054994966281811,0.000000016763806343078613,0.000000007450580596923828,-0.00000011920928955078125,-0.000000059604644775390625,110592.0,16384.0,-262144.0,-65536.0
Raw,1774277405000,10344418596,18,0.0,-1458312612655581440,0.0,10.082616806030273,62212.125,0.0,0,23,0.0,47,139822921972374,27,24.899999618530273,936.6212158203125,0.252518892288208,20,-1869.985808416248,0.17855610873699188,1575420000,,,,0,15.600000381469727,1,3.9000000953674316,19.899999618530273,0.0,0.0,0.0,0.0,C,1054327556590293,,-2452129.545289985,15106526.34224571,21746032.288237385,-2695.909384822994,490.7831865424265,-673.0121791434237,188127.83283782413,0.0014797262265346944,0.000000016763806343078613,0.000000007450580596923828,-0.00000011920928955078125,-0.000000059604644775390625,110592.0,16384.0,-262144.0,-65536.0
Raw,1774277405000,10344418596,18,0.0,-1458312612655581440,0.0,10.082616806030273,62212.125,0.0,0,16,0.0,47,139822919878913,42,20.299999237060547,1054.9940185546875,0.42718610167503357,20,-2108.278950165004,0.3020632924944162,1575420000,,,,0,16.399999618530273,1,3.9000000953674316,15.300000190734863,0.0,0.0,0.0,0.0,C,1054327556590293,,26144536.93713232,1788671.9203697392,-5956445.877266007,-672.8295890047202,300.38682939209434,-3023.6083578604416,69340.43387478866,0.003315908063086681,0.000000016763806343078613,0.000000007450580596923828,-0.00000011920928955078125,-0.000000059604644775390625,110592.0,16384.0,-262144.0,-65536.0
Raw,1774277405000,10344418596,18,0.0,-1458312612655581440,0.0,10.082616806030273,62212.125,0.0,0,19,0.0,239,64204933063780,15,33.70000076293945,60.67269515991211,0.12140488624572754,20,-120.6059780930882,0.08584539506435394,1603687600,,,,0,27.100000381469727,3,3.9000000953674316,28.700000762939453,0.0,0.0,0.0,0.0,C,1054327556590293,,,,,,,,,,0.000000016763806343078613,0.000000007450580596923828,-0.00000011920928955078125,-0.000000059604644775390625,110592.0,16384.0,-262144.0,-65536.0
Raw,1774277405000,10344418596,18,0.0,-1458312612655581440,0.0,10.082616806030273,62212.125,0.0,0,30,0.0,815,139808925180941,17,31.5,7.582948207855225,0.14239943027496338,20,-12.48303647616558,0.1006906371474266,1561098000,,,,0,24.5,5,3.9000000953674316,26.5,0.0,0.0,0.0,0.0,C,1054327556590293,,14072349.436660696,-10175379.073583568,21824216.74924757,508.0662972592552,2448.3148022633995,815.2569675659669,123678.93943327392,0.002316948797670193,0.000000016763806343078613,0.000000007450580596923828,-0.00000011920928955078125,-0.000000059604644775390625,110592.0,16384.0,-262144.0,-65536.0
Raw,1774277405000,10344418596,18,0.0,-1458312612655581440,0.0,10.082616806030273,62212.125,0.0,0,36,0.0,815,139808917211577,18,31.100000381469727,609.0062255859375,0.14679761230945587,20,-1217.7063399282997,0.10380059166401624,1561098000,,,,0,23.399999618530273,5,3.9000000953674316,26.100000381469727,0.0,0.0,0.0,0.0,C,1054327556590293,,13146665.164539248,-21500006.638227854,12020889.08993551,1166.568143116422,-737.3715267344633,-2596.7470206450616,88190.00144958532,-0.0007149922603275627,0.000000016763806343078613,0.000000007450580596923828,-0.00000011920928955078125,-0.000000059604644775390625,110592.0,16384.0,-262144.0,-65536.0
Raw,1774277405000,10344418596,18,0.0,-1458312612655581440,0.0,10.082616806030273,62212.125,0.0,0,9,0.0,239,64204928767482,18,30.5,678.156494140625,0.15378700196743011,20,-1344.2515833740836,0.10874278909116983,1600875000,,,,0,28.299999237060547,3,3.9000000953674316,25.5,0.0,0.0,0.0,0.0,C,1054327556590293,,,,,,,,,,0.000000016763806343078613,0.000000007450580596923828,-0.00000011920928955078125,-0.000000059604644775390625,110592.0,16384.0,-262144.0,-65536.0
Raw,1774277405000,10344418596,18,0.0,-1458312612655581440,0.0,10.082616806030273,62212.125,0.0,0,10,0.0,239,64204924965433,20,29.399999618530273,46.04344177246094,0.1679656058549881,20,-115.45598518008046,0.11876847990006208,1598062500,,,,0,15.699999809265137,3,3.9000000953674316,24.399999618530273,0.0,0.0,0.0,0.0,C,1054327556590293,,,,,,,,,,0.000000016763806343078613,0.000000007450580596923828,-0.00000011920928955078125,-0.000000059604644775390625,110592.0,16384.0,-262144.0,-65536.0
Raw,1774277405000,10344418596,18,0.0,-1458312612655581440,0.0,10.082616806030273,62212.125,0.0,0,28,0.0,815,139808917183331,23,27.0,822.6543579101562,0.20661157369613647,20,-1644.5302010206287,0.14609504376053808,1561098000,,,,0,20.200000762939453,5,3.9000000953674316,22.0,0.0,0.0,0.0,0.0,C,1054327556590293,,9868614.955619914,24631861.943929523,8648323.3153439,-8.146703990011204,1000.6045511920038,-2840.152190799954,149320.84077786622,0.0014215733390301466,0.000000016763806343078613,0.000000007450580596923828,-0.00000011920928955078125,-0.000000059604644775390625,110592.0,16384.0,-262144.0,-65536.0
Raw,1774277405000,10344418596,18,0.0,-1458312612655581440,0.0,10.082616806030273,62212.125,0.0,0,21,0.0,7215,139822918408356,28,24.600000381469727,587.9493408203125,0.2603082060813904,20,-1173.1343859312838,0.18406393252015113,1575420000,,,,0,19.899999618530273,6,3.9000000953674316,19.600000381469727,0.0,0.0,0.0,0.0,C,1054327556590293,,25524506.322166286,-8506023.511327125,12336442.789099067,1238.2570889611447,-46.58286571856429,-2592.5704685440182,-218872.059459701,-0.0008203780162148178,0.000000016763806343078613,0.000000007450580596923828,-0.00000011920928955078125,-0.000000059604644775390625,110592.0,16384.0,-262144.0,-65536.0
Raw,1774277405000,10344418596,18,0.0,-1458312612655581440,0.0,10.082616806030273,62212.125,0.0,0,27,0.0,815,139808926921419,26,25.399999618530273,552.7852783203125,0.24029220640659332,20,-1102.9126088199919,0.16991061915010214,1561098000,,,,0,15.100000381469727,5,3.9000000953674316,20.399999618530273,0.0,0.0,0.0,0.0,C,1054327556590293,,15823063.38627528,12344947.838100767,19368336.320049953,235.40326270830315,2208.526733059468,-1597.3417312983547,183093.785188973,0.001364877651212737,0.000000016763806343078613,0.000000007450580596923828,-0.00000011920928955078125,-0.000000059604644775390625,110592.0,16384.0,-262144.0,-65536.0
Raw,1774277405000,10344418596,18,0.0,-1458312612655581440,0.0,10.082616806030273,62212.125,0.0,0,17,0.0,239,64204921216967,27,24.899999618530273,913.4050903320312,0.252518892288208,20,-1771.4961601709729,0.17855610873699188,1604250000,,,,0,17.200000762939453,3,3.9000000953674316,19.899999618530273,0.0,0.0,0.0,0.0,C,1054327556590293,,,,,,,,,,0.000000016763806343078613,0.000000007450580596923828,-0.00000011920928955078125,-0.000000059604644775390625,110592.0,16384.0,-262144.0,-65536.0
Raw,1774277405000,10344418596,18,0.0,-1458312612655581440,0.0,10.082616806030273,62212.125,0.0,0,4,0.0,239,64204926029755,31,23.5,-446.6973876953125,0.29218408465385437,20,937.2104569608564,0.2066033662587404,1605375000,,,,0,15.5,3,3.9000000953674316,18.5,0.0,0.0,0.0,0.0,C,1054327556590293,,,,,,,,,,0.000000016763806343078613,0.000000007450580596923828,-0.00000011920928955078125,-0.000000059604644775390625,110592.0,16384.0,-262144.0,-65536.0
Raw,1774277405000,10344418596,18,0.0,-1458312612655581440,0.0,10.082616806030273,62212.125,0.0,0,33,0.0,815,139808915235254,38,21.299999237060547,770.4083862304688,0.37637853622436523,20,-1538.1487720748191,0.2661372629642486,1561098000,,,,0,17.799999237060547,5,3.9000000953674316,16.299999237060547,0.0,0.0,0.0,0.0,C,1054327556590293,,-4370110.389286479,14803410.88102949,23250103.940082137,-2464.479917303589,-983.092095402194,165.54544367540757,-277603.4353406296,0.0010034538572654128,0.000000016763806343078613,0.000000007450580596923828,-0.00000011920928955078125,-0.000000059604644775390625,110592.0,16384.0,-262144.0,-65536.0
Raw,1774277405000,10344418596,18,0.0,-1458312612655581440,0.0,10.082616806030273,62212.125,0.0,0,27,0.0,4142,139822909951012,49,18.899999618530273,932.583740234375,0.5175715684890747,20,-1862.6494791088408,0.3659748560786247,1575420000,,,,0,16.200000762939453,6,3.9000000953674316,13.899999618530273,0.0,0.0,0.0,0.0,C,1054327556590293,,28548089.202776648,4559124.570795812,-6384829.1945759,-639.3227082774777,-60.61171485514011,-2903.738064843212,-282160.5305588429,-0.003134287253487855,0.000000016763806343078613,0.000000007450580596923828,-0.00000011920928955078125,-0.000000059604644775390625,110592.0,16384.0,-262144.0,-65536.0
Raw,1774277406000,11344419696,18,0.0,-1458312612655580416,0.0,10.082616806030273,62211.88671875,0.0,0,32,0.0,47,139823920980186,14,35.0,-154.59239196777344,0.1111111119389534,22,466.88994813491445,0.07856666725203394,1575420000,,,,0,29.799999237060547,1,3.9000000953674316,30.0,0.0,0.0,0.0,0.0,C,1054328574662254,,15882259.751356931,21274368.61882262,2720135.2861930495,-384.6098476038811,-77.21957792053416,3154.1771492202797,-10340.729410732483,0.006132925753263407,0.000000016763806343078613,0.000000007450580596923828,-0.00000011920928955078125,-0.000000059604644775390625,110592.0,16384.0,-262144.0,-65536.0
Raw,1774277406000,11344419696,18,0.0,-1458312612655580416,0.0,10.082616806030273,62211.88671875,0.0,0,2,0.0,47,139823928730290,14,35.0,56.443214416503906,0.1111111119389534,20,-167.46832995708246,0.07856666725203394,1575420000,,,,0,32.900001525878906,1,3.9000000953674316,30.0,0.0,0.0,0.0,0.0,C,1054328574662254,,15998384.60208693,-11093368.528940702,18193620.982547626,-403.21617971433466,2223.373875527051,1803.6448486446359,19119.940541297667,0.002678149310668232,0.000000016763806343078613,0.000000007450580596923828,-0.00000011920928955078125,-0.000000059604644775390625,110592.0,16384.0,-262144.0,-65536.0
Raw,1774277406000,11344419696,18,0.0,-1458312612655580416,0.0,10.082616806030273,62211.88671875,0.0,0,1,0.0,47,139823921380888,24,26.5,-219.8960723876953,0.21633315086364746,20,662.3883608893011,0.1529691709756851,1575420000,,,,0,21.0,1,3.9000000953674316,21.5,0.0,0.0,0.0,0.0,C,1054328574662254,,15192121.301129762,-20194489.963295616,8036631.021507485,-164.0713864798658,1048.0346702997692,2948.8313955322574,93618.06530260349,-0.002271679579280317,0.000000016763806343078613,0.000000007450580596923828,-0.00000011920928955078125,-0.000000059604644775390625,110592.0,16384.0,-262144.0,-65536.0
Raw,1774277406000,11344419696,18,0.0,-1458312612655580416,0.0,10.082616806030273,62211.88671875,0.0,0,8,0.0,47,139823932822402,28,24.5,244.15196228027344,0.26298487186431885,20,-731.2197933107163,0.18595660289525984,1575420000,,,,0,18.299999237060547,1,3.9000000953674316,19.5,0.0,0.0,0.0,0.0,C,1054328574662254,,17689742.876851212,-1957564.9366546907,19661371.339052517,1643.32567070893,1928.4578377710836,-1226.3847160212417,142028.9497890667,-0.00199168871040456,0.000000016763806343078613,0.000000007450580596923828,-0.00000011920928955078125,-0.000000059604644775390625,110592.0,16384.0,-262144.0,-65536.0
Raw,1774277406000,11344419696,18,0.0,-1458312612655580416,0.0,10.082616806030273,62211.88671875,0.0,0,27,0.0,47,139823931207067,29,24.399999618530273,665.67626953125,0.2657030522823334,20,-1992.131369741961,0.18787862826883792,1575420000,,,,0,17.700000762939453,1,3.9000000953674316,19.399999618530273,0.0,0.0,0.0,0.0,C,1054328574662254,,20857572.03782212,8941826.840023747,13783633.974103013,1017.9184610907917,1496.591882143438,-2403.7800500451217,-23546.658491162223,-0.0040547849057475105,0.000000016763806343078613,0.000000007450580596923828,-0.00000011920928955078125,-0.000000059604644775390625,110592.0,16384.0,-262144.0,-65536.0
Raw,1774277406000,11344419696,18,0.0,-1458312612655580416,0.0,10.082616806030273,62211.88671875,0.0,0,23,0.0,47,139823921970360,28,24.700000762939453,936.3753662109375,0.25767216086387634,20,-2805.2428607850816,0.18219998494684694,1575420000,,,,0,15.399999618530273,1,3.9000000953674316,19.700000762939453,0.0,0.0,0.0,0.0,C,1054328574662254,,-2454825.3939796044,15107017.201108899,21745359.04693112,-2695.7988424690457,490.9365129066641,-673.4731430200527,188127.83431750408,0.001479639671742916,0.000000016763806343078613,0.000000007450580596923828,-0.00000011920928955078125,-0.000000059604644775390625,110592.0,16384.0,-262144.0,-65536.0
Raw,1774277406000,11344419696,18,0.0,-1458312612655580416,0.0,10.082616806030273,62211.88671875,0.0,0,16,0.0,47,139823919876512,42,20.200000762939453,1055.771240234375,0.43282550573349,20,-3162.7199790425148,0.3060509151041508,1575420000,,,,0,13.100000381469727,1,3.9000000953674316,15.199999809265137,0.0,0.0,0.0,0.0,C,1054328574662254,,26143863.93209659,1788972.3419362362,-5959469.417172888,-673.1837104563562,300.4577540911223,-3023.4859647597746,69340.4371907543,0.0033160391176352277,0.000000016763806343078613,0.000000007450580596923828,-0.00000011920928955078125,-0.000000059604644775390625,110592.0,16384.0,-262144.0,-65536.0
Raw,1774277406000,11344419696,18,0.0,-1458312612655580416,0.0,10.082616806030273,62211.88671875,0.0,0,19,0.0,239,64205933064724,15,33.599998474121094,61.408653259277344,0.1222553625702858,20,-166.3869927100386,0.08644676687344909,1603687600,,,,0,25.799999237060547,3,3.9000000953674316,28.600000381469727,0.0,0.0,0.0,0.0,C,1054328574662254,,,,,,,,,,0.000000016763806343078613,0.000000007450580596923828,-0.00000011920928955078125,-0.000000059604644775390625,110592.0,16384.0,-262144.0,-65536.0
Raw,1774277406000,11344419696,18,0.0,-1458312612655580416,0.0,10.082616806030273,62211.88671875,0.0,0,9,0.0,239,64205928766347,18,31.0,678.2236938476562,0.14792899787425995,20,-2013.3026092893924,0.10460059439688921,1600875000,,,,0,29.600000381469727,3,3.9000000953674316,26.0,0.0,0.0,0.0,0.0,C,1054328574662254,,,,,,,,,,0.000000016763806343078613,0.000000007450580596923828,-0.00000011920928955078125,-0.000000059604644775390625,110592.0,16384.0,-262144.0,-65536.0
Raw,1774277406000,11344419696,18,0.0,-1458312612655580416,0.0,10.082616806030273,62211.88671875,0.0,0,36,0.0,815,139809917210647,18,31.100000381469727,610.3711547851562,0.14679761230945587,20,-1826.6678407512154,0.10380059166401624,1561098000,,,,0,27.5,5,3.9000000953674316,26.100000381469727,0.0,0.0,0.0,0.0,C,1054328574662254,,13147831.592409607,-21500743.954432428,12018292.235253634,1166.2897673046234,-737.2622454426714,-2596.967165332033,88190.00073459212,-0.0007149954763008282,0.000000016763806343078613,0.000000007450580596923828,-0.00000011920928955078125,-0.000000059604644775390625,110592.0,16384.0,-262144.0,-65536.0
Raw,1774277406000,11344419696,18,0.0,-1458312612655580416,0.0,10.082616806030273,62211.88671875,0.0,0,30,0.0,815,139809925182054,17,31.399999618530273,7.663383483886719,0.14348027110099792,20,-18.966328228219936,0.10145489969551563,1561098000,,,,0,26.0,5,3.9000000953674316,26.399999618530273,0.0,0.0,0.0,0.0,C,1054328574662254,,14072857.590221899,-10172930.726707289,21825031.80663146,508.2396942995247,2448.3734907469834,814.8559834224792,123678.94175022723,0.0023169526393758133,0.000000016763806343078613,0.000000007450580596923828,-0.00000011920928955078125,-0.000000059604644775390625,110592.0,16384.0,-262144.0,-65536.0
Raw,1774277406000,11344419696,18,0.0,-1458312612655580416,0.0,10.082616806030273,62211.88671875,0.0,0,28,0.0,815,139809917181710,23,26.899999618530273,822.6427001953125,0.20850275456905365,20,-2466.182930315241,0.14743229775577782,1561098000,,,,0,23.5,5,3.9000000953674316,21.899999618530273,0.0,0.0,0.0,0.0,C,1054328574662254,,9868606.817646205,24632862.387104712,8645483.088461833,-8.129277527145788,1000.285040015885,-2840.3107727179713,149320.84219943735,0.0014215735136531293,0.000000016763806343078613,0.000000007450580596923828,-0.00000011920928955078125,-0.000000059604644775390625,110592.0,16384.0,-262144.0,-65536.0
