# 
# Header Description:
# 
# Version: v2.0.0.1 Platform: 10 Manufacturer: Xiaomi Model: Redmi Note 7
# 
# Raw,ElapsedRealtimeMillis,TimeNanos,LeapSecond,TimeUncertaintyNanos,FullBiasNanos,BiasNanos,BiasUncertaintyNanos,DriftNanosPerSecond,DriftUncertaintyNanosPerSecond,HardwareClockDiscontinuityCount,Svid,TimeOffsetNanos,State,ReceivedSvTimeNanos,ReceivedSvTimeUncertaintyNanos,Cn0DbHz,PseudorangeRateMetersPerSecond,PseudorangeRateUncertaintyMetersPerSecond,AccumulatedDeltaRangeState,AccumulatedDeltaRangeMeters,AccumulatedDeltaRangeUncertaintyMeters,CarrierFrequencyHz,CarrierCycles,CarrierPhase,CarrierPhaseUncertainty,MultipathIndicator,SnrInDb,ConstellationType,AgcDb,CarrierFrequencyHz
# 
# Fix,Provider,Latitude,Longitude,Altitude,Speed,Accuracy,(UTC)TimeInMs
# 
# Nav,Svid,Type,Status,MessageId,Sub-messageId,Data(Bytes)
# 
Fix,gps,45.066033,7.657087,318.690918,0.000000,10.720000,1774276689000
Raw,329378672,329445999000000,,,-1457982460431826054,0.4551210403442383,76.04665006510913,-1.773303469385492,13.626001163751083,1461,16,0.0,207,63488355127569,1918,12.0,780.361328125,9.734000205993652,0,0.0,0.0,1.60143744E9,,,,0,,3,-0.17,1.60143744E9
Raw,329378672,329445999000000,,,-1457982460431826054,0.4551210403442383,76.04665006510913,-1.773303469385492,13.626001163751083,1461,19,0.0,207,63488363182358,16,29.7,-314.6755676269531,0.23119999468326569,0,0.0,0.0,1.60368755E9,,,,0,,3,-0.17,1.60368755E9
Raw,329378673,329445999000000,,,-1457982460431826054,0.4551210403442383,76.04665006510913,-1.773303469385492,13.626001163751083,1461,3,0.0,207,63488361537212,40,21.1,-341.3456726074219,1.0479999780654907,0,0.0,0.0,1.60481254E9,,,,0,,3,-0.17,1.60481254E9
Raw,329378673,329445999000000,,,-1457982460431826054,0.4551210403442383,76.04665006510913,-1.773303469385492,13.626001163751083,1461,1,0.0,15,139106350857306,125,14.3,-573.7258911132812,3.74150013923645,0,0.0,0.0,1.57542003E9,,,,0,,1,1.82,1.57542003E9
Raw,329378674,329445999000000,,,-1457982460431826054,0.4551210403442383,76.04665006510913,-1.773303469385492,13.626001163751083,1461,2,0.0,15,139106358846394,38,22.5,-315.64013671875,1.503499984741211,0,0.0,0.0,1.57542003E9,,,,0,,1,1.82,1.57542003E9
Raw,329378674,329445999000000,,,-1457982460431826054,0.4551210403442383,76.04665006510913,-1.773303469385492,13.626001163751083,1461,8,0.0,15,139106363349241,40,21.0,-160.85523986816406,0.8510000109672546,0,0.0,0.0,1.57542003E9,,,,0,,1,1.82,1.57542003E9
Raw,329378675,329445999000000,,,-1457982460431826054,0.4551210403442383,76.04665006510913,-1.773303469385492,13.626001163751083,1461,10,0.0,15,139106359941327,96,15.6,176.51641845703125,2.005000114440918,0,0.0,0.0,1.57542003E9,,,,0,,1,1.82,1.57542003E9
Raw,329378675,329445999000000,,,-1457982460431826054,0.4551210403442383,76.04665006510913,-1.773303469385492,13.626001163751083,1461,5,0.0,783,139092297992838,736,18.6,-15.505340576171875,20.82200050354004,0,0.0,0.0,1.56109798E9,,,,0,,5,1.23,1.56109798E9
Raw,329378675,329445999000000,,,-1457982460431826054,0.4551210403442383,76.04665006510913,-1.773303469385492,13.626001163751083,1461,21,0.0,7183,139106349770619,89,16.4,192.32029724121094,2.5220000743865967,0,0.0,0.0,1.57542003E9,,,,0,,6,1.88,1.57542003E9
Raw,329378676,329445999000000,,,-1457982460431826054,0.4551210403442383,76.04665006510913,-1.773303469385492,13.626001163751083,1461,23,0.0,7183,139106344425279,115,14.9,-335.5353088378906,2.690500020980835,0,0.0,0.0,1.57542003E9,,,,0,,6,1.88,1.57542003E9
Raw,329378676,329445999000000,,,-1457982460431826054,0.4551210403442383,76.04665006510913,-1.773303469385492,13.626001163751083,1461,26,0.0,7183,139106344778579,46,20.7,-392.86126708984375,0.750499963760376,0,0.0,0.0,1.57542003E9,,,,0,,6,1.88,1.57542003E9
Fix,gps,45.066034,7.657084,318.842346,0.200000,10.720000,1774276690000
Raw,329379669,329446999000000,,,-1457982460431826055,0.859074592590332,80.26733121369034,-1.9440144327224533,14.626859503554002,1461,9,0.0,207,63489360282437,64,18.6,234.11293029785156,2.0264999866485596,0,0.0,0.0,1.60087501E9,,,,0,,3,-2.13,1.60087501E9
Raw,329379669,329446999000000,,,-1457982460431826055,0.859074592590332,80.26733121369034,-1.9440144327224533,14.626859503554002,1461,16,0.0,207,63489355124885,2513,10.1,780.4362182617188,10.409000396728516,0,0.0,0.0,1.60143744E9,,,,0,,3,-2.13,1.60143744E9
Raw,329379670,329446999000000,,,-1457982460431826055,0.859074592590332,80.26733121369034,-1.9440144327224533,14.626859503554002,1461,19,0.0,207,63489363183423,16,29.5,-314.9326477050781,0.23119999468326569,0,0.0,0.0,1.60368755E9,,,,0,,3,-2.13,1.60368755E9
Raw,329379670,329446999000000,,,-1457982460431826055,0.859074592590332,80.26733121369034,-1.9440144327224533,14.626859503554002,1461,3,0.0,207,63489361538296,35,22.0,-341.1028137207031,0.9879999756813049,0,0.0,0.0,1.60481254E9,,,,0,,3,-2.13,1.60481254E9
Raw,329379671,329446999000000,,,-1457982460431826055,0.859074592590332,80.26733121369034,-1.9440144327224533,14.626859503554002,1461,2,0.0,15,139107358847472,16,29.6,-316.2499694824219,0.053700003772974014,0,0.0,0.0,1.57542003E9,,,,0,,1,-0.24,1.57542003E9
Raw,329379671,329446999000000,,,-1457982460431826055,0.859074592590332,80.26733121369034,-1.9440144327224533,14.626859503554002,1461,8,0.0,15,139107363349803,93,15.8,-160.4651336669922,1.2610000371932983,0,0.0,0.0,1.57542003E9,,,,0,,1,-0.24,1.57542003E9
Raw,329379673,329446999000000,,,-1457982460431826055,0.859074592590332,80.26733121369034,-1.9440144327224533,14.626859503554002,1461,32,0.0,15,139107350595884,56,19.3,-523.7643432617188,1.7615000009536743,0,0.0,0.0,1.57542003E9,,,,0,,1,-0.24,1.57542003E9
Raw,329379673,329446999000000,,,-1457982460431826055,0.859074592590332,80.26733121369034,-1.9440144327224533,14.626859503554002,1461,5,0.0,783,139093297992903,781,18.5,-16.066162109375,21.57200050354004,0,0.0,0.0,1.56109798E9,,,,0,,5,-0.97,1.56109798E9
Raw,329379674,329446999000000,,,-1457982460431826055,0.859074592590332,80.26733121369034,-1.9440144327224533,14.626859503554002,1461,8,0.0,7183,139107337990462,84,16.9,-519.5873413085938,1.7720000743865967,0,0.0,0.0,1.57542003E9,,,,0,,6,-0.19,1.57542003E9
Raw,329379675,329446999000000,,,-1457982460431826055,0.859074592590332,80.26733121369034,-1.9440144327224533,14.626859503554002,1461,13,0.0,7183,139107352914158,89,16.3,-11.008489608764648,2.5205001831054688,0,0.0,0.0,1.57542003E9,,,,0,,6,-0.19,1.57542003E9
Raw,329379675,329446999000000,,,-1457982460431826055,0.859074592590332,80.26733121369034,-1.9440144327224533,14.626859503554002,1461,15,0.0,7183,139107346034606,164,13.9,389.75,5.0335001945495605,0,0.0,0.0,1.57542003E9,,,,0,,6,-0.19,1.57542003E9
Raw,329379675,329446999000000,,,-1457982460431826055,0.859074592590332,80.26733121369034,-1.9440144327224533,14.626859503554002,1461,21,0.0,7183,139107349769960,40,21.0,191.84457397460938,0.6919999718666077,0,0.0,0.0,1.57542003E9,,,,0,,6,-0.19,1.57542003E9
Raw,329379676,329446999000000,,,-1457982460431826055,0.859074592590332,80.26733121369034,-1.9440144327224533,14.626859503554002,1461,26,0.0,7183,139107344779903,35,22.7,-392.7947082519531,0.640500009059906,0,0.0,0.0,1.57542003E9,,,,0,,6,-0.19,1.57542003E9
Fix,gps,45.066035,7.657083,319.210693,0.000000,10.720000,1774276691000
Raw,329380655,329447999000000,,,-1457982460431826065,0.9498023986816406,81.9771594251506,-2.3006657491402303,14.06901120601347,1461,9,0.0,207,63490360281482,46,20.0,234.4874725341797,1.1165000200271606,0,0.0,0.0,1.60087501E9,,,,0,,3,-0.29,1.60087501E9
Raw,329380656,329447999000000,,,-1457982460431826065,0.9498023986816406,81.9771594251506,-2.3006657491402303,14.06901120601347,1461,16,0.0,207,63490355122277,420,10.1,780.52978515625,11.534000396728516,0,0.0,0.0,1.60143744E9,,,,0,,3,-0.29,1.60143744E9
Raw,329380656,329447999000000,,,-1457982460431826065,0.9498023986816406,81.9771594251506,-2.3006657491402303,14.06901120601347,1461,19,0.0,207,63490363184376,17,28.1,-315.1601867675781,0.2378000020980835,0,0.0,0.0,1.60368755E9,,,,0,,3,-0.29,1.60368755E9
Raw,329380657,329447999000000,,,-1457982460431826065,0.9498023986816406,81.9771594251506,-2.3006657491402303,14.06901120601347,1461,4,0.0,207,63490354948623,185,13.3,-813.349609375,6.317500114440918,0,0.0,0.0,1.60537498E9,,,,0,,3,-0.29,1.60537498E9
Raw,329380658,329447999000000,,,-1457982460431826065,0.9498023986816406,81.9771594251506,-2.3006657491402303,14.06901120601347,1461,2,0.0,15,139108358848523,40,21.9,-316.4488830566406,0.8134999871253967,0,0.0,0.0,1.57542003E9,,,,0,,1,1.79,1.57542003E9
Raw,329380659,329447999000000,,,-1457982460431826065,0.9498023986816406,81.9771594251506,-2.3006657491402303,14.06901120601347,1461,8,0.0,15,139108363350309,40,21.0,-161.07408142089844,0.8510000109672546,0,0.0,0.0,1.57542003E9,,,,0,,1,1.79,1.57542003E9
Raw,329380659,329447999000000,,,-1457982460431826065,0.9498023986816406,81.9771594251506,-2.3006657491402303,14.06901120601347,1461,10,0.0,15,139108359940391,110,14.3,175.71717834472656,2.2250001430511475,0,0.0,0.0,1.57542003E9,,,,0,,1,1.79,1.57542003E9
Raw,329380660,329447999000000,,,-1457982460431826065,0.9498023986816406,81.9771594251506,-2.3006657491402303,14.06901120601347,1461,32,0.0,15,139108350597681,61,18.9,-522.1753540039062,1.0115000009536743,0,0.0,0.0,1.57542003E9,,,,0,,1,1.79,1.57542003E9
Raw,329380660,329447999000000,,,-1457982460431826065,0.9498023986816406,81.9771594251506,-2.3006657491402303,14.06901120601347,1461,5,0.0,783,139094297992967,828,18.5,-16.03924560546875,22.281999588012695,0,0.0,0.0,1.56109798E9,,,,0,,5,1.47,1.56109798E9
Raw,329380661,329447999000000,,,-1457982460431826065,0.9498023986816406,81.9771594251506,-2.3006657491402303,14.06901120601347,1461,3,0.0,7183,139108340166995,196,12.9,-239.45603942871094,5.775500297546387,0,0.0,0.0,1.57542003E9,,,,0,,6,1.9,1.57542003E9
Raw,329380661,329447999000000,,,-1457982460431826065,0.9498023986816406,81.9771594251506,-2.3006657491402303,14.06901120601347,1461,8,0.0,7183,139108337992226,61,18.7,-521.5093383789062,0.871999979019165,0,0.0,0.0,1.57542003E9,,,,0,,6,1.9,1.57542003E9
Raw,329380661,329447999000000,,,-1457982460431826065,0.9498023986816406,81.9771594251506,-2.3006657491402303,14.06901120601347,1461,26,0.0,7183,139108344781178,19,27.5,-393.5566711425781,0.06530000269412994,0,0.0,0.0,1.57542003E9,,,,0,,6,1.9,1.57542003E9
Raw,329381660,329448999000000,,,-1457982460431826067,0.5954189300537109,79.53151362016797,-4.39096197057312,15.430304202192074,1461,9,0.0,207,63491360280746,19,27.0,234.8334503173828,0.24130000174045563,0,0.0,0.0,1.60087501E9,,,,0,,3,0.08,1.60087501E9
Raw,329381660,329448999000000,,,-1457982460431826067,0.5954189300537109,79.53151362016797,-4.39096197057312,15.430304202192074,1461,19,0.0,207,63491363185511,19,27.2,-314.9922180175781,0.24580000340938568,0,0.0,0.0,1.60368755E9,,,,0,,3,0.08,1.60368755E9
Raw,329381660,329448999000000,,,-1457982460431826067,0.5954189300537109,79.53151362016797,-4.39096197057312,15.430304202192074,1461,1,0.0,15,139109350863157,102,15.4,-573.3547973632812,2.871500015258789,0,0.0,0.0,1.57542003E9,,,,0,,1,2.0,1.57542003E9
Raw,329381661,329448999000000,,,-1457982460431826067,0.5954189300537109,79.53151362016797,-4.39096197057312,15.430304202192074,1461,2,0.0,15,139109358849519,21,26.3,-316.54052734375,0.13819999992847443,0,0.0,0.0,1.57542003E9,,,,0,,1,2.0,1.57542003E9
Raw,329381661,329448999000000,,,-1457982460431826067,0.5954189300537109,79.53151362016797,-4.39096197057312,15.430304202192074,1461,8,0.0,15,139109363350878,31,23.2,-160.9884490966797,0.7310000061988831,0,0.0,0.0,1.57542003E9,,,,0,,1,2.0,1.57542003E9
Raw,329381661,329448999000000,,,-1457982460431826067,0.5954189300537109,79.53151362016797,-4.39096197057312,15.430304202192074,1461,10,0.0,15,139109359939466,70,17.2,174.204345703125,1.1649999618530273,0,0.0,0.0,1.57542003E9,,,,0,,1,2.0,1.57542003E9
Raw,329381662,329448999000000,,,-1457982460431826067,0.5954189300537109,79.53151362016797,-4.39096197057312,15.430304202192074,1461,16,0.0,15,139109352407300,241,12.8,706.8268432617188,7.614500522613525,0,0.0,0.0,1.57542003E9,,,,0,,1,2.0,1.57542003E9
Raw,329381662,329448999000000,,,-1457982460431826067,0.5954189300537109,79.53151362016797,-4.39096197057312,15.430304202192074,1461,5,0.0,783,139095297993021,879,18.7,-15.844757080078125,23.142000198364258,0,0.0,0.0,1.56109798E9,,,,0,,5,1.54,1.56109798E9
Raw,329381662,329448999000000,,,-1457982460431826067,0.5954189300537109,79.53151362016797,-4.39096197057312,15.430304202192074,1461,13,0.0,7183,139109352914265,84,16.7,-12.587926864624023,1.7705000638961792,0,0.0,0.0,1.57542003E9,,,,0,,6,2.1,1.57542003E9
Raw,329381663,329448999000000,,,-1457982460431826067,0.5954189300537109,79.53151362016797,-4.39096197057312,15.430304202192074,1461,23,0.0,7183,139109344428653,101,15.3,-336.9625244140625,2.6005001068115234,0,0.0,0.0,1.57542003E9,,,,0,,6,2.1,1.57542003E9
Raw,329381663,329448999000000,,,-1457982460431826067,0.5954189300537109,79.53151362016797,-4.39096197057312,15.430304202192074,1461,26,0.0,7183,139109344782500,24,25.1,-393.2607727050781,0.4058000147342682,0,0.0,0.0,1.57542003E9,,,,0,,6,2.1,1.57542003E9
Raw,329381664,329448999000000,,,-1457982460431826067,0.5954189300537109,79.53151362016797,-4.39096197057312,15.430304202192074,1461,27,0.0,7183,139109342182413,395,11.5,580.2815551757812,11.058500289916992,0,0.0,0.0,1.57542003E9,,,,0,,6,2.1,1.57542003E9
Fix,gps,45.066037,7.657085,319.435181,0.300000,10.720000,1774276692000
Fix,gps,45.066042,7.657094,319.791870,0.380000,10.720000,1774276693000
Raw,329382656,329449999000000,,,-1457982460431826072,0.5588264465332031,79.80564259923995,-4.772991229197386,15.394790233163677,1461,9,0.0,207,63492360279932,27,24.5,235.09608459472656,0.8664999604225159,0,0.0,0.0,1.60087501E9,,,,0,,3,-0.19,1.60087501E9
Raw,329382656,329449999000000,,,-1457982460431826072,0.5588264465332031,79.80564259923995,-4.772991229197386,15.394790233163677,1461,16,0.0,207,63492355116755,88,16.0,781.0914306640625,2.7240002155303955,0,0.0,0.0,1.60143744E9,,,,0,,3,-0.19,1.60143744E9
Raw,329382657,329449999000000,,,-1457982460431826072,0.5588264465332031,79.80564259923995,-4.772991229197386,15.394790233163677,1461,19,0.0,207,63492363186501,14,30.2,-315.27838134765625,0.23029999434947968,0,0.0,0.0,1.60368755E9,,,,0,,3,-0.19,1.60368755E9
Raw,329382657,329449999000000,,,-1457982460431826072,0.5588264465332031,79.80564259923995,-4.772991229197386,15.394790233163677,1461,3,0.0,207,63492361541648,117,14.9,-340.40228271484375,3.1780002117156982,0,0.0,0.0,1.60481254E9,,,,0,,3,-0.19,1.60481254E9
Raw,329382658,329449999000000,,,-1457982460431826072,0.5588264465332031,79.80564259923995,-4.772991229197386,15.394790233163677,1461,4,0.0,207,63492354953991,56,19.1,-813.5643310546875,1.96750009059906,0,0.0,0.0,1.60537498E9,,,,0,,3,-0.19,1.60537498E9
Raw,329382659,329449999000000,,,-1457982460431826072,0.5588264465332031,79.80564259923995,-4.772991229197386,15.394790233163677,1461,1,0.0,15,139110350865169,61,18.9,-574.6392822265625,1.0115000009536743,0,0.0,0.0,1.57542003E9,,,,0,,1,1.7,1.57542003E9
Raw,329382659,329449999000000,,,-1457982460431826072,0.5588264465332031,79.80564259923995,-4.772991229197386,15.394790233163677,1461,2,0.0,15,139110358850596,17,28.7,-316.646240234375,0.06030000001192093,0,0.0,0.0,1.57542003E9,,,,0,,1,1.7,1.57542003E9
Raw,329382660,329449999000000,,,-1457982460431826072,0.5588264465332031,79.80564259923995,-4.772991229197386,15.394790233163677,1461,8,0.0,15,139110363351507,53,19.3,-159.9037628173828,1.0010000467300415,0,0.0,0.0,1.57542003E9,,,,0,,1,1.7,1.57542003E9
Raw,329382660,329449999000000,,,-1457982460431826072,0.5588264465332031,79.80564259923995,-4.772991229197386,15.394790233163677,1461,16,0.0,15,139110352404688,61,18.4,706.6270141601562,1.094499945640564,0,0.0,0.0,1.57542003E9,,,,0,,1,1.7,1.57542003E9
Raw,329382661,329449999000000,,,-1457982460431826072,0.5588264465332031,79.80564259923995,-4.772991229197386,15.394790233163677,1461,32,0.0,15,139110350601164,43,21.2,-523.3076171875,1.6115000247955322,0,0.0,0.0,1.57542003E9,,,,0,,1,1.7,1.57542003E9
Raw,329382662,329449999000000,,,-1457982460431826072,0.5588264465332031,79.80564259923995,-4.772991229197386,15.394790233163677,1461,5,0.0,783,139096297993077,930,18.9,-16.17401123046875,23.781999588012695,0,0.0,0.0,1.56109798E9,,,,0,,5,1.25,1.56109798E9
Raw,329382662,329449999000000,,,-1457982460431826072,0.5588264465332031,79.80564259923995,-4.772991229197386,15.394790233163677,1461,21,0.0,7183,139110349768018,101,15.2,190.8835906982422,2.6019999980926514,0,0.0,0.0,1.57542003E9,,,,0,,6,1.81,1.57542003E9
Raw,329382663,329449999000000,,,-1457982460431826072,0.5588264465332031,79.80564259923995,-4.772991229197386,15.394790233163677,1461,26,0.0,7183,139110344783818,31,23.1,-393.2894287109375,0.6004999876022339,0,0.0,0.0,1.57542003E9,,,,0,,6,1.81,1.57542003E9
Fix,gps,45.066047,7.657092,319.841614,0.360000,10.720000,1774276694000
Raw,329383664,329450999000000,,,-1457982460431826074,0.7408847808837891,81.35019743349403,-4.597522510582021,14.196554835019615,1461,9,0.0,207,63493360279106,27,24.9,235.7234344482422,0.8664999604225159,0,0.0,0.0,1.60087501E9,,,,0,,3,-0.08,1.60087501E9
Raw,329383664,329450999000000,,,-1457982460431826074,0.7408847808837891,81.35019743349403,-4.597522510582021,14.196554835019615,1461,19,0.0,207,63493363187572,27,24.2,-314.6938781738281,0.8709999918937683,0,0.0,0.0,1.60368755E9,,,,0,,3,-0.08,1.60368755E9
Raw,329383665,329450999000000,,,-1457982460431826074,0.7408847808837891,81.35019743349403,-4.597522510582021,14.196554835019615,1461,3,0.0,207,63493361542881,46,20.9,-341.0467834472656,1.1180000305175781,0,0.0,0.0,1.60481254E9,,,,0,,3,-0.08,1.60481254E9
Raw,329383665,329450999000000,,,-1457982460431826074,0.7408847808837891,81.35019743349403,-4.597522510582021,14.196554835019615,1461,1,0.0,15,139111350867081,61,18.8,-574.5537109375,1.0115000009536743,0,0.0,0.0,1.57542003E9,,,,0,,1,1.88,1.57542003E9
Raw,329383666,329450999000000,,,-1457982460431826074,0.7408847808837891,81.35019743349403,-4.597522510582021,14.196554835019615,1461,2,0.0,15,139111358851654,14,30.5,-316.20770263671875,0.052800003439188004,0,0.0,0.0,1.57542003E9,,,,0,,1,1.88,1.57542003E9
Raw,329383666,329450999000000,,,-1457982460431826074,0.7408847808837891,81.35019743349403,-4.597522510582021,14.196554835019615,1461,8,0.0,15,139111363351908,24,25.3,-159.7830047607422,0.3862999975681305,0,0.0,0.0,1.57542003E9,,,,0,,1,1.88,1.57542003E9
Raw,329383666,329450999000000,,,-1457982460431826074,0.7408847808837891,81.35019743349403,-4.597522510582021,14.196554835019615,1461,10,0.0,15,139111359938528,84,16.9,175.74571228027344,1.9149999618530273,0,0.0,0.0,1.57542003E9,,,,0,,1,1.88,1.57542003E9
Raw,329383667,329450999000000,,,-1457982460431826074,0.7408847808837891,81.35019743349403,-4.597522510582021,14.196554835019615,1461,16,0.0,15,139111352402402,70,17.2,706.8743896484375,1.184499979019165,0,0.0,0.0,1.57542003E9,,,,0,,1,1.88,1.57542003E9
Raw,329383667,329450999000000,,,-1457982460431826074,0.7408847808837891,81.35019743349403,-4.597522510582021,14.196554835019615,1461,27,0.0,15,139111362741961,182,13.8,263.10003662109375,5.9795002937316895,0,0.0,0.0,1.57542003E9,,,,0,,1,1.88,1.57542003E9
Raw,329383668,329450999000000,,,-1457982460431826074,0.7408847808837891,81.35019743349403,-4.597522510582021,14.196554835019615,1461,32,0.0,15,139111350602913,46,20.2,-522.1278076171875,0.9314999580383301,0,0.0,0.0,1.57542003E9,,,,0,,1,1.88,1.57542003E9
Raw,329383668,329450999000000,,,-1457982460431826074,0.7408847808837891,81.35019743349403,-4.597522510582021,14.196554835019615,1461,5,0.0,783,139097297993122,593,18.9,-15.474090576171875,25.156999588012695,0,0.0,0.0,1.56109798E9,,,,0,,5,1.51,1.56109798E9
Raw,329383668,329450999000000,,,-1457982460431826074,0.7408847808837891,81.35019743349403,-4.597522510582021,14.196554835019615,1461,26,0.0,7183,139111344785133,31,23.4,-393.2228698730469,0.6004999876022339,0,0.0,0.0,1.57542003E9,,,,0,,6,2.03,1.57542003E9
Fix,gps,45.066050,7.657093,320.140991,0.000000,10.720000,1774276695000
Raw,329384652,329451999000000,,,-1457982460431826072,0.38001251220703125,81.68658678187057,-3.3102739448582046,15.704010526911926,1461,9,0.0,207,63494360278401,24,25.5,235.93154907226562,0.5817999839782715,0,0.0,0.0,1.60087501E9,,,,0,,3,-0.18,1.60087501E9
Raw,329384652,329451999000000,,,-1457982460431826072,0.38001251220703125,81.68658678187057,-3.3102739448582046,15.704010526911926,1461,19,0.0,207,63494363188552,31,23.5,-314.525634765625,0.9309999942779541,0,0.0,0.0,1.60368755E9,,,,0,,3,-0.18,1.60368755E9
Raw,329384653,329451999000000,,,-1457982460431826072,0.38001251220703125,81.68658678187057,-3.3102739448582046,15.704010526911926,1461,3,0.0,207,63494361544083,46,20.8,-339.7577819824219,1.1180000305175781,0,0.0,0.0,1.60481254E9,,,,0,,3,-0.18,1.60481254E9
Raw,329384653,329451999000000,,,-1457982460431826072,0.38001251220703125,81.68658678187057,-3.3102739448582046,15.704010526911926,1461,1,0.0,15,139112350868999,61,18.0,-574.90576171875,1.091499924659729,0,0.0,0.0,1.57542003E9,,,,0,,1,1.76,1.57542003E9
Raw,329384653,329451999000000,,,-1457982460431826072,0.38001251220703125,81.68658678187057,-3.3102739448582046,15.704010526911926,1461,2,0.0,15,139112358852699,14,30.6,-315.9730529785156,0.052800003439188004,0,0.0,0.0,1.57542003E9,,,,0,,1,1.76,1.57542003E9
Raw,329384654,329451999000000,,,-1457982460431826072,0.38001251220703125,81.68658678187057,-3.3102739448582046,15.704010526911926,1461,8,0.0,15,139112363352461,17,28.2,-159.89389038085938,0.03779999911785126,0,0.0,0.0,1.57542003E9,,,,0,,1,1.76,1.57542003E9
Raw,329384654,329451999000000,,,-1457982460431826072,0.38001251220703125,81.68658678187057,-3.3102739448582046,15.704010526911926,1461,10,0.0,15,139112359937831,53,19.3,177.01116943359375,0.9950000047683716,0,0.0,0.0,1.57542003E9,,,,0,,1,1.76,1.57542003E9
Raw,329384654,329451999000000,,,-1457982460431826072,0.38001251220703125,81.68658678187057,-3.3102739448582046,15.704010526911926,1461,16,0.0,15,139112352400066,53,19.4,707.3120727539062,1.0145000219345093,0,0.0,0.0,1.57542003E9,,,,0,,1,1.76,1.57542003E9
Raw,329384655,329451999000000,,,-1457982460431826072,0.38001251220703125,81.68658678187057,-3.3102739448582046,15.704010526911926,1461,27,0.0,15,139112362741072,70,17.5,263.27130126953125,1.0794999599456787,0,0.0,0.0,1.57542003E9,,,,0,,1,1.76,1.57542003E9
Raw,329384655,329451999000000,,,-1457982460431826072,0.38001251220703125,81.68658678187057,-3.3102739448582046,15.704010526911926,1461,32,0.0,15,139112350604683,70,17.6,-521.6805419921875,1.091499924659729,0,0.0,0.0,1.57542003E9,,,,0,,1,1.76,1.57542003E9
Raw,329384656,329451999000000,,,-1457982460431826072,0.38001251220703125,81.68658678187057,-3.3102739448582046,15.704010526911926,1461,26,0.0,7183,139112344786452,31,23.1,-392.9754638671875,0.6004999876022339,0,0.0,0.0,1.57542003E9,,,,0,,6,1.88,1.57542003E9
Fix,gps,45.066051,7.657093,319.519043,0.000000,10.720000,1774276696000
Raw,329385652,329452999000000,,,-1457982460431826074,0.12993717193603516,81.98140130843967,-1.440830317730513,14.002732672807928,1461,9,0.0,207,63495360277652,35,22.6,236.8283233642578,0.9864999651908875,0,0.0,0.0,1.60087501E9,,,,0,,3,-0.37,1.60087501E9
Raw,329385652,329452999000000,,,-1457982460431826074,0.12993717193603516,81.98140130843967,-1.440830317730513,14.002732672807928,1461,19,0.0,207,63495363189651,70,17.5,-314.7406005859375,1.371000051498413,0,0.0,0.0,1.60368755E9,,,,0,,3,-0.37,1.60368755E9
Raw,329385653,329452999000000,,,-1457982460431826074,0.12993717193603516,81.98140130843967,-1.440830317730513,14.002732672807928,1461,3,0.0,207,63495361545237,61,18.9,-340.34625244140625,1.277999997138977,0,0.0,0.0,1.60481254E9,,,,0,,3,-0.37,1.60481254E9
Raw,329385653,329452999000000,,,-1457982460431826074,0.12993717193603516,81.98140130843967,-1.440830317730513,14.002732672807928,1461,4,0.0,207,63495354962421,103,15.3,-812.3505249023438,3.077500104904175,0,0.0,0.0,1.60537498E9,,,,0,,3,-0.37,1.60537498E9
Raw,329385654,329452999000000,,,-1457982460431826074,0.12993717193603516,81.98140130843967,-1.440830317730513,14.002732672807928,1461,2,0.0,15,139113358853787,14,30.8,-315.74481201171875,0.052800003439188004,0,0.0,0.0,1.57542003E9,,,,0,,1,1.62,1.57542003E9
Raw,329385654,329452999000000,,,-1457982460431826074,0.12993717193603516,81.98140130843967,-1.440830317730513,14.002732672807928,1461,8,0.0,15,139113363352955,21,26.3,-159.65646362304688,0.11569999903440475,0,0.0,0.0,1.57542003E9,,,,0,,1,1.62,1.57542003E9
Raw,329385654,329452999000000,,,-1457982460431826074,0.12993717193603516,81.98140130843967,-1.440830317730513,14.002732672807928,1461,27,0.0,15,139113362740183,61,18.9,264.8507385253906,0.999500036239624,0,0.0,0.0,1.57542003E9,,,,0,,1,1.62,1.57542003E9
Raw,329385655,329452999000000,,,-1457982460431826074,0.12993717193603516,81.98140130843967,-1.440830317730513,14.002732672807928,1461,32,0.0,15,139113350606429,46,20.9,-523.3646850585938,0.8614999651908875,0,0.0,0.0,1.57542003E9,,,,0,,1,1.62,1.57542003E9
Raw,329385657,329452999000000,,,-1457982460431826074,0.12993717193603516,81.98140130843967,-1.440830317730513,14.002732672807928,1461,13,0.0,7183,139113352914425,124,14.7,-11.912384033203125,3.440500020980835,0,0.0,0.0,1.57542003E9,,,,0,,6,1.88,1.57542003E9
Raw,329385657,329452999000000,,,-1457982460431826074,0.12993717193603516,81.98140130843967,-1.440830317730513,14.002732672807928,1461,26,0.0,7183,139113344787760,31,23.4,-392.07159423828125,0.6004999876022339,0,0.0,0.0,1.57542003E9,,,,0,,6,1.88,1.57542003E9
Fix,gps,45.066052,7.657095,319.504517,0.000000,10.720000,1774276697000
Raw,329386669,329453999000000,,,-1457982460431826087,0.6278629302978516,84.23813414992765,-2.907523697720975,13.948400817377927,1461,9,0.0,207,63496360276784,35,22.0,236.85641479492188,0.9864999651908875,0,0.0,0.0,1.60087501E9,,,,0,,3,-0.27,1.60087501E9
Raw,329386670,329453999000000,,,-1457982460431826087,0.6278629302978516,84.23813414992765,-2.907523697720975,13.948400817377927,1461,3,0.0,207,63496361546370,46,20.7,-339.53363037109375,1.1180000305175781,0,0.0,0.0,1.60481254E9,,,,0,,3,-0.27,1.60481254E9
Raw,329386670,329453999000000,,,-1457982460431826087,0.6278629302978516,84.23813414992765,-2.907523697720975,13.948400817377927,1461,1,0.0,15,139114350872968,84,16.5,-573.193115234375,1.93149995803833,0,0.0,0.0,1.57542003E9,,,,0,,1,1.82,1.57542003E9
Raw,329386671,329453999000000,,,-1457982460431826087,0.6278629302978516,84.23813414992765,-2.907523697720975,13.948400817377927,1461,2,0.0,15,139114358854810,14,30.5,-315.4316101074219,0.052800003439188004,0,0.0,0.0,1.57542003E9,,,,0,,1,1.82,1.57542003E9
Raw,329386671,329453999000000,,,-1457982460431826087,0.6278629302978516,84.23813414992765,-2.907523697720975,13.948400817377927,1461,8,0.0,15,139114363353526,24,25.3,-159.28857421875,0.3862999975681305,0,0.0,0.0,1.57542003E9,,,,0,,1,1.82,1.57542003E9
Raw,329386671,329453999000000,,,-1457982460431826087,0.6278629302978516,84.23813414992765,-2.907523697720975,13.948400817377927,1461,16,0.0,15,139114352395222,96,15.2,707.359619140625,2.124500036239624,0,0.0,0.0,1.57542003E9,,,,0,,1,1.82,1.57542003E9
Raw,329386672,329453999000000,,,-1457982460431826087,0.6278629302978516,84.23813414992765,-2.907523697720975,13.948400817377927,1461,27,0.0,15,139114362739325,61,18.1,265.29791259765625,1.0794999599456787,0,0.0,0.0,1.57542003E9,,,,0,,1,1.82,1.57542003E9
Raw,329386672,329453999000000,,,-1457982460431826087,0.6278629302978516,84.23813414992765,-2.907523697720975,13.948400817377927,1461,32,0.0,15,139114350608114,40,21.6,-521.91845703125,0.8014999628067017,0,0.0,0.0,1.57542003E9,,,,0,,1,1.82,1.57542003E9
Raw,329386673,329453999000000,,,-1457982460431826087,0.6278629302978516,84.23813414992765,-2.907523697720975,13.948400817377927,1461,26,0.0,7183,139114344789071,24,25.0,-392.21087646484375,0.4058000147342682,0,0.0,0.0,1.57542003E9,,,,0,,6,1.88,1.57542003E9
Fix,gps,45.066053,7.657095,319.127319,0.000000,10.720000,1774276698000
Raw,329387671,329454999000000,,,-1457982460431826090,0.21549701690673828,85.54097439628094,-1.8878486644346175,15.572706819852076,1461,9,0.0,207,63497360276071,31,23.4,236.46315002441406,0.9264999628067017,0,0.0,0.0,1.60087501E9,,,,0,,3,-0.03,1.60087501E9
Raw,329387671,329454999000000,,,-1457982460431826090,0.21549701690673828,85.54097439628094,-1.8878486644346175,15.572706819852076,1461,16,0.0,207,63497355104058,154,13.5,781.3722534179688,4.819000244140625,0,0.0,0.0,1.60143744E9,,,,0,,3,-0.03,1.60143744E9
Raw,329387672,329454999000000,,,-1457982460431826090,0.21549701690673828,85.54097439628094,-1.8878486644346175,15.572706819852076,1461,3,0.0,207,63497361547467,35,22.0,-340.1407470703125,0.9879999756813049,0,0.0,0.0,1.60481254E9,,,,0,,3,-0.03,1.60481254E9
Raw,329387672,329454999000000,,,-1457982460431826090,0.21549701690673828,85.54097439628094,-1.8878486644346175,15.572706819852076,1461,1,0.0,15,139115350874897,70,17.4,-573.4024047851562,1.18149995803833,0,0.0,0.0,1.57542003E9,,,,0,,1,2.0,1.57542003E9
Raw,329387673,329454999000000,,,-1457982460431826090,0.21549701690673828,85.54097439628094,-1.8878486644346175,15.572706819852076,1461,2,0.0,15,139115358855852,13,31.1,-315.5887756347656,0.05220000073313713,0,0.0,0.0,1.57542003E9,,,,0,,1,2.0,1.57542003E9
Raw,329387673,329454999000000,,,-1457982460431826090,0.21549701690673828,85.54097439628094,-1.8878486644346175,15.572706819852076,1461,8,0.0,15,139115363354016,21,26.5,-159.41650390625,0.11569999903440475,0,0.0,0.0,1.57542003E9,,,,0,,1,2.0,1.57542003E9
Raw,329387673,329454999000000,,,-1457982460431826090,0.21549701690673828,85.54097439628094,-1.8878486644346175,15.572706819852076,1461,27,0.0,15,139115362738371,61,18.0,263.708984375,1.0794999599456787,0,0.0,0.0,1.57542003E9,,,,0,,1,2.0,1.57542003E9
Raw,329387674,329454999000000,,,-1457982460431826090,0.21549701690673828,85.54097439628094,-1.8878486644346175,15.572706819852076,1461,32,0.0,15,139115350609811,61,18.5,-523.4883422851562,1.0115000009536743,0,0.0,0.0,1.57542003E9,,,,0,,1,2.0,1.57542003E9
Raw,329387674,329454999000000,,,-1457982460431826090,0.21549701690673828,85.54097439628094,-1.8878486644346175,15.572706819852076,1461,21,0.0,7183,139115349764802,135,14.8,193.11953735351562,4.191999912261963,0,0.0,0.0,1.57542003E9,,,,0,,6,2.03,1.57542003E9
Raw,329387675,329454999000000,,,-1457982460431826090,0.21549701690673828,85.54097439628094,-1.8878486644346175,15.572706819852076,1461,26,0.0,7183,139115344790371,27,24.7,-392.3570251464844,0.5504999756813049,0,0.0,0.0,1.57542003E9,,,,0,,6,2.03,1.57542003E9
Fix,gps,45.066053,7.657095,319.349854,0.000000,10.720000,1774276699000
Raw,329388672,329455999000000,,,-1457982460431826094,0.8180322647094727,85.62397124478593,-3.357573945349359,14.264406429644412,1461,9,0.0,207,63498360275139,27,24.3,237.3058624267578,0.8664999604225159,0,0.0,0.0,1.60087501E9,,,,0,,3,-0.02,1.60087501E9
Raw,329388672,329455999000000,,,-1457982460431826094,0.8180322647094727,85.62397124478593,-3.357573945349359,14.264406429644412,1461,19,0.0,207,63498363192603,103,15.9,-313.73114013671875,3.061000108718872,0,0.0,0.0,1.60368755E9,,,,0,,3,-0.02,1.60368755E9
Raw,329388673,329455999000000,,,-1457982460431826094,0.8180322647094727,85.62397124478593,-3.357573945349359,14.264406429644412,1461,3,0.0,207,63498361548511,46,20.0,-339.1226501464844,1.1180000305175781,0,0.0,0.0,1.60481254E9,,,,0,,3,-0.02,1.60481254E9
Raw,329388673,329455999000000,,,-1457982460431826094,0.8180322647094727,85.62397124478593,-3.357573945349359,14.264406429644412,1461,4,0.0,207,63498354970348,117,14.1,-812.2944946289062,3.197500228881836,0,0.0,0.0,1.60537498E9,,,,0,,3,-0.02,1.60537498E9
Raw,329388674,329455999000000,,,-1457982460431826094,0.8180322647094727,85.62397124478593,-3.357573945349359,14.264406429644412,1461,2,0.0,15,139116358856912,13,31.3,-315.3885192871094,0.05220000073313713,0,0.0,0.0,1.57542003E9,,,,0,,1,1.94,1.57542003E9
Raw,329388674,329455999000000,,,-1457982460431826094,0.8180322647094727,85.62397124478593,-3.357573945349359,14.264406429644412,1461,8,0.0,15,139116363354575,19,27.0,-159.26353454589844,0.04580000042915344,0,0.0,0.0,1.57542003E9,,,,0,,1,1.94,1.57542003E9
Raw,329388675,329455999000000,,,-1457982460431826094,0.8180322647094727,85.62397124478593,-3.357573945349359,14.264406429644412,1461,16,0.0,15,139116352390561,110,14.1,706.5128173828125,2.244500160217285,0,0.0,0.0,1.57542003E9,,,,0,,1,1.94,1.57542003E9
Raw,329388675,329455999000000,,,-1457982460431826094,0.8180322647094727,85.62397124478593,-3.357573945349359,14.264406429644412,1461,27,0.0,15,139116362737502,53,19.5,264.5462646484375,0.9194999933242798,0,0.0,0.0,1.57542003E9,,,,0,,1,1.94,1.57542003E9
Raw,329388676,329455999000000,,,-1457982460431826094,0.8180322647094727,85.62397124478593,-3.357573945349359,14.264406429644412,1461,32,0.0,15,139116350611489,61,18.2,-521.4617309570312,1.091499924659729,0,0.0,0.0,1.57542003E9,,,,0,,1,1.94,1.57542003E9
Raw,329388676,329455999000000,,,-1457982460431826094,0.8180322647094727,85.62397124478593,-3.357573945349359,14.264406429644412,1461,26,0.0,7183,139116344791691,31,23.8,-391.9669189453125,0.6004999876022339,0,0.0,0.0,1.57542003E9,,,,0,,6,1.95,1.57542003E9
Fix,gps,45.066053,7.657095,319.533936,0.000000,10.720000,1774276700000
Raw,329389669,329456999000000,,,-1457982460431826088,0.10794448852539062,89.94381641969085,-2.320148886238094,15.527436370797693,1461,9,0.0,207,63499360274372,31,23.0,237.53994750976562,0.9264999628067017,0,0.0,0.0,1.60087501E9,,,,0,,3,0.01,1.60087501E9
Raw,329389669,329456999000000,,,-1457982460431826088,0.10794448852539062,89.94381641969085,-2.320148886238094,15.527436370797693,1461,19,0.0,207,63499363193717,46,20.3,-312.07672119140625,1.121000051498413,0,0.0,0.0,1.60368755E9,,,,0,,3,0.01,1.60368755E9
Raw,329389670,329456999000000,,,-1457982460431826088,0.10794448852539062,89.94381641969085,-2.320148886238094,15.527436370797693,1461,3,0.0,207,63499361549848,40,21.9,-337.9270935058594,1.0479999780654907,0,0.0,0.0,1.60481254E9,,,,0,,3,0.01,1.60481254E9
Raw,329389670,329456999000000,,,-1457982460431826088,0.10794448852539062,89.94381641969085,-2.320148886238094,15.527436370797693,1461,4,0.0,207,63499354973245,61,18.3,-811.8836669921875,1.2975000143051147,0,0.0,0.0,1.60537498E9,,,,0,,3,0.01,1.60537498E9
Raw,329389671,329456999000000,,,-1457982460431826088,0.10794448852539062,89.94381641969085,-2.320148886238094,15.527436370797693,1461,2,0.0,15,139117358857980,13,31.6,-315.0037536621094,0.05220000073313713,0,0.0,0.0,1.57542003E9,,,,0,,1,1.94,1.57542003E9
Raw,329389671,329456999000000,,,-1457982460431826088,0.10794448852539062,89.94381641969085,-2.320148886238094,15.527436370797693,1461,8,0.0,15,139117363355144,24,25.6,-158.7440948486328,0.3862999975681305,0,0.0,0.0,1.57542003E9,,,,0,,1,1.94,1.57542003E9
Raw,329389671,329456999000000,,,-1457982460431826088,0.10794448852539062,89.94381641969085,-2.320148886238094,15.527436370797693,1461,10,0.0,15,139117359934990,170,12.8,177.8389434814453,4.595000267028809,0,0.0,0.0,1.57542003E9,,,,0,,1,1.94,1.57542003E9
Raw,329389672,329456999000000,,,-1457982460431826088,0.10794448852539062,89.94381641969085,-2.320148886238094,15.527436370797693,1461,27,0.0,15,139117362736664,53,19.5,265.3550109863281,0.9194999933242798,0,0.0,0.0,1.57542003E9,,,,0,,1,1.94,1.57542003E9
Raw,329389672,329456999000000,,,-1457982460431826088,0.10794448852539062,89.94381641969085,-2.320148886238094,15.527436370797693,1461,3,0.0,7183,139117340174152,238,12.6,-238.90420532226562,7.380500316619873,0,0.0,0.0,1.57542003E9,,,,0,,6,2.03,1.57542003E9
Raw,329389672,329456999000000,,,-1457982460431826088,0.10794448852539062,89.94381641969085,-2.320148886238094,15.527436370797693,1461,26,0.0,7183,139117344792973,27,24.7,-391.4911804199219,0.5504999756813049,0,0.0,0.0,1.57542003E9,,,,0,,6,2.03,1.57542003E9
Fix,gps,45.066053,7.657095,319.695190,0.000000,10.720000,1774276701000
Raw,329390656,329457999000000,,,-1457982460431826094,0.9819450378417969,90.93829430639744,-1.201976787146527,16.443670686586508,1461,9,0.0,207,63500360273724,40,21.7,237.58676147460938,1.0464999675750732,0,0.0,0.0,1.60087501E9,,,,0,,3,0.05,1.60087501E9
Raw,329390657,329457999000000,,,-1457982460431826094,0.9819450378417969,90.93829430639744,-1.201976787146527,16.443670686586508,1461,19,0.0,207,63500363194908,46,20.5,-313.20770263671875,1.121000051498413,0,0.0,0.0,1.60368755E9,,,,0,,3,0.05,1.60368755E9
Raw,329390658,329457999000000,,,-1457982460431826094,0.9819450378417969,90.93829430639744,-1.201976787146527,16.443670686586508,1461,3,0.0,207,63500361550943,46,20.5,-339.4775695800781,1.1180000305175781,0,0.0,0.0,1.60481254E9,,,,0,,3,0.05,1.60481254E9
Raw,329390658,329457999000000,,,-1457982460431826094,0.9819450378417969,90.93829430639744,-1.201976787146527,16.443670686586508,1461,4,0.0,207,63500354975758,61,18.9,-812.28515625,1.2975000143051147,0,0.0,0.0,1.60537498E9,,,,0,,3,0.05,1.60537498E9
Raw,329390658,329457999000000,,,-1457982460431826094,0.9819450378417969,90.93829430639744,-1.201976787146527,16.443670686586508,1461,1,0.0,15,139118350880438,116,14.6,-573.6307373046875,2.871500015258789,0,0.0,0.0,1.57542003E9,,,,0,,1,2.0,1.57542003E9
Raw,329390659,329457999000000,,,-1457982460431826094,0.9819450378417969,90.93829430639744,-1.201976787146527,16.443670686586508,1461,2,0.0,15,139118358859017,12,32.1,-314.710205078125,0.05090000107884407,0,0.0,0.0,1.57542003E9,,,,0,,1,2.0,1.57542003E9
Raw,329390659,329457999000000,,,-1457982460431826094,0.9819450378417969,90.93829430639744,-1.201976787146527,16.443670686586508,1461,8,0.0,15,139118363355659,21,26.4,-158.42465209960938,0.11569999903440475,0,0.0,0.0,1.57542003E9,,,,0,,1,2.0,1.57542003E9
Raw,329390660,329457999000000,,,-1457982460431826094,0.9819450378417969,90.93829430639744,-1.201976787146527,16.443670686586508,1461,10,0.0,15,139118359934458,80,16.0,177.42982482910156,1.2549999952316284,0,0.0,0.0,1.57542003E9,,,,0,,1,2.0,1.57542003E9
Raw,329390660,329457999000000,,,-1457982460431826094,0.9819450378417969,90.93829430639744,-1.201976787146527,16.443670686586508,1461,16,0.0,15,139118352386007,84,16.4,708.8534545898438,2.0245001316070557,0,0.0,0.0,1.57542003E9,,,,0,,1,2.0,1.57542003E9
Raw,329390660,329457999000000,,,-1457982460431826094,0.9819450378417969,90.93829430639744,-1.201976787146527,16.443670686586508,1461,27,0.0,15,139118362735820,61,18.8,264.5367431640625,0.999500036239624,0,0.0,0.0,1.57542003E9,,,,0,,1,2.0,1.57542003E9
Raw,329390661,329457999000000,,,-1457982460431826094,0.9819450378417969,90.93829430639744,-1.201976787146527,16.443670686586508,1461,32,0.0,15,139118350615071,73,17.7,-521.6044921875,1.841499924659729,0,0.0,0.0,1.57542003E9,,,,0,,1,2.0,1.57542003E9
Raw,329390661,329457999000000,,,-1457982460431826094,0.9819450378417969,90.93829430639744,-1.201976787146527,16.443670686586508,1461,21,0.0,7183,139118349762898,101,15.4,194.43255615234375,2.6019999980926514,0,0.0,0.0,1.57542003E9,,,,0,,6,2.03,1.57542003E9
Raw,329390662,329457999000000,,,-1457982460431826094,0.9819450378417969,90.93829430639744,-1.201976787146527,16.443670686586508,1461,26,0.0,7183,139118344794288,24,25.0,-391.65032958984375,0.4058000147342682,0,0.0,0.0,1.57542003E9,,,,0,,6,2.03,1.57542003E9
Fix,gps,45.066053,7.657095,319.524292,0.000000,10.720000,1774276702000
Raw,329391655,329458999000000,,,-1457982460431826096,0.3444395065307617,84.8336421768181,-0.5630536456551443,14.595717977236955,1461,9,0.0,207,63501360272864,35,22.8,237.98001098632812,0.9864999651908875,0,0.0,0.0,1.60087501E9,,,,0,,3,0.07,1.60087501E9
Raw,329391656,329458999000000,,,-1457982460431826096,0.3444395065307617,84.8336421768181,-0.5630536456551443,14.595717977236955,1461,16,0.0,207,63501355093847,126,14.2,781.7466430664062,3.949000120162964,0,0.0,0.0,1.60143744E9,,,,0,,3,0.07,1.60143744E9
Raw,329391656,329458999000000,,,-1457982460431826096,0.3444395065307617,84.8336421768181,-0.5630536456551443,14.595717977236955,1461,19,0.0,207,63501363195984,40,21.4,-312.8431701660156,1.0509999990463257,0,0.0,0.0,1.60368755E9,,,,0,,3,0.07,1.60368755E9
Raw,329391656,329458999000000,,,-1457982460431826096,0.3444395065307617,84.8336421768181,-0.5630536456551443,14.595717977236955,1461,3,0.0,207,63501361552069,40,21.2,-338.0765075683594,1.0479999780654907,0,0.0,0.0,1.60481254E9,,,,0,,3,0.07,1.60481254E9
Raw,329391657,329458999000000,,,-1457982460431826096,0.3444395065307617,84.8336421768181,-0.5630536456551443,14.595717977236955,1461,2,0.0,15,139119358860076,12,32.6,-314.5382080078125,0.05090000107884407,0,0.0,0.0,1.57542003E9,,,,0,,1,2.06,1.57542003E9
Raw,329391657,329458999000000,,,-1457982460431826096,0.3444395065307617,84.8336421768181,-0.5630536456551443,14.595717977236955,1461,8,0.0,15,139119363356139,24,25.4,-158.25221252441406,0.3862999975681305,0,0.0,0.0,1.57542003E9,,,,0,,1,2.06,1.57542003E9
Raw,329391658,329458999000000,,,-1457982460431826096,0.3444395065307617,84.8336421768181,-0.5630536456551443,14.595717977236955,1461,10,0.0,15,139119359933773,61,18.4,177.8484649658203,1.0749999284744263,0,0.0,0.0,1.57542003E9,,,,0,,1,2.06,1.57542003E9
Raw,329391658,329458999000000,,,-1457982460431826096,0.3444395065307617,84.8336421768181,-0.5630536456551443,14.595717977236955,1461,16,0.0,15,139119352383667,80,16.0,706.5984497070312,1.2745000123977661,0,0.0,0.0,1.57542003E9,,,,0,,1,2.06,1.57542003E9
Raw,329391659,329458999000000,,,-1457982460431826096,0.3444395065307617,84.8336421768181,-0.5630536456551443,14.595717977236955,1461,27,0.0,15,139119362734746,53,19.7,265.5643310546875,0.9194999933242798,0,0.0,0.0,1.57542003E9,,,,0,,1,2.06,1.57542003E9
Raw,329391660,329458999000000,,,-1457982460431826096,0.3444395065307617,84.8336421768181,-0.5630536456551443,14.595717977236955,1461,3,0.0,7183,139119340175771,84,16.0,-237.7909698486328,1.7705000638961792,0,0.0,0.0,1.57542003E9,,,,0,,6,2.1,1.57542003E9
Raw,329391661,329458999000000,,,-1457982460431826096,0.3444395065307617,84.8336421768181,-0.5630536456551443,14.595717977236955,1461,13,0.0,7183,139119352914648,164,13.5,-11.417619705200195,5.030500411987305,0,0.0,0.0,1.57542003E9,,,,0,,6,2.1,1.57542003E9
Raw,329391661,329458999000000,,,-1457982460431826096,0.3444395065307617,84.8336421768181,-0.5630536456551443,14.595717977236955,1461,21,0.0,7183,139119349762238,70,17.9,194.54673767089844,0.9419999718666077,0,0.0,0.0,1.57542003E9,,,,0,,6,2.1,1.57542003E9
Raw,329391661,329458999000000,,,-1457982460431826096,0.3444395065307617,84.8336421768181,-0.5630536456551443,14.595717977236955,1461,26,0.0,7183,139119344795611,21,26.4,-391.5016174316406,0.13520000874996185,0,0.0,0.0,1.57542003E9,,,,0,,6,2.1,1.57542003E9
Raw,329391662,329458999000000,,,-1457982460431826096,0.3444395065307617,84.8336421768181,-0.5630536456551443,14.595717977236955,1461,27,0.0,7183,139119342162908,1121,13.3,581.299560546875,8.303500175476074,0,0.0,0.0,1.57542003E9,,,,0,,6,2.1,1.57542003E9
Fix,gps,45.066053,7.657095,319.525024,0.000000,10.720000,1774276703000
Raw,329392654,329459999000000,,,-1457982460431826097,0.3013582229614258,81.64747123373672,0.08573652582522577,13.998323647272873,1461,9,0.0,207,63502360272050,53,19.0,239.1785430908203,1.1965000629425049,0,0.0,0.0,1.60087501E9,,,,0,,3,0.08,1.60087501E9
Raw,329392655,329459999000000,,,-1457982460431826097,0.3013582229614258,81.64747123373672,0.08573652582522577,13.998323647272873,1461,19,0.0,207,63502363196859,46,20.8,-311.5345764160156,1.121000051498413,0,0.0,0.0,1.60368755E9,,,,0,,3,0.08,1.60368755E9
Raw,329392655,329459999000000,,,-1457982460431826097,0.3013582229614258,81.64747123373672,0.08573652582522577,13.998323647272873,1461,3,0.0,207,63502361553116,40,21.9,-337.3853454589844,1.0479999780654907,0,0.0,0.0,1.60481254E9,,,,0,,3,0.08,1.60481254E9
Raw,329392655,329459999000000,,,-1457982460431826097,0.3013582229614258,81.64747123373672,0.08573652582522577,13.998323647272873,1461,4,0.0,207,63502354981444,64,18.1,-811.2393798828125,2.0475001335144043,0,0.0,0.0,1.60537498E9,,,,0,,3,0.08,1.60537498E9
Raw,329392656,329459999000000,,,-1457982460431826097,0.3013582229614258,81.64747123373672,0.08573652582522577,13.998323647272873,1461,1,0.0,15,139120350884409,84,16.6,-572.2987060546875,1.93149995803833,0,0.0,0.0,1.57542003E9,,,,0,,1,2.03,1.57542003E9
Raw,329392656,329459999000000,,,-1457982460431826097,0.3013582229614258,81.64747123373672,0.08573652582522577,13.998323647272873,1461,2,0.0,15,139120358861121,12,32.7,-314.1624755859375,0.05090000107884407,0,0.0,0.0,1.57542003E9,,,,0,,1,2.03,1.57542003E9
Raw,329392657,329459999000000,,,-1457982460431826097,0.3013582229614258,81.64747123373672,0.08573652582522577,13.998323647272873,1461,8,0.0,15,139120363356716,24,25.4,-157.84054565429688,0.3862999975681305,0,0.0,0.0,1.57542003E9,,,,0,,1,2.03,1.57542003E9
Raw,329392657,329459999000000,,,-1457982460431826097,0.3013582229614258,81.64747123373672,0.08573652582522577,13.998323647272873,1461,10,0.0,15,139120359933224,46,20.6,179.0473175048828,0.8449999690055847,0,0.0,0.0,1.57542003E9,,,,0,,1,2.03,1.57542003E9
Raw,329392657,329459999000000,,,-1457982460431826097,0.3013582229614258,81.64747123373672,0.08573652582522577,13.998323647272873,1461,27,0.0,15,139120362733968,46,20.8,265.39306640625,0.8495000004768372,0,0.0,0.0,1.57542003E9,,,,0,,1,2.03,1.57542003E9
Raw,329392658,329459999000000,,,-1457982460431826097,0.3013582229614258,81.64747123373672,0.08573652582522577,13.998323647272873,1461,32,0.0,15,139120350618415,64,18.7,-521.1763305664062,1.7615000009536743,0,0.0,0.0,1.57542003E9,,,,0,,1,2.03,1.57542003E9
Raw,329392658,329459999000000,,,-1457982460431826097,0.3013582229614258,81.64747123373672,0.08573652582522577,13.998323647272873,1461,21,0.0,7183,139120349761601,53,19.0,195.36500549316406,0.8119999766349792,0,0.0,0.0,1.57542003E9,,,,0,,6,2.1,1.57542003E9
Raw,329392659,329459999000000,,,-1457982460431826097,0.3013582229614258,81.64747123373672,0.08573652582522577,13.998323647272873,1461,26,0.0,7183,139120344796919,19,27.0,-391.13238525390625,0.06530000269412994,0,0.0,0.0,1.57542003E9,,,,0,,6,2.1,1.57542003E9
Raw,329392659,329459999000000,,,-1457982460431826097,0.3013582229614258,81.64747123373672,0.08573652582522577,13.998323647272873,1461,27,0.0,7183,139120342160968,1148,13.8,581.34716796875,9.053500175476074,0,0.0,0.0,1.57542003E9,,,,0,,6,2.1,1.57542003E9
Fix,gps,45.066053,7.657095,319.526001,0.000000,10.720000,1774276704000
Raw,329393657,329460999000000,,,-1457982460431826090,0.6327295303344727,81.9272463559173,2.5968856207345192,14.00836801821583,1461,9,0.0,207,63503360271324,53,19.1,238.36390686035156,1.1965000629425049,0,0.0,0.0,1.60087501E9,,,,0,,3,0.07,1.60087501E9
Raw,329393658,329460999000000,,,-1457982460431826090,0.6327295303344727,81.9272463559173,2.5968856207345192,14.00836801821583,1461,19,0.0,207,63503363198126,31,23.2,-312.5721130371094,0.9309999942779541,0,0.0,0.0,1.60368755E9,,,,0,,3,0.07,1.60368755E9
Raw,329393658,329460999000000,,,-1457982460431826090,0.6327295303344727,81.9272463559173,2.5968856207345192,14.00836801821583,1461,3,0.0,207,63503361554221,53,19.1,-336.7781982421875,1.1980000734329224,0,0.0,0.0,1.60481254E9,,,,0,,3,0.07,1.60481254E9
Raw,329393659,329460999000000,,,-1457982460431826090,0.6327295303344727,81.9272463559173,2.5968856207345192,14.00836801821583,1461,2,0.0,15,139121358862157,12,32.4,-313.9945983886719,0.05090000107884407,0,0.0,0.0,1.57542003E9,,,,0,,1,2.06,1.57542003E9
Raw,329393660,329460999000000,,,-1457982460431826090,0.6327295303344727,81.9272463559173,2.5968856207345192,14.00836801821583,1461,8,0.0,15,139121363357217,24,25.1,-157.61532592773438,0.3862999975681305,0,0.0,0.0,1.57542003E9,,,,0,,1,2.06,1.57542003E9
Raw,329393660,329460999000000,,,-1457982460431826090,0.6327295303344727,81.9272463559173,2.5968856207345192,14.00836801821583,1461,10,0.0,15,139121359932557,53,19.4,178.83798217773438,0.9950000047683716,0,0.0,0.0,1.57542003E9,,,,0,,1,2.06,1.57542003E9
Raw,329393661,329460999000000,,,-1457982460431826090,0.6327295303344727,81.9272463559173,2.5968856207345192,14.00836801821583,1461,16,0.0,15,139121352378716,84,16.3,708.691650390625,2.0245001316070557,0,0.0,0.0,1.57542003E9,,,,0,,1,2.06,1.57542003E9
Raw,329393661,329460999000000,,,-1457982460431826090,0.6327295303344727,81.9272463559173,2.5968856207345192,14.00836801821583,1461,32,0.0,15,139121350620157,70,17.1,-520.3104858398438,1.18149995803833,0,0.0,0.0,1.57542003E9,,,,0,,1,2.06,1.57542003E9
Raw,329393662,329460999000000,,,-1457982460431826090,0.6327295303344727,81.9272463559173,2.5968856207345192,14.00836801821583,1461,3,0.0,7183,139121340177311,84,16.4,-235.79287719726562,1.7705000638961792,0,0.0,0.0,1.57542003E9,,,,0,,6,2.1,1.57542003E9
Raw,329393662,329460999000000,,,-1457982460431826090,0.6327295303344727,81.9272463559173,2.5968856207345192,14.00836801821583,1461,21,0.0,7183,139121349760960,61,18.3,195.22227478027344,0.871999979019165,0,0.0,0.0,1.57542003E9,,,,0,,6,2.1,1.57542003E9
Raw,329393662,329460999000000,,,-1457982460431826090,0.6327295303344727,81.9272463559173,2.5968856207345192,14.00836801821583,1461,23,0.0,7183,139121344441914,317,12.5,-334.5458068847656,9.630500793457031,0,0.0,0.0,1.57542003E9,,,,0,,6,2.1,1.57542003E9
Raw,329393663,329460999000000,,,-1457982460431826090,0.6327295303344727,81.9272463559173,2.5968856207345192,14.00836801821583,1461,26,0.0,7183,139121344798229,31,23.5,-391.1866760253906,0.6004999876022339,0,0.0,0.0,1.57542003E9,,,,0,,6,2.1,1.57542003E9
Raw,329393663,329460999000000,,,-1457982460431826090,0.6327295303344727,81.9272463559173,2.5968856207345192,14.00836801821583,1461,27,0.0,7183,139121342159029,1177,13.8,581.4518432617188,9.803500175476074,0,0.0,0.0,1.57542003E9,,,,0,,6,2.1,1.57542003E9
Fix,gps,45.066053,7.657095,319.459229,0.190000,9.648001,1774276705000
Raw,329394658,329461999000000,,,-1457982460431826083,0.17433929443359375,82.83899660455063,3.086325230867551,15.613369423677362,1461,9,0.0,207,63504360270453,24,25.3,239.06732177734375,0.5817999839782715,0,0.0,0.0,1.60087501E9,,,,0,,3,0.06,1.60087501E9
Raw,329394658,329461999000000,,,-1457982460431826083,0.17433929443359375,82.83899660455063,3.086325230867551,15.613369423677362,1461,16,0.0,207,63504355085671,117,14.7,782.40185546875,3.199000120162964,0,0.0,0.0,1.60143744E9,,,,0,,3,0.06,1.60143744E9
Raw,329394659,329461999000000,,,-1457982460431826083,0.17433929443359375,82.83899660455063,3.086325230867551,15.613369423677362,1461,19,0.0,207,63504363199097,13,31.0,-312.2438049316406,0.2296999990940094,0,0.0,0.0,1.60368755E9,,,,0,,3,0.06,1.60368755E9
Raw,329394660,329461999000000,,,-1457982460431826083,0.17433929443359375,82.83899660455063,3.086325230867551,15.613369423677362,1461,3,0.0,207,63504361555629,80,16.9,-337.4320373535156,1.4580000638961792,0,0.0,0.0,1.60481254E9,,,,0,,3,0.06,1.60481254E9
Raw,329394660,329461999000000,,,-1457982460431826083,0.17433929443359375,82.83899660455063,3.086325230867551,15.613369423677362,1461,4,0.0,207,63504354986689,97,15.6,-811.8089599609375,2.327500104904175,0,0.0,0.0,1.60537498E9,,,,0,,3,0.06,1.60537498E9
Raw,329394661,329461999000000,,,-1457982460431826083,0.17433929443359375,82.83899660455063,3.086325230867551,15.613369423677362,1461,1,0.0,15,139122350888063,73,17.2,-571.3282470703125,1.93149995803833,0,0.0,0.0,1.57542003E9,,,,0,,1,2.06,1.57542003E9
Raw,329394661,329461999000000,,,-1457982460431826083,0.17433929443359375,82.83899660455063,3.086325230867551,15.613369423677362,1461,2,0.0,15,139122358863175,27,24.4,-313.3185119628906,0.6934999823570251,0,0.0,0.0,1.57542003E9,,,,0,,1,2.06,1.57542003E9
Raw,329394661,329461999000000,,,-1457982460431826083,0.17433929443359375,82.83899660455063,3.086325230867551,15.613369423677362,1461,8,0.0,15,139122363357702,24,25.4,-157.53379821777344,0.3862999975681305,0,0.0,0.0,1.57542003E9,,,,0,,1,2.06,1.57542003E9
Raw,329394662,329461999000000,,,-1457982460431826083,0.17433929443359375,82.83899660455063,3.086325230867551,15.613369423677362,1461,10,0.0,15,139122359932013,35,22.3,178.0102081298828,0.7849999666213989,0,0.0,0.0,1.57542003E9,,,,0,,1,2.06,1.57542003E9
Raw,329394662,329461999000000,,,-1457982460431826083,0.17433929443359375,82.83899660455063,3.086325230867551,15.613369423677362,1461,27,0.0,15,139122362732217,84,16.9,266.9058837890625,1.9194999933242798,0,0.0,0.0,1.57542003E9,,,,0,,1,2.06,1.57542003E9
Raw,329394663,329461999000000,,,-1457982460431826083,0.17433929443359375,82.83899660455063,3.086325230867551,15.613369423677362,1461,32,0.0,15,139122350621857,53,19.1,-520.7005615234375,1.0115000009536743,0,0.0,0.0,1.57542003E9,,,,0,,1,2.06,1.57542003E9
Raw,329394663,329461999000000,,,-1457982460431826083,0.17433929443359375,82.83899660455063,3.086325230867551,15.613369423677362,1461,3,0.0,7183,139122340178137,53,19.0,-236.021240234375,0.8104999661445618,0,0.0,0.0,1.57542003E9,,,,0,,6,2.1,1.57542003E9
Raw,329394663,329461999000000,,,-1457982460431826083,0.17433929443359375,82.83899660455063,3.086325230867551,15.613369423677362,1461,23,0.0,7183,139122344443143,46,20.8,-334.1556701660156,0.750499963760376,0,0.0,0.0,1.57542003E9,,,,0,,6,2.1,1.57542003E9
Raw,329394664,329461999000000,,,-1457982460431826083,0.17433929443359375,82.83899660455063,3.086325230867551,15.613369423677362,1461,26,0.0,7183,139122344799562,46,20.3,-390.69195556640625,0.750499963760376,0,0.0,0.0,1.57542003E9,,,,0,,6,2.1,1.57542003E9
Raw,329394664,329461999000000,,,-1457982460431826083,0.17433929443359375,82.83899660455063,3.086325230867551,15.613369423677362,1461,27,0.0,7183,139122342157081,357,13.6,581.4708862304688,10.928500175476074,0,0.0,0.0,1.57542003E9,,,,0,,6,2.1,1.57542003E9
Fix,gps,45.066055,7.657097,319.125854,0.220000,9.648001,1774276706000
Raw,329395656,329462999000000,,,-1457982460431826078,0.7473735809326172,75.32440213253722,3.0883297310228732,12.93486096221029,1461,9,0.0,207,63505360269686,17,28.0,239.17904663085938,0.23330000042915344,0,0.0,0.0,1.60087501E9,,,,0,,3,-0.0,1.60087501E9
Raw,329395656,329462999000000,,,-1457982460431826078,0.7473735809326172,75.32440213253722,3.0883297310228732,12.93486096221029,1461,19,0.0,207,63505363200150,21,26.5,-312.36663818359375,0.3156999945640564,0,0.0,0.0,1.60368755E9,,,,0,,3,-0.0,1.60368755E9
Raw,329395657,329462999000000,,,-1457982460431826078,0.7473735809326172,75.32440213253722,3.0883297310228732,12.93486096221029,1461,3,0.0,207,63505361556453,35,22.4,-337.4040222167969,0.9879999756813049,0,0.0,0.0,1.60481254E9,,,,0,,3,-0.0,1.60481254E9
Raw,329395657,329462999000000,,,-1457982460431826078,0.7473735809326172,75.32440213253722,3.0883297310228732,12.93486096221029,1461,2,0.0,15,139123358864259,14,30.6,-313.89892578125,0.41350001096725464,0,0.0,0.0,1.57542003E9,,,,0,,1,1.94,1.57542003E9
Raw,329395657,329462999000000,,,-1457982460431826078,0.7473735809326172,75.32440213253722,3.0883297310228732,12.93486096221029,1461,8,0.0,15,139123363358255,53,19.8,-156.85906982421875,0.9210000038146973,0,0.0,0.0,1.57542003E9,,,,0,,1,1.94,1.57542003E9
Raw,329395658,329462999000000,,,-1457982460431826078,0.7473735809326172,75.32440213253722,3.0883297310228732,12.93486096221029,1461,32,0.0,15,139123350623780,46,20.9,-521.54736328125,0.8614999651908875,0,0.0,0.0,1.57542003E9,,,,0,,1,1.94,1.57542003E9
Raw,329395658,329462999000000,,,-1457982460431826078,0.7473735809326172,75.32440213253722,3.0883297310228732,12.93486096221029,1461,3,0.0,7183,139123340178936,61,18.8,-236.01171875,0.8704999685287476,0,0.0,0.0,1.57542003E9,,,,0,,6,2.03,1.57542003E9
Raw,329395659,329462999000000,,,-1457982460431826078,0.7473735809326172,75.32440213253722,3.0883297310228732,12.93486096221029,1461,13,0.0,7183,139123352914756,97,16.1,-9.105552673339844,3.2705001831054688,0,0.0,0.0,1.57542003E9,,,,0,,6,2.03,1.57542003E9
Raw,329395660,329462999000000,,,-1457982460431826078,0.7473735809326172,75.32440213253722,3.0883297310228732,12.93486096221029,1461,21,0.0,7183,139123349759635,64,18.1,195.00343322753906,1.621999979019165,0,0.0,0.0,1.57542003E9,,,,0,,6,2.03,1.57542003E9
Raw,329395660,329462999000000,,,-1457982460431826078,0.7473735809326172,75.32440213253722,3.0883297310228732,12.93486096221029,1461,23,0.0,7183,139123344444268,70,17.5,-333.7560729980469,0.9404999613761902,0,0.0,0.0,1.57542003E9,,,,0,,6,2.03,1.57542003E9
Fix,gps,45.066056,7.657098,318.969604,0.000000,10.720000,1774276707000
Raw,329396668,329463999000000,,,-1457982460431826082,0.5005426406860352,67.05707346554846,2.2101735618565037,12.76027261720014,1461,9,0.0,207,63506360268924,24,25.5,239.183837890625,0.5817999839782715,0,0.0,0.0,1.60087501E9,,,,0,,3,-0.07,1.60087501E9
Raw,329396668,329463999000000,,,-1457982460431826082,0.5005426406860352,67.05707346554846,2.2101735618565037,12.76027261720014,1461,19,0.0,207,63506363201232,24,25.0,-312.4436950683594,0.5863000154495239,0,0.0,0.0,1.60368755E9,,,,0,,3,-0.07,1.60368755E9
Raw,329396669,329463999000000,,,-1457982460431826082,0.5005426406860352,67.05707346554846,2.2101735618565037,12.76027261720014,1461,3,0.0,207,63506361557705,80,16.2,-336.3205261230469,1.4580000638961792,0,0.0,0.0,1.60481254E9,,,,0,,3,-0.07,1.60481254E9
Raw,329396669,329463999000000,,,-1457982460431826082,0.5005426406860352,67.05707346554846,2.2101735618565037,12.76027261720014,1461,4,0.0,207,63506354992094,97,15.6,-810.9406127929688,2.327500104904175,0,0.0,0.0,1.60537498E9,,,,0,,3,-0.07,1.60537498E9
Raw,329396670,329463999000000,,,-1457982460431826082,0.5005426406860352,67.05707346554846,2.2101735618565037,12.76027261720014,1461,2,0.0,15,139124358865319,19,27.4,-314.0742492675781,0.06830000132322311,0,0.0,0.0,1.57542003E9,,,,0,,1,1.88,1.57542003E9
Raw,329396670,329463999000000,,,-1457982460431826082,0.5005426406860352,67.05707346554846,2.2101735618565037,12.76027261720014,1461,8,0.0,15,139124363358699,61,18.4,-156.83053588867188,1.0809999704360962,0,0.0,0.0,1.57542003E9,,,,0,,1,1.88,1.57542003E9
Raw,329396670,329463999000000,,,-1457982460431826082,0.5005426406860352,67.05707346554846,2.2101735618565037,12.76027261720014,1461,32,0.0,15,139124350625463,31,23.9,-520.9288940429688,0.6814999580383301,0,0.0,0.0,1.57542003E9,,,,0,,1,1.88,1.57542003E9
Raw,329396671,329463999000000,,,-1457982460431826082,0.5005426406860352,67.05707346554846,2.2101735618565037,12.76027261720014,1461,15,0.0,7183,139124346012402,135,14.6,391.5672607421875,4.19350004196167,0,0.0,0.0,1.57542003E9,,,,0,,6,1.95,1.57542003E9
Raw,329396672,329463999000000,,,-1457982460431826082,0.5005426406860352,67.05707346554846,2.2101735618565037,12.76027261720014,1461,21,0.0,7183,139124349758910,61,18.6,194.32789611816406,0.871999979019165,0,0.0,0.0,1.57542003E9,,,,0,,6,1.95,1.57542003E9
Raw,329396672,329463999000000,,,-1457982460431826082,0.5005426406860352,67.05707346554846,2.2101735618565037,12.76027261720014,1461,23,0.0,7183,139124344445381,70,17.0,-332.5762634277344,0.9404999613761902,0,0.0,0.0,1.57542003E9,,,,0,,6,1.95,1.57542003E9
Raw,329396673,329463999000000,,,-1457982460431826082,0.5005426406860352,67.05707346554846,2.2101735618565037,12.76027261720014,1461,26,0.0,7183,139124344802070,48,20.7,-391.2342529296875,1.500499963760376,0,0.0,0.0,1.57542003E9,,,,0,,6,1.95,1.57542003E9
Fix,gps,45.066058,7.657097,319.514465,0.000000,9.648001,1774276708000
Raw,329397654,329464999000000,,,-1457982460431826081,0.5734262466430664,65.04466000478715,2.7307018122679665,13.252280580140795,1461,9,0.0,207,63507360268035,24,25.0,239.35154724121094,0.5817999839782715,0,0.0,0.0,1.60087501E9,,,,0,,3,-0.05,1.60087501E9
Raw,329397654,329464999000000,,,-1457982460431826081,0.5734262466430664,65.04466000478715,2.7307018122679665,13.252280580140795,1461,16,0.0,207,63507355078010,91,16.2,783.4407958984375,2.9790000915527344,0,0.0,0.0,1.60143744E9,,,,0,,3,-0.05,1.60143744E9
Raw,329397655,329464999000000,,,-1457982460431826081,0.5734262466430664,65.04466000478715,2.7307018122679665,13.252280580140795,1461,19,0.0,207,63507363202189,19,27.5,-312.46673583984375,0.24580000340938568,0,0.0,0.0,1.60368755E9,,,,0,,3,-0.05,1.60368755E9
Raw,329397655,329464999000000,,,-1457982460431826081,0.5734262466430664,65.04466000478715,2.7307018122679665,13.252280580140795,1461,3,0.0,207,63507361558670,46,20.2,-336.5447082519531,1.1180000305175781,0,0.0,0.0,1.60481254E9,,,,0,,3,-0.05,1.60481254E9
Raw,329397656,329464999000000,,,-1457982460431826081,0.5734262466430664,65.04466000478715,2.7307018122679665,13.252280580140795,1461,2,0.0,15,139125358866180,46,20.9,-313.89892578125,0.8734999895095825,0,0.0,0.0,1.57542003E9,,,,0,,1,1.94,1.57542003E9
