# 
# Header Description:
# 
# Version: v3.1.1.2 Platform: 13 Manufacturer: samsung Model: SM-A515F GNSS Hardware Model Name: S.LSI,K102
# 
# Raw,utcTimeMillis,TimeNanos,LeapSecond,TimeUncertaintyNanos,FullBiasNanos,BiasNanos,BiasUncertaintyNanos,DriftNanosPerSecond,DriftUncertaintyNanosPerSecond,HardwareClockDiscontinuityCount,Svid,TimeOffsetNanos,State,ReceivedSvTimeNanos,ReceivedSvTimeUncertaintyNanos,Cn0DbHz,PseudorangeRateMetersPerSecond,PseudorangeRateUncertaintyMetersPerSecond,AccumulatedDeltaRangeState,AccumulatedDeltaRangeMeters,AccumulatedDeltaRangeUncertaintyMeters,CarrierFrequencyHz,CarrierCycles,CarrierPhase,CarrierPhaseUncertainty,MultipathIndicator,SnrInDb,ConstellationType,AgcDb,BasebandCn0DbHz,FullInterSignalBiasNanos,FullInterSignalBiasUncertaintyNanos,SatelliteInterSignalBiasNanos,SatelliteInterSignalBiasUncertaintyNanos,CodeType,ChipsetElapsedRealtimeNanos,IsFullTracking,SvPositionEcefXMeters,SvPositionEcefYMeters,SvPositionEcefZMeters,SvVelocityEcefXMetersPerSecond,SvVelocityEcefYMetersPerSecond,SvVelocityEcefZMetersPerSecond,SvClockBiasMeters,SvClockDriftMetersPerSecond,KlobucharAlpha0,KlobucharAlpha1,KlobucharAlpha2,KlobucharAlpha3,KlobucharBeta0,KlobucharBeta1,KlobucharBeta2,KlobucharBeta3
# 
# UncalAccel,utcTimeMillis,elapsedRealtimeNanos,UncalAccelXMps2,UncalAccelYMps2,UncalAccelZMps2,BiasXMps2,BiasYMps2,BiasZMps2,CalibrationAccuracy
# 
# Accel,utcTimeMillis,elapsedRealtimeNanos,AccelXMps2,AccelYMps2,AccelZMps2,CalibrationAccuracy
# 
# UncalGyro,utcTimeMillis,elapsedRealtimeNanos,UncalGyroXRadPerSec,UncalGyroYRadPerSec,UncalGyroZRadPerSec,DriftXRadPerSec,DriftYRadPerSec,DriftZRadPerSec,CalibrationAccuracy
# 
# Gyro,utcTimeMillis,elapsedRealtimeNanos,GyroXRadPerSec,GyroYRadPerSec,GyroZRadPerSec,CalibrationAccuracy
# 
# UncalMag,utcTimeMillis,elapsedRealtimeNanos,UncalMagXMicroT,UncalMagYMicroT,UncalMagZMicroT,BiasXMicroT,BiasYMicroT,BiasZMicroT,CalibrationAccuracy
# 
# Mag,utcTimeMillis,elapsedRealtimeNanos,MagXMicroT,MagYMicroT,MagZMicroT,CalibrationAccuracy
# 
# Pressure,utcTimeMillis,elapsedRealtimeNanos,PressureHpa,CalibrationAccuracy
# 
# OrientationDeg,utcTimeMillis,elapsedRealtimeNanos,yawDeg,rollDeg,pitchDeg,CalibrationAccuracy
# 
# Fix,Provider,LatitudeDegrees,LongitudeDegrees,AltitudeMeters,SpeedMps,AccuracyMeters,BearingDegrees,UnixTimeMillis,SpeedAccuracyMps,BearingAccuracyDegrees,elapsedRealtimeNanos,VerticalAccuracyMeters,MockLocation,NumberOfUsedSignals,VerticalSpeedAccuracyMps,SolutionType
# 
# Nav,Svid,Type,Status,MessageId,Sub-messageId,Data(Bytes)
# 
# Status,UnixTimeMillis,SignalCount,SignalIndex,ConstellationType,Svid,CarrierFrequencyHz,Cn0DbHz,AzimuthDegrees,ElevationDegrees,UsedInFix,HasAlmanacData,HasEphemerisData,BasebandCn0DbHz
# 
# Agc,utcTimeMillis,TimeNanos,LeapSecond,TimeUncertaintyNanos,FullBiasNanos,BiasNanos,BiasUncertaintyNanos,DriftNanosPerSecond,DriftUncertaintyNanosPerSecond,HardwareClockDiscontinuityCount,AgcDb,CarrierFrequencyHz,ConstellationType
# 
# GameRotationVector,utcTimeMillis,elapsedRealtimeNanos,x,y,z,w
# 
Raw,1774276689000,10231587696,18,0.0,-1458311896768412416,0.0,10.088706016540527,62206.21875,0.0,0,2,0.0,47,139106928021074,20,28.899999618530273,17.673402786254883,0.1750669777393341,20,-16.651558938789094,0.12378985995948313,1575420000,,,,0,24.600000381469727,1,3.9000000953674316,23.899999618530273,0.0,0.0,0.0,0.0,C,1053611555224276,,16303360.55786806,-12624707.92080691,16804129.186730474,-443.57273750309963,2044.3870552074013,2068.9231317489453,19118.082266139787,0.0025047337148862425,0.000000016763806343078613,0.000000007450580596923828,-0.00000011920928955078125,-0.000000059604644775390625,110592.0,16384.0,-262144.0,-65536.0
Raw,1774276689000,10231587696,18,0.0,-1458311896768412416,0.0,10.088706016540527,62206.21875,0.0,0,8,0.0,47,139106932523631,21,28.600000381469727,174.31399536132812,0.17954610288143158,20,-173.094833950865,0.12695704934746027,1575420000,,,,0,25.700000762939453,1,3.9000000953674316,23.600000381469727,0.0,0.0,0.0,0.0,C,1053611555224276,,16514119.130769404,-3391780.723926317,20431045.00321185,1631.4003364717596,2069.1520644043753,-918.3897227723166,142030.4209523102,-0.002111656649503857,0.000000016763806343078613,0.000000007450580596923828,-0.00000011920928955078125,-0.000000059604644775390625,110592.0,16384.0,-262144.0,-65536.0
Raw,1774276689000,10231587696,18,0.0,-1458311896768412416,0.0,10.088706016540527,62206.21875,0.0,0,32,0.0,47,139106919769220,26,25.600000381469727,-189.42791748046875,0.235648974776268,20,190.38645596860079,0.1666273900642991,1575420000,,,,0,22.899999618530273,1,3.9000000953674316,20.600000381469727,0.0,0.0,0.0,0.0,C,1053611555224276,,16093369.567849617,21256152.89517415,447989.3797004232,-207.39394173753718,131.22412050322214,3178.043163434953,-10345.09629889485,0.00604723707147059,0.000000016763806343078613,0.000000007450580596923828,-0.00000011920928955078125,-0.000000059604644775390625,110592.0,16384.0,-262144.0,-65536.0
Raw,1774276689000,10231587696,18,0.0,-1458311896768412416,0.0,10.088706016540527,62206.21875,0.0,0,10,0.0,47,139106929115169,29,24.399999618530273,508.3429870605469,0.2657030522823334,20,-507.85407383309575,0.18787862826883792,1575420000,,,,0,22.700000762939453,1,3.9000000953674316,19.399999618530273,0.0,0.0,0.0,0.0,C,1053611555224276,,13928978.339460684,11447500.028211577,19888737.25134933,-2425.4058581219065,337.41174468213376,1493.080330776107,-176987.18678069324,0.0010951579024549574,0.000000016763806343078613,0.000000007450580596923828,-0.00000011920928955078125,-0.000000059604644775390625,110592.0,16384.0,-262144.0,-65536.0
Raw,1774276689000,10231587696,18,0.0,-1458311896768412416,0.0,10.088706016540527,62206.21875,0.0,0,1,0.0,47,139106920032714,40,20.799999237060547,-239.71319580078125,0.4005768299102783,20,240.8239672189775,0.2832478764295578,1575420000,,,,0,17.899999618530273,1,3.9000000953674316,15.800000190734863,0.0,0.0,0.0,0.0,C,1053611555224276,,15283068.028045889,-20856344.74748905,5882057.347999457,-85.08011069659761,798.2400518973373,3055.62161648743,93619.69548741954,-0.0022752558725187555,0.000000016763806343078613,0.000000007450580596923828,-0.00000011920928955078125,-0.000000059604644775390625,110592.0,16384.0,-262144.0,-65536.0
Raw,1774276689000,10231587696,18,0.0,-1458311896768412416,0.0,10.088706016540527,62206.21875,0.0,0,23,0.0,47,139106923364808,41,20.399999618530273,894.7885131835938,0.4216562807559967,20,-894.2194646851895,0.29815315612256527,1575420000,,,,0,15.699999809265137,1,3.9000000953674316,15.399999618530273,0.0,0.0,0.0,0.0,C,1053611555224276,,-497581.2895078361,14795811.466974039,22109057.06824094,-2758.0176961893544,375.3980137534538,-340.2100594151854,188126.75135697896,0.0015408908075187355,0.000000016763806343078613,0.000000007450580596923828,-0.00000011920928955078125,-0.000000059604644775390625,110592.0,16384.0,-262144.0,-65536.0
Raw,1774276689000,10231587696,18,0.0,-1458311896768412416,0.0,10.088706016540527,62206.21875,0.0,0,36,0.0,815,139092917796247,20,28.799999237060547,546.267333984375,0.17654122412204742,20,-545.0299798095402,0.12483229957669972,1561098000,,,,0,25.399999618530273,5,3.9000000953674316,23.799999237060547,0.0,0.0,0.0,0.0,C,1053611555224276,,12240121.99224475,-20947129.770691987,13820860.842192272,1365.4055484274645,-802.6550212511079,-2427.179024204543,88190.5126158711,-0.000712927634594962,0.000000016763806343078613,0.000000007450580596923828,-0.00000011920928955078125,-0.000000059604644775390625,110592.0,16384.0,-262144.0,-65536.0
Raw,1774276689000,10231587696,18,0.0,-1458311896768412416,0.0,10.088706016540527,62206.21875,0.0,0,19,0.0,239,63488932361864,18,30.899999618530273,19.12725830078125,0.1490735113620758,20,-36.05121857615086,0.1054098798841238,1603687600,,,,0,20.799999237060547,3,3.9000000953674316,25.899999618530273,0.0,0.0,0.0,0.0,C,1053611555224276,,11298532.142212365,-8884099.212397091,21078379.043617968,-410.2354893449749,2857.2282549552638,1418.7631825911737,11774.768324924124,0.0005453193043649662,0.000000016763806343078613,0.000000007450580596923828,-0.00000011920928955078125,-0.000000059604644775390625,110592.0,16384.0,-262144.0,-65536.0
Raw,1774276689000,10231587696,18,0.0,-1458311896768412416,0.0,10.088706016540527,62206.21875,0.0,0,3,0.0,239,63488930716800,30,24.0,-7.740417957305908,0.2770083248615265,16,0.0,0.19587258650958536,1604812500,,,,0,0.0,3,3.9000000953674316,19.0,0.0,0.0,0.0,0.0,C,1053611555224276,,14350328.847127162,17110640.500735477,12432857.391129911,-1282.8134531804778,-1116.8836632314903,3025.7771343592904,42311.9914595981,0.0002726596521824831,0.000000016763806343078613,0.000000007450580596923828,-0.00000011920928955078125,-0.000000059604644775390625,110592.0,16384.0,-262144.0,-65536.0
Raw,1774276689000,10231587696,18,0.0,-1458311896768412416,0.0,10.088706016540527,62206.21875,0.0,0,30,0.0,815,139092924367297,25,26.200000762939453,-22.947450637817383,0.2224990874528885,20,23.371121068132197,0.15732910473793743,1561098000,,,,0,14.0,5,3.9000000953674316,21.200000762939453,0.0,0.0,0.0,0.0,C,1053611555224276,,13752783.761679415,-11909835.032434141,21138703.882222813,385.0650789348589,2391.682463051857,1098.0821694725696,123677.28141885971,0.0023144585866248235,0.000000016763806343078613,0.000000007450580596923828,-0.00000011920928955078125,-0.000000059604644775390625,110592.0,16384.0,-262144.0,-65536.0
Raw,1774276689000,10231587696,18,0.0,-1458311896768412416,0.0,10.088706016540527,62206.21875,0.0,0,9,0.0,239,63488929461622,33,22.600000381469727,568.8672485351562,0.32283055782318115,20,-552.4382177063999,0.22827348743677137,1600875000,,,,0,18.5,3,3.9000000953674316,17.600000381469727,0.0,0.0,0.0,0.0,C,1053611555224276,,14192667.004955256,-15415496.884419512,14501776.58081375,1727.7180447388073,-977.9607349079722,-2742.5102609823766,94598.52737841709,0.0005453193043649662,0.000000016763806343078613,0.000000007450580596923828,-0.00000011920928955078125,-0.000000059604644775390625,110592.0,16384.0,-262144.0,-65536.0
Raw,1774276689000,10231587696,18,0.0,-1458311896768412416,0.0,10.088706016540527,62206.21875,0.0,0,21,0.0,7215,139106918942443,35,22.100000381469727,527.1102294921875,0.3419855535030365,20,-525.4583459527967,0.2418179848819971,1575420000,,,,0,17.399999618530273,6,3.9000000953674316,17.100000381469727,0.0,0.0,0.0,0.0,C,1053611555224276,,24572084.244129952,-8499359.89465884,14141696.960410193,1419.6465456523488,31.134880320813643,-2446.729184063668,-218871.47125639714,-0.0008216729038394988,0.000000016763806343078613,0.000000007450580596923828,-0.00000011920928955078125,-0.000000059604644775390625,110592.0,16384.0,-262144.0,-65536.0
Raw,1774276690000,11231588796,18,0.0,-1458311896768411136,0.0,10.088706016540527,62205.390625,0.0,0,2,0.0,47,139107928022111,20,28.899999618530273,17.25929832458496,0.1750669777393341,20,-32.96440033871477,0.12378985995948313,1575420000,,,,0,26.200000762939453,1,3.9000000953674316,23.899999618530273,0.0,0.0,0.0,0.0,C,1053612547001621,,16302917.004483651,-12622663.399184171,16806197.934041888,-443.5331033435694,2044.6519433038789,2068.567193659428,19118.084770998154,0.002504977812350262,0.000000016763806343078613,0.000000007450580596923828,-0.00000011920928955078125,-0.000000059604644775390625,110592.0,16384.0,-262144.0,-65536.0
Raw,1774276690000,11231588796,18,0.0,-1458311896768411136,0.0,10.088706016540527,62205.390625,0.0,0,8,0.0,47,139107932524172,21,28.5,172.7945556640625,0.18107740581035614,20,-345.24571816507523,0.12803983364850283,1575420000,,,,0,24.5,1,3.9000000953674316,23.5,0.0,0.0,0.0,0.0,C,1053612547001621,,16515750.549720852,-3389711.6623652335,20430126.39390608,1631.435792652054,2068.9688124709905,-918.8278911643895,142030.4188407354,-0.002111490786774084,0.000000016763806343078613,0.000000007450580596923828,-0.00000011920928955078125,-0.000000059604644775390625,110592.0,16384.0,-262144.0,-65536.0
Raw,1774276690000,11231588796,18,0.0,-1458311896768411136,0.0,10.088706016540527,62205.390625,0.0,0,32,0.0,47,139107919770994,25,25.899999618530273,-188.92185974121094,0.2289324849843979,20,380.5405443508571,0.16187816013246772,1575420000,,,,0,23.799999237060547,1,3.9000000953674316,20.899999618530273,0.0,0.0,0.0,0.0,C,1053612547001621,,16093162.056703739,21256283.967705637,451167.42378142907,-207.6276204603961,130.92048306368517,3178.0337119000733,-10345.090251585641,0.006047359885997139,0.000000016763806343078613,0.000000007450580596923828,-0.00000011920928955078125,-0.000000059604644775390625,110592.0,16384.0,-262144.0,-65536.0
Raw,1774276690000,11231588796,18,0.0,-1458311896768411136,0.0,10.088706016540527,62205.390625,0.0,0,10,0.0,47,139107929114600,28,24.600000381469727,509.57525634765625,0.2603082060813904,20,-1016.1120862725729,0.18406393252015113,1575420000,,,,0,22.100000381469727,1,3.9000000953674316,19.600000381469727,0.0,0.0,0.0,0.0,C,1053612547001621,,13926552.853152819,11447837.529147226,19890230.125916548,-2425.569507333844,337.59051377274074,1492.670497365353,-176987.18568555138,0.0010951270232908428,0.000000016763806343078613,0.000000007450580596923828,-0.00000011920928955078125,-0.000000059604644775390625,110592.0,16384.0,-262144.0,-65536.0
Raw,1774276690000,11231588796,18,0.0,-1458311896768411136,0.0,10.088706016540527,62205.390625,0.0,0,1,0.0,47,139107920034600,40,20.799999237060547,-239.23590087890625,0.4005768299102783,20,481.1759638239091,0.2832478764295578,1575420000,,,,0,15.199999809265137,1,3.9000000953674316,15.800000190734863,0.0,0.0,0.0,0.0,C,1053612547001621,,15282982.883258201,-20855546.332231518,5885112.912479448,-85.20913483602041,798.5874525245337,3055.4958069862314,93619.69321216126,-0.0022752521181246266,0.000000016763806343078613,0.000000007450580596923828,-0.00000011920928955078125,-0.000000059604644775390625,110592.0,16384.0,-262144.0,-65536.0
Raw,1774276690000,11231588796,18,0.0,-1458311896768411136,0.0,10.088706016540527,62205.390625,0.0,0,23,0.0,47,139107923362897,42,20.299999237060547,895.4008178710938,0.42718610167503357,20,-1788.4832458000237,0.3020632924944162,1575420000,,,,0,15.5,1,3.9000000953674316,15.300000190734863,0.0,0.0,0.0,0.0,C,1053612547001621,,-500339.27060621884,14796186.948221099,22108716.62493158,-2757.9550304047616,375.56591280887005,-340.6778594952109,188126.75289782477,0.0015408066974487156,0.000000016763806343078613,0.000000007450580596923828,-0.00000011920928955078125,-0.000000059604644775390625,110592.0,16384.0,-262144.0,-65536.0
Raw,1774276690000,11231588796,18,0.0,-1458311896768411136,0.0,10.088706016540527,62205.390625,0.0,0,36,0.0,815,139093917795544,18,30.5,546.0384521484375,0.15378700196743011,20,-1089.9531735095734,0.10874278909116983,1561098000,,,,0,28.0,5,3.9000000953674316,25.5,0.0,0.0,0.0,0.0,C,1053612547001621,,12241487.258783422,-20947932.38862077,13818433.53832481,1365.129447272503,-802.5819563496827,-2427.432116084876,88190.5119029427,-0.0007129301666282117,0.000000016763806343078613,0.000000007450580596923828,-0.00000011920928955078125,-0.000000059604644775390625,110592.0,16384.0,-262144.0,-65536.0
Raw,1774276690000,11231588796,18,0.0,-1458311896768411136,0.0,10.088706016540527,62205.390625,0.0,0,19,0.0,239,63489932362948,18,30.600000381469727,19.723949432373047,0.1525878757238388,20,-39.90873376536911,0.10789488692432642,1603687600,,,,0,21.899999618530273,3,3.9000000953674316,25.600000381469727,0.0,0.0,0.0,0.0,C,1053612547001621,,11298122.009104732,-8881241.868176945,21079797.555350814,-410.0298252639333,2857.454005689611,1418.2572190081348,11774.76887024402,0.0005453193043649662,0.000000016763806343078613,0.000000007450580596923828,-0.00000011920928955078125,-0.000000059604644775390625,110592.0,16384.0,-262144.0,-65536.0
Raw,1774276690000,11231588796,18,0.0,-1458311896768411136,0.0,10.088706016540527,62205.390625,0.0,0,3,0.0,239,63489930717879,26,25.299999237060547,-7.200397968292236,0.24266545474529266,20,-5.288730378615583,0.17158874305039643,1604812500,,,,0,22.399999618530273,3,3.9000000953674316,20.299999237060547,0.0,0.0,0.0,0.0,C,1053612547001621,,14349045.817728767,17109523.550688207,12435883.023078447,-1283.2425917075113,-1117.0140035889226,3025.480249503877,42311.991732258044,0.0002726596521824831,0.000000016763806343078613,0.000000007450580596923828,-0.00000011920928955078125,-0.000000059604644775390625,110592.0,16384.0,-262144.0,-65536.0
Raw,1774276690000,11231588796,18,0.0,-1458311896768411136,0.0,10.088706016540527,62205.390625,0.0,0,30,0.0,815,139093924368447,25,25.899999618530273,-22.902610778808594,0.2289324849843979,20,47.173808248007845,0.16187816013246772,1561098000,,,,0,17.399999618530273,5,3.9000000953674316,20.899999618530273,0.0,0.0,0.0,0.0,C,1053612547001621,,13753168.911845347,-11907443.297572725,21139801.7714433,385.234368671363,2391.7817495240233,1097.6937430253652,123677.28373332252,0.002314461686182767,0.000000016763806343078613,0.000000007450580596923828,-0.00000011920928955078125,-0.000000059604644775390625,110592.0,16384.0,-262144.0,-65536.0
Raw,1774276690000,11231588796,18,0.0,-1458311896768411136,0.0,10.088706016540527,62205.390625,0.0,0,9,0.0,239,63489929460920,33,22.899999618530273,568.5050659179688,0.3121001422405243,20,-1091.5689192998761,0.22068601057827472,1600875000,,,,0,19.299999237060547,3,3.9000000953674316,17.899999618530273,0.0,0.0,0.0,0.0,C,1053612547001621,,14194394.517266404,-15416474.8257739,14499033.897815589,1727.3090260181261,-977.9233371457328,-2742.8595948943725,94598.52792373601,0.0005453193043649662,0.000000016763806343078613,0.000000007450580596923828,-0.00000011920928955078125,-0.000000059604644775390625,110592.0,16384.0,-262144.0,-65536.0
Raw,1774276690000,11231588796,18,0.0,-1458311896768411136,0.0,10.088706016540527,62205.390625,0.0,0,21,0.0,7215,139107918941805,35,22.100000381469727,527.88525390625,0.3419855535030365,20,-1051.7911467540616,0.2418179848819971,1575420000,,,,0,15.5,6,3.9000000953674316,17.100000381469727,0.0,0.0,0.0,0.0,C,1053612547001621,,24573503.768491436,-8499328.82057975,14139250.124075342,1419.4039832645344,31.013323291304204,-2446.946601512451,-218871.47207806862,-0.0008216710994020104,0.000000016763806343078613,0.000000007450580596923828,-0.00000011920928955078125,-0.000000059604644775390625,110592.0,16384.0,-262144.0,-65536.0
Raw,1774276691000,12231589834,18,0.0,-1458311896768410112,0.0,10.088706016540527,62207.05859375,0.0,0,8,0.0,47,139108932524636,21,28.600000381469727,173.3823699951172,0.17954610288143158,20,-517.4668547420515,0.12695704934746027,1575420000,,,,0,25.0,1,2.5999999046325684,23.600000381469727,0.0,0.0,0.0,0.0,C,1053613539143851,,16517382.003977224,-3387642.7842349643,20429207.34651341,1631.471197540176,2068.785521663078,-919.2660376559245,142030.41672932653,-0.0021113249531481415,0.000000016763806343078613,0.000000007450580596923828,-0.00000011920928955078125,-0.000000059604644775390625,110592.0,16384.0,-262144.0,-65536.0
Raw,1774276691000,12231589834,18,0.0,-1458311896768410112,0.0,10.088706016540527,62207.05859375,0.0,0,2,0.0,47,139108928023097,20,28.799999237060547,17.91473960876465,0.17654122412204742,20,-49.59433419841662,0.12483229957669972,1575420000,,,,0,20.100000381469727,1,2.5999999046325684,23.799999237060547,0.0,0.0,0.0,0.0,C,1053613539143851,,16302473.490780178,-12620618.612797415,16808266.32528876,-443.493420982602,2044.9167912100193,2068.21121439467,19118.087276100472,0.002505221898900345,0.000000016763806343078613,0.000000007450580596923828,-0.00000011920928955078125,-0.000000059604644775390625,110592.0,16384.0,-262144.0,-65536.0
Raw,1774276691000,12231589834,18,0.0,-1458311896768410112,0.0,10.088706016540527,62207.05859375,0.0,0,32,0.0,47,139108919772641,25,26.0,-187.6818389892578,0.22675736248493195,20,569.7974450939582,0.16034013101309535,1575420000,,,,0,21.899999618530273,1,2.5999999046325684,21.0,0.0,0.0,0.0,0.0,C,1053613539143851,,16092954.311885225,21256414.73659939,454345.4579738867,-207.86133892238848,130.61687934076926,3178.0241935679323,-10345.084204154391,0.00604748269324773,0.000000016763806343078613,0.000000007450580596923828,-0.00000011920928955078125,-0.000000059604644775390625,110592.0,16384.0,-262144.0,-65536.0
Raw,1774276691000,12231589834,18,0.0,-1458311896768410112,0.0,10.088706016540527,62207.05859375,0.0,0,10,0.0,47,139108929113943,28,24.700000762939453,510.3974304199219,0.25767216086387634,20,-1525.045869214715,0.18219998494684694,1575420000,,,,0,16.299999237060547,1,2.5999999046325684,19.700000762939453,0.0,0.0,0.0,0.0,C,1053613539143851,,13924127.20344077,11448175.208831375,19891722.59050369,-2425.733093643689,337.76930133713745,1492.2606328635268,-176987.18459044048,0.0010950961441267282,0.000000016763806343078613,0.000000007450580596923828,-0.00000011920928955078125,-0.000000059604644775390625,110592.0,16384.0,-262144.0,-65536.0
Raw,1774276691000,12231589834,18,0.0,-1458311896768410112,0.0,10.088706016540527,62207.05859375,0.0,0,1,0.0,47,139108920036471,40,20.700000762939453,-239.03631591796875,0.40569597482681274,20,721.4018537157463,0.2868676238000393,1575420000,,,,0,15.100000381469727,1,2.5999999046325684,15.699999809265137,0.0,0.0,0.0,0.0,C,1053613539143851,,15282897.609473437,-20854747.569581736,5888168.351071204,-85.33810689572081,798.9348590755044,3055.369932166858,93619.69093690676,-0.0022752483491785824,0.000000016763806343078613,0.000000007450580596923828,-0.00000011920928955078125,-0.000000059604644775390625,110592.0,16384.0,-262144.0,-65536.0
Raw,1774276691000,12231589834,18,0.0,-1458311896768410112,0.0,10.088706016540527,62207.05859375,0.0,0,23,0.0,47,139108923360933,42,20.200000762939453,894.4116821289062,0.43282550573349,20,-2682.0953753462745,0.3060509151041508,1575420000,,,,0,10.600000381469727,1,2.5999999046325684,15.199999809265137,0.0,0.0,0.0,0.0,C,1053613539143851,,-503097.1888587936,14796562.597339036,22108375.713844113,-2757.892296432986,375.733795970591,-341.1456535265278,188126.75443858633,0.0015407225000672042,0.000000016763806343078613,0.000000007450580596923828,-0.00000011920928955078125,-0.000000059604644775390625,110592.0,16384.0,-262144.0,-65536.0
Raw,1774276691000,12231589834,18,0.0,-1458311896768410112,0.0,10.088706016540527,62207.05859375,0.0,0,36,0.0,815,139094917794756,17,31.200000762939453,546.7018432617188,0.14567914605140686,20,-1635.3116576245739,0.10300972417294979,1561098000,,,,0,26.0,5,2.5999999046325684,26.200000762939453,0.0,0.0,0.0,0.0,C,1053613539143851,,12242852.24910153,-20948734.93339114,13816005.981594235,1364.8533390383514,-802.5088407158655,-2427.685163515963,88190.5111900118,-0.0007129327277652919,0.000000016763806343078613,0.000000007450580596923828,-0.00000011920928955078125,-0.000000059604644775390625,110592.0,16384.0,-262144.0,-65536.0
Raw,1774276691000,12231589834,18,0.0,-1458311896768410112,0.0,10.088706016540527,62207.05859375,0.0,0,19,0.0,239,63490932363918,18,30.299999237060547,18.27031135559082,0.15622803568840027,20,-59.49810961845651,0.11046884403526783,1603687600,,,,0,22.100000381469727,3,2.5999999046325684,25.299999237060547,0.0,0.0,0.0,0.0,C,1053613539143851,,11297712.081728384,-8878384.29857323,21081215.560940713,-409.8241207580646,2857.679673122976,1417.7512211986384,11774.769415563853,0.0005453193043649662,0.000000016763806343078613,0.000000007450580596923828,-0.00000011920928955078125,-0.000000059604644775390625,110592.0,16384.0,-262144.0,-65536.0
Raw,1774276691000,12231589834,18,0.0,-1458311896768410112,0.0,10.088706016540527,62207.05859375,0.0,0,3,0.0,239,63490930719114,23,27.399999618530273,-6.232150554656982,0.19929847121238708,20,54.818595477474446,0.1409239489942789,1604812500,,,,0,25.200000762939453,3,2.5999999046325684,22.399999618530273,0.0,0.0,0.0,0.0,C,1053613539143851,,14347762.358993694,17108406.470167883,12438908.358577624,-1283.6717253186705,-1117.1442604449844,3025.183292517958,42311.99200491803,0.0002726596521824831,0.000000016763806343078613,0.000000007450580596923828,-0.00000011920928955078125,-0.000000059604644775390625,110592.0,16384.0,-262144.0,-65536.0
Raw,1774276691000,12231589834,18,0.0,-1458311896768410112,0.0,10.088706016540527,62207.05859375,0.0,0,30,0.0,815,139094924369508,26,25.700000762939453,-21.62860107421875,0.23337766528129578,20,70.27797112402186,0.16502134712040423,1561098000,,,,0,23.100000381469727,5,2.5999999046325684,20.700000762939453,0.0,0.0,0.0,0.0,C,1053613539143851,,13753554.231271649,-11905051.463665552,21140899.27212917,385.4036678695318,2391.88098004918,1097.3052964877322,123677.2860477882,0.0023144648148445413,0.000000016763806343078613,0.000000007450580596923828,-0.00000011920928955078125,-0.000000059604644775390625,110592.0,16384.0,-262144.0,-65536.0
Raw,1774276691000,12231589834,18,0.0,-1458311896768410112,0.0,10.088706016540527,62207.05859375,0.0,0,9,0.0,239,63490929459923,30,23.799999237060547,567.8168334960938,0.28293347358703613,20,-1700.8041762879802,0.20006225917339324,1600875000,,,,0,24.0,3,2.5999999046325684,18.799999237060547,0.0,0.0,0.0,0.0,C,1053613539143851,,14196121.620035928,-15417452.72940296,14496290.866325945,1726.8999801614877,-977.8858610635205,-2743.208862927901,94598.52846905477,0.0005453193043649662,0.000000016763806343078613,0.000000007450580596923828,-0.00000011920928955078125,-0.000000059604644775390625,110592.0,16384.0,-262144.0,-65536.0
Raw,1774276691000,12231589834,18,0.0,-1458311896768410112,0.0,10.088706016540527,62207.05859375,0.0,0,21,0.0,7215,139108918941066,35,22.0,528.513671875,0.34602075815200806,20,-1578.8273663653745,0.24467127808928488,1575420000,,,,0,14.100000381469727,6,2.5999999046325684,17.0,0.0,0.0,0.0,0.0,C,1053613539143851,,24574923.050131332,-8499297.868043264,14136803.070589162,1419.161388914799,30.891801335572843,-2447.1639813083334,-218871.47289973826,-0.0008216693240683526,0.000000016763806343078613,0.000000007450580596923828,-0.00000011920928955078125,-0.000000059604644775390625,110592.0,16384.0,-262144.0,-65536.0
Raw,1774276692000,13231590934,18,0.0,-1458311896768409088,0.0,10.088706016540527,62206.50390625,0.0,0,8,0.0,47,139109932525162,21,28.700000762939453,173.73121643066406,0.17803412675857544,20,-689.9532772578823,0.1258879310309887,1575420000,,,,0,27.5,1,3.9000000953674316,23.700000762939453,0.0,0.0,0.0,0.0,C,1053614552694735,,16519013.49371402,-3385574.089286756,20428287.86092795,1631.506551135184,2068.602191966024,-919.7041622985672,142030.4146180834,-0.002111159061314538,0.000000016763806343078613,0.000000007450580596923828,-0.00000011920928955078125,-0.000000059604644775390625,110592.0,16384.0,-262144.0,-65536.0
Raw,1774276692000,13231590934,18,0.0,-1458311896768409088,0.0,10.088706016540527,62206.50390625,0.0,0,2,0.0,47,139109928024100,20,28.799999237060547,18.176639556884766,0.17654122412204742,20,-66.5138496622967,0.12483229957669972,1575420000,,,,0,19.700000762939453,1,3.9000000953674316,23.799999237060547,0.0,0.0,0.0,0.0,C,1053614552694735,,16302030.016775664,-12618573.56154782,16810334.360570583,-443.4536904241921,2045.1815989332886,2067.855193938581,19118.089781446928,0.002505465985450428,0.000000016763806343078613,0.000000007450580596923828,-0.00000011920928955078125,-0.000000059604644775390625,110592.0,16384.0,-262144.0,-65536.0
Raw,1774276692000,13231590934,18,0.0,-1458311896768409088,0.0,10.088706016540527,62206.50390625,0.0,0,32,0.0,47,139109919774351,24,26.299999237060547,-188.6661376953125,0.22041483223438263,20,759.4022122010065,0.15585532787293194,1575420000,,,,0,26.0,1,3.9000000953674316,21.299999237060547,0.0,0.0,0.0,0.0,C,1053614552694735,,16092746.333314866,21256545.201913983,457523.4828147953,-208.09509715945006,130.31330928726248,3178.0146084374214,-10345.078156599959,0.0060476054895843845,0.000000016763806343078613,0.000000007450580596923828,-0.00000011920928955078125,-0.000000059604644775390625,110592.0,16384.0,-262144.0,-65536.0
Raw,1774276692000,13231590934,18,0.0,-1458311896768409088,0.0,10.088706016540527,62206.50390625,0.0,0,10,0.0,47,139109929113350,28,24.700000762939453,510.6360778808594,0.25767216086387634,20,-2034.3733266942727,0.18219998494684694,1575420000,,,,0,20.600000381469727,1,3.9000000953674316,19.700000762939453,0.0,0.0,0.0,0.0,C,1053614552694735,,13921701.390018666,11448513.067333851,19893214.64530654,-2425.8966170712174,337.94810739042714,1491.8507372164358,-176987.18349536048,0.0010950652067549527,0.000000016763806343078613,0.000000007450580596923828,-0.00000011920928955078125,-0.000000059604644775390625,110592.0,16384.0,-262144.0,-65536.0
Raw,1774276692000,13231590934,18,0.0,-1458311896768409088,0.0,10.088706016540527,62206.50390625,0.0,0,1,0.0,47,139109920038289,41,20.600000381469727,-239.33128356933594,0.4109138548374176,20,961.7730891428364,0.290557186755538,1575420000,,,,0,17.600000381469727,1,3.9000000953674316,15.600000381469727,0.0,0.0,0.0,0.0,C,1053614552694735,,15282812.206746945,-20853948.45956415,5891223.66359332,-85.46702686783158,799.2822715238276,3055.243992036824,93619.68866165615,-0.0022752445947844535,0.000000016763806343078613,0.000000007450580596923828,-0.00000011920928955078125,-0.000000059604644775390625,110592.0,16384.0,-262144.0,-65536.0
Raw,1774276692000,13231590934,18,0.0,-1458311896768409088,0.0,10.088706016540527,62206.50390625,0.0,0,23,0.0,47,139109923359018,43,20.100000381469727,893.8989868164062,0.43857723474502563,20,-3575.1578362674045,0.3101179626882076,1575420000,,,,0,9.899999618530273,1,3.9000000953674316,15.100000381469727,0.0,0.0,0.0,0.0,C,1053614552694735,,-505855.0444784858,14796938.414350271,22108034.33494982,-2757.829494270648,375.90166324306824,-341.613441546964,188126.75597926378,0.0015406383608933538,0.000000016763806343078613,0.000000007450580596923828,-0.00000011920928955078125,-0.000000059604644775390625,110592.0,16384.0,-262144.0,-65536.0
Raw,1774276692000,13231590934,18,0.0,-1458311896768409088,0.0,10.088706016540527,62206.50390625,0.0,0,36,0.0,815,139095917794032,17,31.200000762939453,546.5974731445312,0.14567914605140686,20,-2180.7549777865934,0.10300972417294979,1561098000,,,,0,26.5,5,3.9000000953674316,26.200000762939453,0.0,0.0,0.0,0.0,C,1053614552694735,,12244216.963395458,-20949537.405071907,13813578.171683228,1364.5772236948417,-802.4356743386583,-2427.938166530878,88190.51047707832,-0.0007129352743504569,0.000000016763806343078613,0.000000007450580596923828,-0.00000011920928955078125,-0.000000059604644775390625,110592.0,16384.0,-262144.0,-65536.0
Raw,1774276692000,13231590934,18,0.0,-1458311896768409088,0.0,10.088706016540527,62206.50390625,0.0,0,19,0.0,239,63491932364976,19,30.0,19.15665626525879,0.1599999964237213,20,-71.08280265858048,0.11313599747121333,1603687600,,,,0,28.100000381469727,3,3.9000000953674316,25.0,0.0,0.0,0.0,0.0,C,1053614552694735,,11297302.360040873,-8875526.503092071,21082633.060639888,-409.61837580177394,2857.90525729078,1417.2451890725672,11774.769960883734,0.0005453193043649662,0.000000016763806343078613,0.000000007450580596923828,-0.00000011920928955078125,-0.000000059604644775390625,110592.0,16384.0,-262144.0,-65536.0
Raw,1774276692000,13231590934,18,0.0,-1458311896768409088,0.0,10.088706016540527,62206.50390625,0.0,0,3,0.0,239,63491930720173,22,27.700000762939453,-6.902830123901367,0.19406546652317047,20,43.520519265650364,0.13722369137853382,1604812500,,,,0,25.899999618530273,3,3.9000000953674316,22.700000762939453,0.0,0.0,0.0,0.0,C,1053614552694735,,14346478.471352926,17107289.259629,12441933.396551015,-1284.1008538514172,-1117.2744337548406,3024.886263507242,42311.99227757798,0.0002726596521824831,0.000000016763806343078613,0.000000007450580596923828,-0.00000011920928955078125,-0.000000059604644775390625,110592.0,16384.0,-262144.0,-65536.0
Raw,1774276692000,13231590934,18,0.0,-1458311896768409088,0.0,10.088706016540527,62206.50390625,0.0,0,30,0.0,815,139095924370639,26,25.600000381469727,-19.217042922973633,0.235648974776268,20,91.53230485165841,0.1666273900642991,1561098000,,,,0,24.100000381469727,5,3.9000000953674316,20.600000381469727,0.0,0.0,0.0,0.0,C,1053614552694735,,13753939.72002905,-11902659.530388301,21141996.38443482,385.5729765459301,2391.9801546404333,1096.9168298050613,123677.2883622572,0.002314467914402485,0.000000016763806343078613,0.000000007450580596923828,-0.00000011920928955078125,-0.000000059604644775390625,110592.0,16384.0,-262144.0,-65536.0
Raw,1774276692000,13231590934,18,0.0,-1458311896768409088,0.0,10.088706016540527,62206.50390625,0.0,0,9,0.0,239,63491929459134,27,25.100000381469727,569.8413696289062,0.2475186139345169,20,-2265.9773741677927,0.1750204119130969,1600875000,,,,0,21.5,3,3.9000000953674316,20.100000381469727,0.0,0.0,0.0,0.0,C,1053614552694735,,14197848.3141055,-15418430.59572017,14493547.48503085,1726.4909069821927,-977.8483066391959,-2743.5580652501076,94598.52901437363,0.0005453193043649662,0.000000016763806343078613,0.000000007450580596923828,-0.00000011920928955078125,-0.000000059604644775390625,110592.0,16384.0,-262144.0,-65536.0
Raw,1774276692000,13231590934,18,0.0,-1458311896768409088,0.0,10.088706016540527,62206.50390625,0.0,0,28,0.0,815,139095918324698,31,23.5,804.3589477539062,0.29218408465385437,20,-803.4423910522637,0.2066033662587404,1561098000,,,,0,21.100000381469727,5,3.9000000953674316,18.5,0.0,0.0,0.0,0.0,C,1053614552694735,,9881637.468258014,23838277.29545966,10629919.172532644,-32.231913441802355,1223.7966932180823,-2714.0112066095007,149319.82725683638,0.0014213939721230417,0.000000016763806343078613,0.000000007450580596923828,-0.00000011920928955078125,-0.000000059604644775390625,110592.0,16384.0,-262144.0,-65536.0
Raw,1774276692000,13231590934,18,0.0,-1458311896768409088,0.0,10.088706016540527,62206.50390625,0.0,0,21,0.0,7215,139109918940371,35,22.0,529.3754272460938,0.34602075815200806,20,-2106.6818720490264,0.24467127808928488,1575420000,,,,0,13.800000190734863,6,3.9000000953674316,17.0,0.0,0.0,0.0,0.0,C,1053614552694735,,24576342.089223526,-8499267.037009697,14134355.799634475,1418.9187625755249,30.770314441885816,-2447.3813234794966,-218871.47372140613,-0.0008216675487346947,0.000000016763806343078613,0.000000007450580596923828,-0.00000011920928955078125,-0.000000059604644775390625,110592.0,16384.0,-262144.0,-65536.0
Raw,1774276693000,14231592034,18,0.0,-1458311896768408064,0.0,10.088706016540527,62205.14453125,0.0,0,8,0.0,47,139110932525679,20,29.299999237060547,173.96408081054688,0.16935087740421295,20,-862.6810431415506,0.11974800541251897,1575420000,,,,0,30.200000762939453,1,3.9000000953674316,24.299999237060547,0.0,0.0,0.0,0.0,C,1053615540597119,,16520645.018764082,-3383505.5777064124,20427367.93723684,1631.54185342872,2068.4188234037074,-920.142265051951,142030.41250700614,-0.0021109932276885957,0.000000016763806343078613,0.000000007450580596923828,-0.00000011920928955078125,-0.000000059604644775390625,110592.0,16384.0,-262144.0,-65536.0
Raw,1774276693000,14231592034,18,0.0,-1458311896768408064,0.0,10.088706016540527,62205.14453125,0.0,0,2,0.0,47,139110928025134,21,28.700000762939453,19.52862548828125,0.17803412675857544,20,-84.42889674103935,0.1258879310309887,1575420000,,,,0,19.5,1,3.9000000953674316,23.700000762939453,0.0,0.0,0.0,0.0,C,1053615540597119,,16301586.582512092,-12616528.245446935,16812402.03987509,-443.4139116744759,2045.4463664668517,2067.499132294293,19118.09228703754,0.0025057100610865746,0.000000016763806343078613,0.000000007450580596923828,-0.00000011920928955078125,-0.000000059604644775390625,110592.0,16384.0,-262144.0,-65536.0
Raw,1774276693000,14231592034,18,0.0,-1458311896768408064,0.0,10.088706016540527,62205.14453125,0.0,0,32,0.0,47,139110919776104,23,26.899999618530273,-188.8700714111328,0.20850275456905365,20,949.2612062757544,0.14743229775577782,1575420000,,,,0,25.700000762939453,1,3.9000000953674316,21.899999618530273,0.0,0.0,0.0,0.0,C,1053615540597119,,16092538.120957015,21256675.36368046,460701.4981738236,-208.32889515844766,130.00977291970992,3178.0049565094114,-10345.072108922473,0.006047728276826092,0.000000016763806343078613,0.000000007450580596923828,-0.00000011920928955078125,-0.000000059604644775390625,110592.0,16384.0,-262144.0,-65536.0
Raw,1774276693000,14231592034,18,0.0,-1458311896768408064,0.0,10.088706016540527,62205.14453125,0.0,0,10,0.0,47,139110929112717,28,24.700000762939453,509.8247375488281,0.25767216086387634,20,-2543.2887900146015,0.18219998494684694,1575420000,,,,0,21.5,1,3.9000000953674316,19.700000762939453,0.0,0.0,0.0,0.0,C,1053615540597119,,13919275.413201768,11448851.104637964,19894706.29013876,-2426.0600775943285,338.1269319019374,1491.4408104748363,-176987.18240031143,0.0010950342693831772,0.000000016763806343078613,0.000000007450580596923828,-0.00000011920928955078125,-0.000000059604644775390625,110592.0,16384.0,-262144.0,-65536.0
Raw,1774276693000,14231592034,18,0.0,-1458311896768408064,0.0,10.088706016540527,62205.14453125,0.0,0,1,0.0,47,139110920040204,40,20.700000762939453,-239.16162109375,0.40569597482681274,20,1202.081975228124,0.2868676238000393,1575420000,,,,0,15.699999809265137,1,3.9000000953674316,15.699999809265137,0.0,0.0,0.0,0.0,C,1053615540597119,,15282726.675118016,-20853149.00205294,5894278.850438766,-85.59589476872219,799.6296899083907,3055.117986579955,93619.68638640907,-0.0022752408258384094,0.000000016763806343078613,0.000000007450580596923828,-0.00000011920928955078125,-0.000000059604644775390625,110592.0,16384.0,-262144.0,-65536.0
Raw,1774276693000,14231592034,18,0.0,-1458311896768408064,0.0,10.088706016540527,62205.14453125,0.0,0,23,0.0,47,139110923357105,44,19.899999618530273,894.6090087890625,0.4504301846027374,20,-4468.508086775459,0.3184991835325956,1575420000,,,,0,16.700000762939453,1,3.9000000953674316,14.899999618530273,0.0,0.0,0.0,0.0,C,1053615540597119,,-508612.83726758696,14797314.399221262,22107692.488270737,-2757.7666239237083,376.0695146057265,-342.08122352467626,188126.75751985708,0.001540554192615673,0.000000016763806343078613,0.000000007450580596923828,-0.00000011920928955078125,-0.000000059604644775390625,110592.0,16384.0,-262144.0,-65536.0
Raw,1774276693000,14231592034,18,0.0,-1458311896768408064,0.0,10.088706016540527,62205.14453125,0.0,0,36,0.0,815,139096917793292,17,31.200000762939453,546.2923583984375,0.14567914605140686,20,-2726.020821926213,0.10300972417294979,1561098000,,,,0,24.899999618530273,5,3.9000000953674316,26.200000762939453,0.0,0.0,0.0,0.0,C,1053615540597119,,12245581.401548855,-20950339.80354814,13811150.10883047,1364.301101275044,-802.3624572238178,-2428.1911251047377,88190.5097641423,-0.0007129378354875371,0.000000016763806343078613,0.000000007450580596923828,-0.00000011920928955078125,-0.000000059604644775390625,110592.0,16384.0,-262144.0,-65536.0
Raw,1774276693000,14231592034,18,0.0,-1458311896768408064,0.0,10.088706016540527,62205.14453125,0.0,0,19,0.0,239,63492932366029,19,29.899999618530273,19.985567092895508,0.16128772497177124,20,-83.95422647989471,0.11404655032753944,1603687600,,,,0,22.600000381469727,3,3.9000000953674316,24.899999618530273,0.0,0.0,0.0,0.0,C,1053615540597119,,11296892.844120808,-8872668.482082492,21084050.054282144,-409.4125904301993,2858.130758161856,1416.7391226890918,11774.770506203613,0.0005453193043649662,0.000000016763806343078613,0.000000007450580596923828,-0.00000011920928955078125,-0.000000059604644775390625,110592.0,16384.0,-262144.0,-65536.0
Raw,1774276693000,14231592034,18,0.0,-1458311896768408064,0.0,10.088706016540527,62205.14453125,0.0,0,3,0.0,239,63492930721336,21,28.5,-6.802771091461182,0.18107740581035614,20,63.558422485686606,0.12803983364850283,1604812500,,,,0,27.0,3,3.9000000953674316,23.5,0.0,0.0,0.0,0.0,C,1053615540597119,,14345194.15445221,17106171.91884214,12444958.13777355,-1284.5299774058492,-1117.404523553333,3024.5891623956995,42311.99255023795,0.0002726596521824831,0.000000016763806343078613,0.000000007450580596923828,-0.00000011920928955078125,-0.000000059604644775390625,110592.0,16384.0,-262144.0,-65536.0
Raw,1774276693000,14231592034,18,0.0,-1458311896768408064,0.0,10.088706016540527,62205.14453125,0.0,0,30,0.0,815,139096924371809,26,25.5,-19.989042282104492,0.23795360326766968,20,112.68701537974994,0.16825699287056922,1561098000,,,,0,20.5,5,3.9000000953674316,20.5,0.0,0.0,0.0,0.0,C,1053615540597119,,13754325.378115095,-11900267.497871015,21143093.108306047,385.7422946849452,2392.0792732920263,1096.5283429965423,123677.29067672939,0.002314471043064259,0.000000016763806343078613,0.000000007450580596923828,-0.00000011920928955078125,-0.000000059604644775390625,110592.0,16384.0,-262144.0,-65536.0
Raw,1774276693000,14231592034,18,0.0,-1458311896768408064,0.0,10.088706016540527,62205.14453125,0.0,0,28,0.0,815,139096918323093,27,25.200000762939453,804.1537475585938,0.24507398903369904,20,-1606.4811625916118,0.17329181764572857,1561098000,,,,0,20.5,5,3.9000000953674316,20.200000762939453,0.0,0.0,0.0,0.0,C,1053615540597119,,9881605.261305457,23839500.937357716,10627205.068216166,-32.18210242313616,1223.4910269355596,-2714.2061303518963,149319.82867822822,0.0014213943213690072,0.000000016763806343078613,0.000000007450580596923828,-0.00000011920928955078125,-0.000000059604644775390625,110592.0,16384.0,-262144.0,-65536.0
Raw,1774276693000,14231592034,18,0.0,-1458311896768408064,0.0,10.088706016540527,62205.14453125,0.0,0,9,0.0,239,63492929458393,27,25.100000381469727,570.3514404296875,0.2475186139345169,20,-2816.841230337537,0.1750204119130969,1600875000,,,,0,17.600000381469727,3,3.9000000953674316,20.100000381469727,0.0,0.0,0.0,0.0,C,1053615540597119,,14199574.599171378,-15419408.424490763,14490803.754434943,1726.0818065647456,-977.8106738754673,-2743.9072017965304,94598.52955969254,0.0005453193043649662,0.000000016763806343078613,0.000000007450580596923828,-0.00000011920928955078125,-0.000000059604644775390625,110592.0,16384.0,-262144.0,-65536.0
Raw,1774276693000,14231592034,18,0.0,-1458311896768408064,0.0,10.088706016540527,62205.14453125,0.0,0,21,0.0,7215,139110918939784,36,21.899999618530273,530.5208129882812,0.35012781620025635,20,-2635.5704054134258,0.24757537883520125,1575420000,,,,0,14.899999618530273,6,3.9000000953674316,16.899999618530273,0.0,0.0,0.0,0.0,C,1053615540597119,,24577760.88582676,-8499236.327442149,14131908.311092257,1418.676104238738,30.648862608355905,-2447.5986280365014,-218871.4745430723,-0.0008216657734010369,0.000000016763806343078613,0.000000007450580596923828,-0.00000011920928955078125,-0.000000059604644775390625,110592.0,16384.0,-262144.0,-65536.0
Raw,1774276694000,15231593133,18,0.0,-1458311896768406784,0.0,10.088706016540527,62205.70703125,0.0,0,8,0.0,47,139111932526199,19,29.799999237060547,174.42080688476562,0.16259105503559113,20,-1035.7937438566296,0.11496813501566648,1575420000,,,,0,27.899999618530273,1,2.5999999046325684,24.799999237060547,0.0,0.0,0.0,0.0,C,1053616545576849,,16522276.579095703,-3381437.2495079394,20426447.575450946,1631.5771044153576,2068.2354159847987,-920.580345912079,142030.41039609473,-0.0021108273649588227,0.000000016763806343078613,0.000000007450580596923828,-0.00000011920928955078125,-0.000000059604644775390625,110592.0,16384.0,-262144.0,-65536.0
Raw,1774276694000,15231593133,18,0.0,-1458311896768406784,0.0,10.088706016540527,62205.70703125,0.0,0,2,0.0,47,139111928026163,21,28.5,17.559797286987305,0.18107740581035614,20,-101.3632337678282,0.12803983364850283,1575420000,,,,0,22.0,1,2.5999999046325684,23.5,0.0,0.0,0.0,0.0,C,1053616545576849,,16301143.188053612,-12614482.664608575,16814469.36308667,-443.3740847415812,2045.7110937906396,2067.14302948274,19118.09479287222,0.0025059541403607,0.000000016763806343078613,0.000000007450580596923828,-0.00000011920928955078125,-0.000000059604644775390625,110592.0,16384.0,-262144.0,-65536.0
Raw,1774276694000,15231593133,18,0.0,-1458311896768406784,0.0,10.088706016540527,62205.70703125,0.0,0,32,0.0,47,139111919777821,23,27.100000381469727,-189.54598999023438,0.20474600791931152,20,1139.6555602732988,0.14477590219974518,1575420000,,,,0,21.200000762939453,1,2.5999999046325684,22.100000381469727,0.0,0.0,0.0,0.0,C,1053616545576849,,16092329.674788386,21256805.221922215,463879.503733109,-208.5627328924445,129.70627027256185,3177.9952377853606,-10345.06606112242,0.006047851056791842,0.000000016763806343078613,0.000000007450580596923828,-0.00000011920928955078125,-0.000000059604644775390625,110592.0,16384.0,-262144.0,-65536.0
Raw,1774276694000,15231593133,18,0.0,-1458311896768406784,0.0,10.088706016540527,62205.70703125,0.0,0,10,0.0,47,139111929112130,28,24.799999237060547,510.11749267578125,0.25507602095603943,20,-3052.262083448848,0.18036425441801546,1575420000,,,,0,22.100000381469727,1,2.5999999046325684,19.799999237060547,0.0,0.0,0.0,0.0,C,1053616545576849,,13916849.272844305,11449189.320791267,19896197.52509751,-2426.2234752219874,338.30577487496726,1491.0308526115894,-176987.18130529328,0.0010950032738037407,0.000000016763806343078613,0.000000007450580596923828,-0.00000011920928955078125,-0.000000059604644775390625,110592.0,16384.0,-262144.0,-65536.0
Raw,1774276694000,15231593133,18,0.0,-1458311896768406784,0.0,10.088706016540527,62205.70703125,0.0,0,1,0.0,47,139111920042111,40,20.799999237060547,-239.85440063476562,0.4005768299102783,20,1442.8319404568465,0.2832478764295578,1575420000,,,,0,17.0,1,2.5999999046325684,15.800000190734863,0.0,0.0,0.0,0.0,C,1053616545576849,,15282641.014647633,-20852349.19712616,5897333.911221416,-85.72471058188302,799.9771141794957,3054.991915812201,93619.6841111658,-0.0022752370568923652,0.000000016763806343078613,0.000000007450580596923828,-0.00000011920928955078125,-0.000000059604644775390625,110592.0,16384.0,-262144.0,-65536.0
Raw,1774276694000,15231593133,18,0.0,-1458311896768406784,0.0,10.088706016540527,62205.70703125,0.0,0,23,0.0,47,139111923355183,45,19.700000762939453,896.0675659179688,0.46277016401290894,20,-5362.926649894944,0.32722478297352786,1575420000,,,,0,9.699999809265137,1,2.5999999046325684,14.699999809265137,0.0,0.0,0.0,0.0,C,1053616545576849,,-511370.5671275542,14797690.551931946,22107350.173816673,-2757.7036853958807,376.23735004402903,-342.54899944464006,188126.75906036622,0.0015404699952341616,0.000000016763806343078613,0.000000007450580596923828,-0.00000011920928955078125,-0.000000059604644775390625,110592.0,16384.0,-262144.0,-65536.0
Raw,1774276694000,15231593133,18,0.0,-1458311896768406784,0.0,10.088706016540527,62205.70703125,0.0,0,36,0.0,815,139097917792588,18,31.100000381469727,546.8894653320312,0.14679761230945587,20,-3271.625596955797,0.10380059166401624,1561098000,,,,0,24.200000762939453,5,2.5999999046325684,26.100000381469727,0.0,0.0,0.0,0.0,C,1053616545576849,,12246945.563625565,-20951142.12881084,13808721.792954123,1364.02497177557,-802.2891893674437,-2428.444039246058,88190.5090512037,-0.0007129403675207868,0.000000016763806343078613,0.000000007450580596923828,-0.00000011920928955078125,-0.000000059604644775390625,110592.0,16384.0,-262144.0,-65536.0
Raw,1774276694000,15231593133,18,0.0,-1458311896768406784,0.0,10.088706016540527,62205.70703125,0.0,0,19,0.0,239,63493932367028,19,29.700000762939453,19.618114471435547,0.16391023993492126,20,-113.1377142261772,0.11590093065798282,1603687600,,,,0,29.200000762939453,3,2.5999999046325684,24.700000762939453,0.0,0.0,0.0,0.0,C,1053616545576849,,11296483.534028629,-8869810.235767806,21085466.541763872,-409.2067646694121,2858.3561757150032,1416.2330220851018,11774.771051523461,0.0005453193043649662,0.000000016763806343078613,0.000000007450580596923828,-0.00000011920928955078125,-0.000000059604644775390625,110592.0,16384.0,-262144.0,-65536.0
Raw,1774276694000,15231593133,18,0.0,-1458311896768406784,0.0,10.088706016540527,62205.70703125,0.0,0,3,0.0,239,63493930722417,21,28.700000762939453,-5.99443244934082,0.17803412675857544,20,58.84185491033713,0.1258879310309887,1604812500,,,,0,23.799999237060547,3,2.5999999046325684,23.700000762939453,0.0,0.0,0.0,0.0,C,1053616545576849,,14343909.408535246,17105054.4480988,12447982.581610588,-1284.9590958820772,-1117.5345298146817,3024.29198924571,42311.99282289789,0.0002726596521824831,0.000000016763806343078613,0.000000007450580596923828,-0.00000011920928955078125,-0.000000059604644775390625,110592.0,16384.0,-262144.0,-65536.0
Raw,1774276694000,15231593133,18,0.0,-1458311896768406784,0.0,10.088706016540527,62205.70703125,0.0,0,9,0.0,239,63493929457615,27,25.200000762939453,569.4994506835938,0.24507398903369904,20,-3378.7225358415453,0.17329181764572857,1600875000,,,,0,21.700000762939453,3,2.5999999046325684,20.200000762939453,0.0,0.0,0.0,0.0,C,1053616545576849,,14201300.47505974,-15420386.21555322,14488059.67483719,1725.6726789629738,-977.7729627722467,-2744.256272528948,94598.53010501142,0.0005453193043649662,0.000000016763806343078613,0.000000007450580596923828,-0.00000011920928955078125,-0.000000059604644775390625,110592.0,16384.0,-262144.0,-65536.0
Raw,1774276694000,15231593133,18,0.0,-1458311896768406784,0.0,10.088706016540527,62205.70703125,0.0,0,30,0.0,815,139097924372982,26,25.5,-20.649688720703125,0.23795360326766968,20,134.24894913993194,0.16825699287056922,1561098000,,,,0,14.899999618530273,5,2.5999999046325684,20.5,0.0,0.0,0.0,0.0,C,1053616545576849,,13754711.205525355,-11897875.366255762,21144189.443683255,385.91162227012205,2392.1783359977235,1096.139836083316,123677.2929912047,0.0023144741426222026,0.000000016763806343078613,0.000000007450580596923828,-0.00000011920928955078125,-0.000000059604644775390625,110592.0,16384.0,-262144.0,-65536.0
Raw,1774276694000,15231593133,18,0.0,-1458311896768406784,0.0,10.088706016540527,62205.70703125,0.0,0,28,0.0,815,139097918321536,27,25.200000762939453,804.7161254882812,0.24507398903369904,20,-2409.8948571999863,0.17329181764572857,1561098000,,,,0,17.799999237060547,5,2.5999999046325684,20.200000762939453,0.0,0.0,0.0,0.0,C,1053616545576849,,9881573.104140209,23840724.273637094,10624490.768870858,-32.13233556674929,1223.185337442389,-2714.401004328133,149319.83009962045,0.0014213946124073118,0.000000016763806343078613,0.000000007450580596923828,-0.00000011920928955078125,-0.000000059604644775390625,110592.0,16384.0,-262144.0,-65536.0
Raw,1774276694000,15231593133,18,0.0,-1458311896768406784,0.0,10.088706016540527,62205.70703125,0.0,0,21,0.0,7215,139111918939137,36,21.799999237060547,529.734619140625,0.35430842638015747,20,-3164.2795137096255,0.2505314882934093,1575420000,,,,0,14.199999809265137,6,2.5999999046325684,16.799999237060547,0.0,0.0,0.0,0.0,C,1053616545576849,,24579179.43967072,-8499205.739310622,14129460.605411286,1418.433413952759,30.52744586127534,-2447.815894939496,-218871.47536473663,-0.0008216639689635485,0.000000016763806343078613,0.000000007450580596923828,-0.00000011920928955078125,-0.000000059604644775390625,110592.0,16384.0,-262144.0,-65536.0
Raw,1774276695000,16231594233,18,0.0,-1458311896768405760,0.0,10.088706016540527,62205.87890625,0.0,0,8,0.0,47,139112932526699,19,29.899999618530273,173.80923461914062,0.16128772497177124,20,-1208.6270371524442,0.11404655032753944,1575420000,,,,0,26.399999618530273,1,3.9000000953674316,24.899999618530273,0.0,0.0,0.0,0.0,C,1053617558885579,,16523908.174620036,-3379369.1047777534,20425526.775613327,1631.612304088439,2068.0519697243863,-921.0184048596186,142030.40828534926,-0.00211066150222905,0.000000016763806343078613,0.000000007450580596923828,-0.00000011920928955078125,-0.000000059604644775390625,110592.0,16384.0,-262144.0,-65536.0
Raw,1774276695000,16231594233,18,0.0,-1458311896768405760,0.0,10.088706016540527,62205.87890625,0.0,0,2,0.0,47,139112928027250,21,28.399999618530273,17.44399642944336,0.18262839317321777,20,-117.8934662042011,0.12913653681278228,1575420000,,,,0,25.799999237060547,1,3.9000000953674316,23.399999618530273,0.0,0.0,0.0,0.0,C,1053617558885579,,16300699.833420482,-12612436.818944063,16816536.33029435,-443.33420962969575,2045.9757809107864,2066.7868854896033,19118.097298951114,0.00250619820508291,0.000000016763806343078613,0.000000007450580596923828,-0.00000011920928955078125,-0.000000059604644775390625,110592.0,16384.0,-262144.0,-65536.0
Raw,1774276695000,16231594233,18,0.0,-1458311896768405760,0.0,10.088706016540527,62205.87890625,0.0,0,32,0.0,47,139112919779555,23,27.200000762939453,-188.75303649902344,0.2029055953025818,20,1329.6997287908744,0.14347454643845556,1575420000,,,,0,26.299999237060547,1,3.9000000953674316,22.200000762939453,0.0,0.0,0.0,0.0,C,1053617558885579,,16092120.994758252,21256934.77667984,467057.4995942673,-208.79661036535964,129.40280134020176,3177.9854522654523,-10345.060013199489,0.006047973827662645,0.000000016763806343078613,0.000000007450580596923828,-0.00000011920928955078125,-0.000000059604644775390625,110592.0,16384.0,-262144.0,-65536.0
Raw,1774276695000,16231594233,18,0.0,-1458311896768405760,0.0,10.088706016540527,62205.87890625,0.0,0,10,0.0,47,139112929111513,27,25.0,510.9126892089844,0.25,20,-3561.784793942963,0.176775,1575420000,,,,0,22.600000381469727,1,3.9000000953674316,20.0,0.0,0.0,0.0,0.0,C,1053617558885579,,13914422.96919348,11449527.715786543,19897688.35003842,-2426.3868099366982,338.4846362838474,1490.6208636659562,-176987.18021030616,0.0010949723073281348,0.000000016763806343078613,0.000000007450580596923828,-0.00000011920928955078125,-0.000000059604644775390625,110592.0,16384.0,-262144.0,-65536.0
Raw,1774276695000,16231594233,18,0.0,-1458311896768405760,0.0,10.088706016540527,62205.87890625,0.0,0,1,0.0,47,139112920044028,40,20.799999237060547,-240.35865783691406,0.4005768299102783,20,1684.0650978202175,0.2832478764295578,1575420000,,,,0,17.299999237060547,1,3.9000000953674316,15.800000190734863,0.0,0.0,0.0,0.0,C,1053617558885579,,15282555.225386402,-20851549.04476349,5900388.8459309535,-85.85347430667355,800.3245443301728,3054.8657797340175,93619.68183592625,-0.002275233273394406,0.000000016763806343078613,0.000000007450580596923828,-0.00000011920928955078125,-0.000000059604644775390625,110592.0,16384.0,-262144.0,-65536.0
Raw,1774276695000,16231594233,18,0.0,-1458311896768405760,0.0,10.088706016540527,62205.87890625,0.0,0,23,0.0,47,139112923353254,46,19.5,897.1668090820312,0.4756242632865906,20,-6258.434148572182,0.3363139165699482,1575420000,,,,0,15.199999809265137,1,3.9000000953674316,14.5,0.0,0.0,0.0,0.0,C,1053617558885579,,-514128.23399573565,14798066.872467143,22107007.39159303,-2757.640678690065,376.4051695456269,-343.01676929792063,188126.76060079114,0.0015403857978526503,0.000000016763806343078613,0.000000007450580596923828,-0.00000011920928955078125,-0.000000059604644775390625,110592.0,16384.0,-262144.0,-65536.0
Raw,1774276695000,16231594233,18,0.0,-1458311896768405760,0.0,10.088706016540527,62205.87890625,0.0,0,36,0.0,815,139098917791892,18,31.100000381469727,546.4786987304688,0.14679761230945587,20,-3817.069498203491,0.10380059166401624,1561098000,,,,0,16.0,5,3.9000000953674316,26.100000381469727,0.0,0.0,0.0,0.0,C,1053617558885579,,12248309.449580405,-20951944.38078676,13806293.22416661,1363.7488352151308,-802.2158707714843,-2428.6969089431213,88190.50833826253,-0.000712942928657867,0.000000016763806343078613,0.000000007450580596923828,-0.00000011920928955078125,-0.000000059604644775390625,110592.0,16384.0,-262144.0,-65536.0
Raw,1774276695000,16231594233,18,0.0,-1458311896768405760,0.0,10.088706016540527,62205.87890625,0.0,0,19,0.0,239,63494932368110,19,29.700000762939453,18.737258911132812,0.16391023993492126,20,-117.28123316520941,0.11590093065798282,1603687600,,,,0,27.100000381469727,3,3.9000000953674316,24.700000762939453,0.0,0.0,0.0,0.0,C,1053617558885579,,11296074.42974864,-8866951.763839828,21086882.523244843,-409.0008985071977,2858.5815099709325,1415.7268872033762,11774.771596843357,0.0005453193043649662,0.000000016763806343078613,0.000000007450580596923828,-0.00000011920928955078125,-0.000000059604644775390625,110592.0,16384.0,-262144.0,-65536.0
Raw,1774276695000,16231594233,18,0.0,-1458311896768405760,0.0,10.088706016540527,62205.87890625,0.0,0,3,0.0,239,63494930723501,21,28.700000762939453,-6.196142673492432,0.17803412675857544,20,55.270330026367446,0.1258879310309887,1604812500,,,,0,22.700000762939453,3,3.9000000953674316,23.700000762939453,0.0,0.0,0.0,0.0,C,1053617558885579,,14342624.233498042,17103936.84738746,12451006.728247143,-1285.3882092965148,-1117.664452548347,3023.994744039158,42311.993095557846,0.0002726596521824831,0.000000016763806343078613,0.000000007450580596923828,-0.00000011920928955078125,-0.000000059604644775390625,110592.0,16384.0,-262144.0,-65536.0
Raw,1774276695000,16231594233,18,0.0,-1458311896768405760,0.0,10.088706016540527,62205.87890625,0.0,0,9,0.0,239,63494929456724,27,25.200000762939453,569.9363403320312,0.24507398903369904,20,-3974.371548097377,0.17329181764572857,1600875000,,,,0,18.799999237060547,3,3.9000000953674316,20.200000762939453,0.0,0.0,0.0,0.0,C,1053617558885579,,14203025.941612184,-15421363.96875496,14485315.24651208,1725.2635242270383,-977.735173329158,-2744.6052774122886,94598.53065033024,0.0005453193043649662,0.000000016763806343078613,0.000000007450580596923828,-0.00000011920928955078125,-0.000000059604644775390625,110592.0,16384.0,-262144.0,-65536.0
Raw,1774276695000,16231594233,18,0.0,-1458311896768405760,0.0,10.088706016540527,62205.87890625,0.0,0,30,0.0,815,139098924374202,26,25.399999618530273,-21.590559005737305,0.24029220640659332,20,156.57387216037023,0.16991061915010214,1561098000,,,,0,16.899999618530273,5,3.9000000953674316,20.399999618530273,0.0,0.0,0.0,0.0,C,1053617558885579,,13755097.202286273,-11895483.135493211,21145285.390594546,386.0809592985506,2392.2773427592133,1095.7513090554378,123677.29530568322,0.0023144772712839767,0.000000016763806343078613,0.000000007450580596923828,-0.00000011920928955078125,-0.000000059604644775390625,110592.0,16384.0,-262144.0,-65536.0
Raw,1774276695000,16231594233,18,0.0,-1458311896768405760,0.0,10.088706016540527,62205.87890625,0.0,0,28,0.0,815,139098918319957,27,25.100000381469727,805.72705078125,0.2475186139345169,20,-3214.107507748078,0.1750204119130969,1561098000,,,,0,18.200000762939453,5,3.9000000953674316,20.100000381469727,0.0,0.0,0.0,0.0,C,1053617558885579,,9881540.996720359,23841947.30418896,10621776.2747365,-32.08261288015784,1222.879624770389,-2714.5958285209917,149319.83152101302,0.0014213949034456164,0.000000016763806343078613,0.000000007450580596923828,-0.00000011920928955078125,-0.000000059604644775390625,110592.0,16384.0,-262144.0,-65536.0
Raw,1774276695000,16231594233,18,0.0,-1458311896768405760,0.0,10.088706016540527,62205.87890625,0.0,0,21,0.0,7215,139112918938493,37,21.600000381469727,529.369873046875,0.3628973662853241,20,-3692.685650273954,0.25660472770035264,1575420000,,,,0,15.199999809265137,6,3.9000000953674316,16.600000381469727,0.0,0.0,0.0,0.0,C,1053617558885579,,24580597.750812825,-8499175.27257812,14127012.682475042,1418.1906917098652,30.40606419887267,-2448.0331241988342,-218871.47618639917,-0.0008216621936298907,0.000000016763806343078613,0.000000007450580596923828,-0.00000011920928955078125,-0.000000059604644775390625,110592.0,16384.0,-262144.0,-65536.0
Raw,1774276696000,17231595333,18,0.0,-1458311896768404736,0.0,10.088706016540527,62206.078125,0.0,0,8,0.0,47,139113932527250,19,30.100000381469727,173.93373107910156,0.15872763097286224,20,-1381.450196850259,0.11223630786091088,1575420000,,,,0,29.200000762939453,1,3.9000000953674316,25.100000381469727,0.0,0.0,0.0,0.0,C,1053618572464963,,16525539.805401612,-3377301.1434079185,20424605.537680507,1631.6474524446292,2067.868484620306,-921.4564419164195,142030.4061747695,-0.002110495639499277,0.000000016763806343078613,0.000000007450580596923828,-0.00000011920928955078125,-0.000000059604644775390625,110592.0,16384.0,-262144.0,-65536.0
Raw,1774276696000,17231595333,18,0.0,-1458311896768404736,0.0,10.088706016540527,62206.078125,0.0,0,2,0.0,47,139113928028303,21,28.299999237060547,17.346267700195312,0.18419939279556274,20,-134.22384555931785,0.1302473906457424,1575420000,,,,0,25.399999618530273,1,3.9000000953674316,23.299999237060547,0.0,0.0,0.0,0.0,C,1053618572464963,,16300256.518701687,-12610390.70868181,16818602.941266827,-443.2942863491929,2046.240427792408,2066.430700355766,19118.099805273992,0.0025064422661671415,0.000000016763806343078613,0.000000007450580596923828,-0.00000011920928955078125,-0.000000059604644775390625,110592.0,16384.0,-262144.0,-65536.0
