# 
# Header Description:
# 
# Version: v2.0.0.1 Platform: 10 Manufacturer: Xiaomi Model: Redmi Note 7
# 
# Raw,ElapsedRealtimeMillis,TimeNanos,LeapSecond,TimeUncertaintyNanos,FullBiasNanos,BiasNanos,BiasUncertaintyNanos,DriftNanosPerSecond,DriftUncertaintyNanosPerSecond,HardwareClockDiscontinuityCount,Svid,TimeOffsetNanos,State,ReceivedSvTimeNanos,ReceivedSvTimeUncertaintyNanos,Cn0DbHz,PseudorangeRateMetersPerSecond,PseudorangeRateUncertaintyMetersPerSecond,AccumulatedDeltaRangeState,AccumulatedDeltaRangeMeters,AccumulatedDeltaRangeUncertaintyMeters,CarrierFrequencyHz,CarrierCycles,CarrierPhase,CarrierPhaseUncertainty,MultipathIndicator,SnrInDb,ConstellationType,AgcDb,CarrierFrequencyHz
# 
# Fix,Provider,Latitude,Longitude,Altitude,Speed,Accuracy,(UTC)TimeInMs
# 
# Nav,Svid,Type,Status,MessageId,Sub-messageId,Data(Bytes)
# 
Fix,gps,45.064857,7.657476,296.976318,0.000000,3.216000,1774273799000
Raw,326488651,326555999000000,,,-1457982460431817732,0.5301303863525391,33.33079075673595,2.386395409472896,9.695002590751235,1373,2,0.0,207,60598358302518,93,15.7,-36.927085876464844,1.5835000276565552,0,0.0,0.0,1.59975002E9,,,,0,,3,-0.61,1.59975002E9
Raw,326488651,326555999000000,,,-1457982460431817732,0.5301303863525391,33.33079075673595,2.386395409472896,9.695002590751235,1373,18,0.0,207,60598365466719,17,28.8,91.27349853515625,0.24080000817775726,0,0.0,0.0,1.60031245E9,,,,0,,3,-0.61,1.60031245E9
Raw,326488652,326555999000000,,,-1457982460431817732,0.5301303863525391,33.33079075673595,2.386395409472896,9.695002590751235,1373,9,0.0,207,60598360243220,27,24.4,-244.15048217773438,0.8664999604225159,0,0.0,0.0,1.60087501E9,,,,0,,3,-0.61,1.60087501E9
Raw,326488652,326555999000000,,,-1457982460431817732,0.5301303863525391,33.33079075673595,2.386395409472896,9.695002590751235,1373,16,0.0,207,60598361656326,5,40.7,532.07861328125,0.2209000140428543,0,0.0,0.0,1.60143744E9,,,,0,,3,-0.61,1.60143744E9
Raw,326488653,326555999000000,,,-1457982460431817732,0.5301303863525391,33.33079075673595,2.386395409472896,9.695002590751235,1373,19,0.0,207,60598359423449,40,21.9,-459.7495422363281,1.0749999284744263,0,0.0,0.0,1.60368755E9,,,,0,,3,-0.61,1.60368755E9
Raw,326488653,326555999000000,,,-1457982460431817732,0.5301303863525391,33.33079075673595,2.386395409472896,9.695002590751235,1373,3,0.0,207,60598356439649,93,15.6,-676.012939453125,1.5805001258850098,0,0.0,0.0,1.60481254E9,,,,0,,3,-0.61,1.60481254E9
Raw,326488654,326555999000000,,,-1457982460431817732,0.5301303863525391,33.33079075673595,2.386395409472896,9.695002590751235,1373,2,0.0,15,136216355069602,14,30.8,-464.1593017578125,0.04830000177025795,0,0.0,0.0,1.57542003E9,,,,0,,1,0.68,1.57542003E9
Raw,326488654,326555999000000,,,-1457982460431817732,0.5301303863525391,33.33079075673595,2.386395409472896,9.695002590751235,1373,8,0.0,15,136216360607619,12,32.6,-392.0315856933594,0.023900000378489494,0,0.0,0.0,1.57542003E9,,,,0,,1,0.68,1.57542003E9
Raw,326488655,326555999000000,,,-1457982460431817732,0.5301303863525391,33.33079075673595,2.386395409472896,9.695002590751235,1373,10,0.0,15,136216360035867,13,31.4,-159.0023956298828,0.025200000032782555,0,0.0,0.0,1.57542003E9,,,,0,,1,0.68,1.57542003E9
Raw,326488655,326555999000000,,,-1457982460431817732,0.5301303863525391,33.33079075673595,2.386395409472896,9.695002590751235,1373,16,0.0,15,136216358603635,10,34.6,552.2026977539062,0.04910000041127205,0,0.0,0.0,1.57542003E9,,,,0,,1,0.68,1.57542003E9
Raw,326488656,326555999000000,,,-1457982460431817732,0.5301303863525391,33.33079075673595,2.386395409472896,9.695002590751235,1373,18,0.0,15,136216350504078,14,30.5,585.896484375,0.040800001472234726,0,0.0,0.0,1.57542003E9,,,,0,,1,0.68,1.57542003E9
Raw,326488656,326555999000000,,,-1457982460431817732,0.5301303863525391,33.33079075673595,2.386395409472896,9.695002590751235,1373,23,0.0,15,136216358547985,10,34.3,319.6332702636719,0.04910000041127205,0,0.0,0.0,1.57542003E9,,,,0,,1,0.68,1.57542003E9
Raw,326488656,326555999000000,,,-1457982460431817732,0.5301303863525391,33.33079075673595,2.386395409472896,9.695002590751235,1373,26,0.0,15,136216349615137,35,22.3,702.0313720703125,0.800000011920929,0,0.0,0.0,1.57542003E9,,,,0,,1,0.68,1.57542003E9
Raw,326488657,326555999000000,,,-1457982460431817732,0.5301303863525391,33.33079075673595,2.386395409472896,9.695002590751235,1373,27,0.0,15,136216363937359,16,29.0,-13.750967979431152,0.031200001016259193,0,0.0,0.0,1.57542003E9,,,,0,,1,0.68,1.57542003E9
Raw,326488657,326555999000000,,,-1457982460431817732,0.5301303863525391,33.33079075673595,2.386395409472896,9.695002590751235,1373,8,0.0,15,136202299885284,19,27.1,204.21209716796875,0.0398000031709671,0,0.0,0.0,1.56109798E9,,,,0,,5,0.74,1.56109798E9
Raw,326488658,326555999000000,,,-1457982460431817732,0.5301303863525391,33.33079075673595,2.386395409472896,9.695002590751235,1373,13,0.0,15,136202301984832,35,22.4,141.11061096191406,0.6180000305175781,0,0.0,0.0,1.56109798E9,,,,0,,5,0.74,1.56109798E9
Raw,326488658,326555999000000,,,-1457982460431817732,0.5301303863525391,33.33079075673595,2.386395409472896,9.695002590751235,1373,14,0.0,15,136202345318267,24,25.6,331.47833251953125,0.38929998874664307,0,0.0,0.0,1.56109798E9,,,,0,,5,0.74,1.56109798E9
Raw,326488659,326555999000000,,,-1457982460431817732,0.5301303863525391,33.33079075673595,2.386395409472896,9.695002590751235,1373,28,0.0,15,136202353318570,27,24.6,391.2708740234375,0.5460000038146973,0,0.0,0.0,1.56109798E9,,,,0,,5,0.74,1.56109798E9
Raw,326488659,326555999000000,,,-1457982460431817732,0.5301303863525391,33.33079075673595,2.386395409472896,9.695002590751235,1373,30,0.0,15,136202351339714,46,20.8,-437.79241943359375,0.7429999709129333,0,0.0,0.0,1.56109798E9,,,,0,,5,0.74,1.56109798E9
Raw,326488659,326555999000000,,,-1457982460431817732,0.5301303863525391,33.33079075673595,2.386395409472896,9.695002590751235,1373,13,0.0,7183,136216352111247,11,33.2,-158.15765380859375,0.04690000042319298,0,0.0,0.0,1.57542003E9,,,,0,,6,0.81,1.57542003E9
Raw,326488660,326555999000000,,,-1457982460431817732,0.5301303863525391,33.33079075673595,2.386395409472896,9.695002590751235,1373,15,0.0,7183,136216349504004,14,30.2,321.7895202636719,0.05130000039935112,0,0.0,0.0,1.57542003E9,,,,0,,6,0.81,1.57542003E9
Raw,326488660,326555999000000,,,-1457982460431817732,0.5301303863525391,33.33079075673595,2.386395409472896,9.695002590751235,1373,21,0.0,7183,136216350380992,14,30.4,-63.48172378540039,0.052800003439188004,0,0.0,0.0,1.57542003E9,,,,0,,6,0.81,1.57542003E9
Raw,326488660,326555999000000,,,-1457982460431817732,0.5301303863525391,33.33079075673595,2.386395409472896,9.695002590751235,1373,23,0.0,7183,136216340340268,24,25.8,-493.5333557128906,0.4058000147342682,0,0.0,0.0,1.57542003E9,,,,0,,6,0.81,1.57542003E9
Raw,326488661,326555999000000,,,-1457982460431817732,0.5301303863525391,33.33079075673595,2.386395409472896,9.695002590751235,1373,26,0.0,7183,136216340581231,17,28.9,-474.6038818359375,0.05730000138282776,0,0.0,0.0,1.57542003E9,,,,0,,6,0.81,1.57542003E9
Raw,326488661,326555999000000,,,-1457982460431817732,0.5301303863525391,33.33079075673595,2.386395409472896,9.695002590751235,1373,27,0.0,7183,136216347254432,46,20.9,457.9892883300781,0.7549999952316284,0,0.0,0.0,1.57542003E9,,,,0,,6,0.81,1.57542003E9
Fix,gps,45.064857,7.657477,296.974915,0.000000,3.216000,1774273800000
Raw,326489668,326556999000000,,,-1457982460431817731,0.29008960723876953,33.53879583301023,1.1098554712898276,9.68854731292511,1373,2,0.0,207,60599358302418,40,21.3,-36.430477142333984,1.0734999179840088,0,0.0,0.0,1.59975002E9,,,,0,,3,-0.62,1.59975002E9
Raw,326489669,326556999000000,,,-1457982460431817731,0.29008960723876953,33.53879583301023,1.1098554712898276,9.68854731292511,1373,18,0.0,207,60599365466442,21,26.9,91.1202621459961,0.31869998574256897,0,0.0,0.0,1.60031245E9,,,,0,,3,-0.62,1.60031245E9
Raw,326489670,326556999000000,,,-1457982460431817731,0.29008960723876953,33.53879583301023,1.1098554712898276,9.68854731292511,1373,9,0.0,207,60599360244040,24,25.2,-244.35018920898438,0.5817999839782715,0,0.0,0.0,1.60087501E9,,,,0,,3,-0.62,1.60087501E9
Raw,326489670,326556999000000,,,-1457982460431817731,0.29008960723876953,33.53879583301023,1.1098554712898276,9.68854731292511,1373,16,0.0,207,60599361654539,5,40.2,532.0154418945312,0.2209000140428543,0,0.0,0.0,1.60143744E9,,,,0,,3,-0.62,1.60143744E9
Raw,326489671,326556999000000,,,-1457982460431817731,0.29008960723876953,33.53879583301023,1.1098554712898276,9.68854731292511,1373,19,0.0,207,60599359424776,31,23.3,-459.91778564453125,0.9549999833106995,0,0.0,0.0,1.60368755E9,,,,0,,3,-0.62,1.60368755E9
Raw,326489671,326556999000000,,,-1457982460431817731,0.29008960723876953,33.53879583301023,1.1098554712898276,9.68854731292511,1373,3,0.0,207,60599356441556,61,18.1,-675.7794189453125,1.3005000352859497,0,0.0,0.0,1.60481254E9,,,,0,,3,-0.62,1.60481254E9
Raw,326489672,326556999000000,,,-1457982460431817731,0.29008960723876953,33.53879583301023,1.1098554712898276,9.68854731292511,1373,2,0.0,15,136217355071167,16,29.9,-464.2338562011719,0.04920000210404396,0,0.0,0.0,1.57542003E9,,,,0,,1,0.75,1.57542003E9
Raw,326489672,326556999000000,,,-1457982460431817731,0.29008960723876953,33.53879583301023,1.1098554712898276,9.68854731292511,1373,8,0.0,15,136217360608927,10,34.1,-392.13494873046875,0.022099999710917473,0,0.0,0.0,1.57542003E9,,,,0,,1,0.75,1.57542003E9
Raw,326489674,326556999000000,,,-1457982460431817731,0.29008960723876953,33.53879583301023,1.1098554712898276,9.68854731292511,1373,10,0.0,15,136217360036412,13,31.7,-159.0857696533203,0.025200000032782555,0,0.0,0.0,1.57542003E9,,,,0,,1,0.75,1.57542003E9
Raw,326489675,326556999000000,,,-1457982460431817731,0.29008960723876953,33.53879583301023,1.1098554712898276,9.68854731292511,1373,16,0.0,15,136217358601790,10,34.8,552.0183715820312,0.04910000041127205,0,0.0,0.0,1.57542003E9,,,,0,,1,0.75,1.57542003E9
Raw,326489675,326556999000000,,,-1457982460431817731,0.29008960723876953,33.53879583301023,1.1098554712898276,9.68854731292511,1373,18,0.0,15,136217350502093,13,31.5,585.6767578125,0.04020000249147415,0,0.0,0.0,1.57542003E9,,,,0,,1,0.75,1.57542003E9
Raw,326489676,326556999000000,,,-1457982460431817731,0.29008960723876953,33.53879583301023,1.1098554712898276,9.68854731292511,1373,23,0.0,15,136217358546906,10,34.3,319.54986572265625,0.04910000041127205,0,0.0,0.0,1.57542003E9,,,,0,,1,0.75,1.57542003E9
Raw,326489676,326556999000000,,,-1457982460431817731,0.29008960723876953,33.53879583301023,1.1098554712898276,9.68854731292511,1373,26,0.0,15,136217349612832,16,29.3,702.0428466796875,0.04020000249147415,0,0.0,0.0,1.57542003E9,,,,0,,1,0.75,1.57542003E9
Raw,326489677,326556999000000,,,-1457982460431817731,0.29008960723876953,33.53879583301023,1.1098554712898276,9.68854731292511,1373,27,0.0,15,136217363937395,17,28.3,-13.780357360839844,0.03779999911785126,0,0.0,0.0,1.57542003E9,,,,0,,1,0.75,1.57542003E9
Raw,326489677,326556999000000,,,-1457982460431817731,0.29008960723876953,33.53879583301023,1.1098554712898276,9.68854731292511,1373,8,0.0,15,136203299884614,24,25.8,203.98094177246094,0.38030001521110535,0,0.0,0.0,1.56109798E9,,,,0,,5,0.77,1.56109798E9
Raw,326489677,326556999000000,,,-1457982460431817731,0.29008960723876953,33.53879583301023,1.1098554712898276,9.68854731292511,1373,13,0.0,15,136203301984329,40,21.5,141.50430297851562,0.6679999828338623,0,0.0,0.0,1.56109798E9,,,,0,,5,0.77,1.56109798E9
Raw,326489678,326556999000000,,,-1457982460431817731,0.29008960723876953,33.53879583301023,1.1098554712898276,9.68854731292511,1373,14,0.0,15,136203345317172,40,21.6,331.69061279296875,0.6739999651908875,0,0.0,0.0,1.56109798E9,,,,0,,5,0.77,1.56109798E9
Raw,326489678,326556999000000,,,-1457982460431817731,0.29008960723876953,33.53879583301023,1.1098554712898276,9.68854731292511,1373,28,0.0,15,136203353317253,19,27.9,391.0920715332031,0.06080000102519989,0,0.0,0.0,1.56109798E9,,,,0,,5,0.77,1.56109798E9
Raw,326489679,326556999000000,,,-1457982460431817731,0.29008960723876953,33.53879583301023,1.1098554712898276,9.68854731292511,1373,30,0.0,15,136203351341130,31,23.9,-438.5414123535156,0.5929999947547913,0,0.0,0.0,1.56109798E9,,,,0,,5,0.77,1.56109798E9
Raw,326489679,326556999000000,,,-1457982460431817731,0.29008960723876953,33.53879583301023,1.1098554712898276,9.68854731292511,1373,13,0.0,7183,136217352111778,11,33.4,-158.25917053222656,0.04690000042319298,0,0.0,0.0,1.57542003E9,,,,0,,6,0.77,1.57542003E9
Raw,326489679,326556999000000,,,-1457982460431817731,0.29008960723876953,33.53879583301023,1.1098554712898276,9.68854731292511,1373,15,0.0,7183,136217349502947,16,29.0,321.7325134277344,0.05220000073313713,0,0.0,0.0,1.57542003E9,,,,0,,6,0.77,1.57542003E9
Raw,326489680,326556999000000,,,-1457982460431817731,0.29008960723876953,33.53879583301023,1.1098554712898276,9.68854731292511,1373,21,0.0,7183,136217350381205,14,30.5,-63.54288864135742,0.052800003439188004,0,0.0,0.0,1.57542003E9,,,,0,,6,0.77,1.57542003E9
Raw,326489680,326556999000000,,,-1457982460431817731,0.29008960723876953,33.53879583301023,1.1098554712898276,9.68854731292511,1373,23,0.0,7183,136217340341898,24,25.3,-493.6205139160156,0.4058000147342682,0,0.0,0.0,1.57542003E9,,,,0,,6,0.77,1.57542003E9
Raw,326489680,326556999000000,,,-1457982460431817731,0.29008960723876953,33.53879583301023,1.1098554712898276,9.68854731292511,1373,26,0.0,7183,136217340582815,19,27.5,-474.6725158691406,0.06530000269412994,0,0.0,0.0,1.57542003E9,,,,0,,6,0.77,1.57542003E9
Raw,326489681,326556999000000,,,-1457982460431817731,0.29008960723876953,33.53879583301023,1.1098554712898276,9.68854731292511,1373,27,0.0,7183,136217347252962,31,23.5,457.370849609375,0.6050000190734863,0,0.0,0.0,1.57542003E9,,,,0,,6,0.77,1.57542003E9
Fix,gps,45.064857,7.657478,296.974731,0.000000,3.216000,1774273801000
Raw,326490680,326557999000000,,,-1457982460431817729,0.8232870101928711,34.75217454251833,0.29825856873698653,9.92793417733836,1373,2,0.0,207,60600358302548,19,27.1,-36.124244689941406,0.26829999685287476,0,0.0,0.0,1.59975002E9,,,,0,,3,-0.72,1.59975002E9
Raw,326490681,326557999000000,,,-1457982460431817729,0.8232870101928711,34.75217454251833,0.29825856873698653,9.92793417733836,1373,18,0.0,207,60600365466134,24,25.9,91.53541564941406,0.5892999768257141,0,0.0,0.0,1.60031245E9,,,,0,,3,-0.72,1.60031245E9
Raw,326490681,326557999000000,,,-1457982460431817729,0.8232870101928711,34.75217454251833,0.29825856873698653,9.92793417733836,1373,9,0.0,207,60600360244745,9,35.5,-243.54995727539062,0.2215999960899353,0,0.0,0.0,1.60087501E9,,,,0,,3,-0.72,1.60087501E9
Raw,326490682,326557999000000,,,-1457982460431817729,0.8232870101928711,34.75217454251833,0.29825856873698653,9.92793417733836,1373,16,0.0,207,60600361652783,5,40.7,532.1394653320312,0.2209000140428543,0,0.0,0.0,1.60143744E9,,,,0,,3,-0.72,1.60143744E9
Raw,326490682,326557999000000,,,-1457982460431817729,0.8232870101928711,34.75217454251833,0.29825856873698653,9.92793417733836,1373,19,0.0,207,60600359426396,17,28.8,-459.8341979980469,0.26180002093315125,0,0.0,0.0,1.60368755E9,,,,0,,3,-0.72,1.60368755E9
Raw,326490683,326557999000000,,,-1457982460431817729,0.8232870101928711,34.75217454251833,0.29825856873698653,9.92793417733836,1373,3,0.0,207,60600356444320,61,18.3,-676.62939453125,1.3005000352859497,0,0.0,0.0,1.60481254E9,,,,0,,3,-0.72,1.60481254E9
Raw,326490683,326557999000000,,,-1457982460431817729,0.8232870101928711,34.75217454251833,0.29825856873698653,9.92793417733836,1373,2,0.0,15,136218355072743,17,28.3,-464.222900390625,0.055800002068281174,0,0.0,0.0,1.57542003E9,,,,0,,1,0.49,1.57542003E9
Raw,326490684,326557999000000,,,-1457982460431817729,0.8232870101928711,34.75217454251833,0.29825856873698653,9.92793417733836,1373,8,0.0,15,136218360610224,12,32.1,-392.0645751953125,0.023900000378489494,0,0.0,0.0,1.57542003E9,,,,0,,1,0.49,1.57542003E9
Raw,326490684,326557999000000,,,-1457982460431817729,0.8232870101928711,34.75217454251833,0.29825856873698653,9.92793417733836,1373,10,0.0,15,136218360036801,19,27.0,-158.61929321289062,0.5264999866485596,0,0.0,0.0,1.57542003E9,,,,0,,1,0.49,1.57542003E9
Raw,326490685,326557999000000,,,-1457982460431817729,0.8232870101928711,34.75217454251833,0.29825856873698653,9.92793417733836,1373,16,0.0,15,136218358599901,14,30.6,552.0274658203125,0.052800003439188004,0,0.0,0.0,1.57542003E9,,,,0,,1,0.49,1.57542003E9
Raw,326490685,326557999000000,,,-1457982460431817729,0.8232870101928711,34.75217454251833,0.29825856873698653,9.92793417733836,1373,18,0.0,15,136218350500115,11,33.5,585.62548828125,0.03790000081062317,0,0.0,0.0,1.57542003E9,,,,0,,1,0.49,1.57542003E9
Raw,326490687,326557999000000,,,-1457982460431817729,0.8232870101928711,34.75217454251833,0.29825856873698653,9.92793417733836,1373,23,0.0,15,136218358545853,13,31.5,319.5621337890625,0.05220000073313713,0,0.0,0.0,1.57542003E9,,,,0,,1,0.49,1.57542003E9
Raw,326490688,326557999000000,,,-1457982460431817729,0.8232870101928711,34.75217454251833,0.29825856873698653,9.92793417733836,1373,26,0.0,15,136218349610445,17,28.6,702.0657348632812,0.046800002455711365,0,0.0,0.0,1.57542003E9,,,,0,,1,0.49,1.57542003E9
Raw,326490688,326557999000000,,,-1457982460431817729,0.8232870101928711,34.75217454251833,0.29825856873698653,9.92793417733836,1373,27,0.0,15,136218363937443,12,32.2,-13.805130958557129,0.0284000001847744,0,0.0,0.0,1.57542003E9,,,,0,,1,0.49,1.57542003E9
Raw,326490689,326557999000000,,,-1457982460431817729,0.8232870101928711,34.75217454251833,0.29825856873698653,9.92793417733836,1373,5,0.0,783,136204297832700,103,20.1,-15.484355926513672,16.864999771118164,0,0.0,0.0,1.56109798E9,,,,0,,5,0.49,1.56109798E9
Raw,326490690,326557999000000,,,-1457982460431817729,0.8232870101928711,34.75217454251833,0.29825856873698653,9.92793417733836,1373,8,0.0,15,136204299883909,53,19.6,203.5810546875,0.7849999666213989,0,0.0,0.0,1.56109798E9,,,,0,,5,0.49,1.56109798E9
Raw,326490690,326557999000000,,,-1457982460431817729,0.8232870101928711,34.75217454251833,0.29825856873698653,9.92793417733836,1373,13,0.0,15,136204301983842,21,26.0,141.22677612304688,0.11270000040531158,0,0.0,0.0,1.56109798E9,,,,0,,5,0.49,1.56109798E9
Raw,326490691,326557999000000,,,-1457982460431817729,0.8232870101928711,34.75217454251833,0.29825856873698653,9.92793417733836,1373,14,0.0,15,136204345316011,46,20.9,331.67138671875,0.7339999675750732,0,0.0,0.0,1.56109798E9,,,,0,,5,0.49,1.56109798E9
Raw,326490691,326557999000000,,,-1457982460431817729,0.8232870101928711,34.75217454251833,0.29825856873698653,9.92793417733836,1373,28,0.0,15,136204353315903,16,29.1,390.9738464355469,0.04620000347495079,0,0.0,0.0,1.56109798E9,,,,0,,5,0.49,1.56109798E9
Raw,326490693,326557999000000,,,-1457982460431817729,0.8232870101928711,34.75217454251833,0.29825856873698653,9.92793417733836,1373,30,0.0,15,136204351342527,13,31.1,-438.0195617675781,0.04170000180602074,0,0.0,0.0,1.56109798E9,,,,0,,5,0.49,1.56109798E9
Raw,326490693,326557999000000,,,-1457982460431817729,0.8232870101928711,34.75217454251833,0.29825856873698653,9.92793417733836,1373,13,0.0,7183,136218352112311,11,33.3,-158.18020629882812,0.04690000042319298,0,0.0,0.0,1.57542003E9,,,,0,,6,0.53,1.57542003E9
Raw,326490694,326557999000000,,,-1457982460431817729,0.8232870101928711,34.75217454251833,0.29825856873698653,9.92793417733836,1373,15,0.0,7183,136218349501873,17,28.4,321.70404052734375,0.058800000697374344,0,0.0,0.0,1.57542003E9,,,,0,,6,0.53,1.57542003E9
Raw,326490694,326557999000000,,,-1457982460431817729,0.8232870101928711,34.75217454251833,0.29825856873698653,9.92793417733836,1373,21,0.0,7183,136218350381413,12,32.0,-63.437339782714844,0.05090000107884407,0,0.0,0.0,1.57542003E9,,,,0,,6,0.53,1.57542003E9
Raw,326490695,326557999000000,,,-1457982460431817729,0.8232870101928711,34.75217454251833,0.29825856873698653,9.92793417733836,1373,23,0.0,7183,136218340343575,24,25.1,-493.4996337890625,0.4058000147342682,0,0.0,0.0,1.57542003E9,,,,0,,6,0.53,1.57542003E9
Raw,326490695,326557999000000,,,-1457982460431817729,0.8232870101928711,34.75217454251833,0.29825856873698653,9.92793417733836,1373,26,0.0,7183,136218340584431,21,26.1,-474.6582336425781,0.13520000874996185,0,0.0,0.0,1.57542003E9,,,,0,,6,0.53,1.57542003E9
Raw,326490695,326557999000000,,,-1457982460431817729,0.8232870101928711,34.75217454251833,0.29825856873698653,9.92793417733836,1373,27,0.0,7183,136218347251392,21,26.6,457.46044921875,0.1397000104188919,0,0.0,0.0,1.57542003E9,,,,0,,6,0.53,1.57542003E9
Fix,gps,45.064857,7.657475,297.189880,0.000000,3.216000,1774273802000
Raw,326491665,326558999000000,,,-1457982460431817720,0.42125701904296875,35.258261050330475,0.4094856619122599,11.866302130750046,1373,2,0.0,207,60601358302634,14,30.6,-35.76593780517578,0.25279998779296875,0,0.0,0.0,1.59975002E9,,,,0,,3,-1.58,1.59975002E9
Raw,326491665,326558999000000,,,-1457982460431817720,0.42125701904296875,35.258261050330475,0.4094856619122599,11.866302130750046,1373,18,0.0,207,60601365465782,16,29.6,91.34681701660156,0.23420000076293945,0,0.0,0.0,1.60031245E9,,,,0,,3,-1.58,1.60031245E9
Raw,326491665,326558999000000,,,-1457982460431817720,0.42125701904296875,35.258261050330475,0.4094856619122599,11.866302130750046,1373,9,0.0,207,60601360245559,10,34.1,-243.4585418701172,0.22210000455379486,0,0.0,0.0,1.60087501E9,,,,0,,3,-1.58,1.60087501E9
Raw,326491665,326558999000000,,,-1457982460431817720,0.42125701904296875,35.258261050330475,0.4094856619122599,11.866302130750046,1373,16,0.0,207,60601361651007,7,37.2,532.2510986328125,0.22210000455379486,0,0.0,0.0,1.60143744E9,,,,0,,3,-1.58,1.60143744E9
Raw,326491665,326558999000000,,,-1457982460431817720,0.42125701904296875,35.258261050330475,0.4094856619122599,11.866302130750046,1373,19,0.0,207,60601359427923,14,30.1,-459.812255859375,0.25429999828338623,0,0.0,0.0,1.60368755E9,,,,0,,3,-1.58,1.60368755E9
Raw,326491666,326558999000000,,,-1457982460431817720,0.42125701904296875,35.258261050330475,0.4094856619122599,11.866302130750046,1373,2,0.0,15,136219355074281,14,30.8,-464.3371887207031,0.04830000177025795,0,0.0,0.0,1.57542003E9,,,,0,,1,-0.53,1.57542003E9
Raw,326491666,326558999000000,,,-1457982460431817720,0.42125701904296875,35.258261050330475,0.4094856619122599,11.866302130750046,1373,8,0.0,15,136219360611515,17,28.3,-391.85467529296875,0.0333000011742115,0,0.0,0.0,1.57542003E9,,,,0,,1,-0.53,1.57542003E9
Raw,326491666,326558999000000,,,-1457982460431817720,0.42125701904296875,35.258261050330475,0.4094856619122599,11.866302130750046,1373,10,0.0,15,136219360037408,24,25.3,-158.83409118652344,0.38179999589920044,0,0.0,0.0,1.57542003E9,,,,0,,1,-0.53,1.57542003E9
Raw,326491666,326558999000000,,,-1457982460431817720,0.42125701904296875,35.258261050330475,0.4094856619122599,11.866302130750046,1373,16,0.0,15,136219358598071,11,33.6,552.1744995117188,0.04990000277757645,0,0.0,0.0,1.57542003E9,,,,0,,1,-0.53,1.57542003E9
Raw,326491666,326558999000000,,,-1457982460431817720,0.42125701904296875,35.258261050330475,0.4094856619122599,11.866302130750046,1373,18,0.0,15,136219350498154,11,33.5,585.9002075195312,0.03790000081062317,0,0.0,0.0,1.57542003E9,,,,0,,1,-0.53,1.57542003E9
Raw,326491667,326558999000000,,,-1457982460431817720,0.42125701904296875,35.258261050330475,0.4094856619122599,11.866302130750046,1373,23,0.0,15,136219358544778,10,34.2,319.89959716796875,0.04910000041127205,0,0.0,0.0,1.57542003E9,,,,0,,1,-0.53,1.57542003E9
Raw,326491667,326558999000000,,,-1457982460431817720,0.42125701904296875,35.258261050330475,0.4094856619122599,11.866302130750046,1373,26,0.0,15,136219349608086,46,20.7,702.7545166015625,0.8600000143051147,0,0.0,0.0,1.57542003E9,,,,0,,1,-0.53,1.57542003E9
Raw,326491667,326558999000000,,,-1457982460431817720,0.42125701904296875,35.258261050330475,0.4094856619122599,11.866302130750046,1373,27,0.0,15,136219363937501,11,33.3,-13.573385238647461,0.027400000020861626,0,0.0,0.0,1.57542003E9,,,,0,,1,-0.53,1.57542003E9
Raw,326491667,326558999000000,,,-1457982460431817720,0.42125701904296875,35.258261050330475,0.4094856619122599,11.866302130750046,1373,8,0.0,15,136205299883236,24,25.4,204.07772827148438,0.38030001521110535,0,0.0,0.0,1.56109798E9,,,,0,,5,0.02,1.56109798E9
Raw,326491667,326558999000000,,,-1457982460431817720,0.42125701904296875,35.258261050330475,0.4094856619122599,11.866302130750046,1373,13,0.0,15,136205301983394,27,24.7,141.87876892089844,0.527999997138977,0,0.0,0.0,1.56109798E9,,,,0,,5,0.02,1.56109798E9
Raw,326491668,326558999000000,,,-1457982460431817720,0.42125701904296875,35.258261050330475,0.4094856619122599,11.866302130750046,1373,14,0.0,15,136205345314885,46,20.7,331.71942138671875,0.7339999675750732,0,0.0,0.0,1.56109798E9,,,,0,,5,0.02,1.56109798E9
Raw,326491668,326558999000000,,,-1457982460431817720,0.42125701904296875,35.258261050330475,0.4094856619122599,11.866302130750046,1373,28,0.0,15,136205353314605,13,31.3,391.1856689453125,0.04470000043511391,0,0.0,0.0,1.56109798E9,,,,0,,5,0.02,1.56109798E9
Raw,326491668,326558999000000,,,-1457982460431817720,0.42125701904296875,35.258261050330475,0.4094856619122599,11.866302130750046,1373,30,0.0,15,136205351344025,11,33.6,-438.16754150390625,0.039400000125169754,0,0.0,0.0,1.56109798E9,,,,0,,5,0.02,1.56109798E9
Raw,326491669,326558999000000,,,-1457982460431817720,0.42125701904296875,35.258261050330475,0.4094856619122599,11.866302130750046,1373,13,0.0,7183,136219352112832,13,31.8,-158.08810424804688,0.04920000210404396,0,0.0,0.0,1.57542003E9,,,,0,,6,-0.45,1.57542003E9
Raw,326491669,326558999000000,,,-1457982460431817720,0.42125701904296875,35.258261050330475,0.4094856619122599,11.866302130750046,1373,15,0.0,7183,136219349500792,13,31.8,321.9295959472656,0.050700001418590546,0,0.0,0.0,1.57542003E9,,,,0,,6,-0.45,1.57542003E9
Raw,326491669,326558999000000,,,-1457982460431817720,0.42125701904296875,35.258261050330475,0.4094856619122599,11.866302130750046,1373,21,0.0,7183,136219350381633,12,32.5,-63.29829025268555,0.05090000107884407,0,0.0,0.0,1.57542003E9,,,,0,,6,-0.45,1.57542003E9
Raw,326491669,326558999000000,,,-1457982460431817720,0.42125701904296875,35.258261050330475,0.4094856619122599,11.866302130750046,1373,23,0.0,7183,136219340345247,40,21.1,-493.28875732421875,0.6904999613761902,0,0.0,0.0,1.57542003E9,,,,0,,6,-0.45,1.57542003E9
Raw,326491669,326558999000000,,,-1457982460431817720,0.42125701904296875,35.258261050330475,0.4094856619122599,11.866302130750046,1373,26,0.0,7183,136219340586008,27,24.3,-475.2870178222656,0.5504999756813049,0,0.0,0.0,1.57542003E9,,,,0,,6,-0.45,1.57542003E9
Raw,326491669,326558999000000,,,-1457982460431817720,0.42125701904296875,35.258261050330475,0.4094856619122599,11.866302130750046,1373,27,0.0,7183,136219347249878,21,26.5,457.5240478515625,0.1397000104188919,0,0.0,0.0,1.57542003E9,,,,0,,6,-0.45,1.57542003E9
Fix,gps,45.064856,7.657476,297.174316,0.000000,3.216000,1774273803000
Raw,326492679,326559999000000,,,-1457982460431817713,0.09697723388671875,31.735158700030297,0.3900663210837213,11.288013578104538,1373,2,0.0,207,60602358302802,10,34.6,-35.580604553222656,0.24910001456737518,0,0.0,0.0,1.59975002E9,,,,0,,3,-1.55,1.59975002E9
Raw,326492680,326559999000000,,,-1457982460431817713,0.09697723388671875,31.735158700030297,0.3900663210837213,11.288013578104538,1373,18,0.0,207,60602365465446,13,31.1,91.45182800292969,0.23270000517368317,0,0.0,0.0,1.60031245E9,,,,0,,3,-1.55,1.60031245E9
Raw,326492680,326559999000000,,,-1457982460431817713,0.09697723388671875,31.735158700030297,0.3900663210837213,11.288013578104538,1373,9,0.0,207,60602360246370,16,29.2,-243.279541015625,0.22669999301433563,0,0.0,0.0,1.60087501E9,,,,0,,3,-1.55,1.60087501E9
Raw,326492681,326559999000000,,,-1457982460431817713,0.09697723388671875,31.735158700030297,0.3900663210837213,11.288013578104538,1373,16,0.0,207,60602361649214,10,34.8,532.4769897460938,0.22360001504421234,0,0.0,0.0,1.60143744E9,,,,0,,3,-1.55,1.60143744E9
Raw,326492681,326559999000000,,,-1457982460431817713,0.09697723388671875,31.735158700030297,0.3900663210837213,11.288013578104538,1373,19,0.0,207,60602359429410,11,33.0,-459.7038269042969,0.25140002369880676,0,0.0,0.0,1.60368755E9,,,,0,,3,-1.55,1.60368755E9
Raw,326492681,326559999000000,,,-1457982460431817713,0.09697723388671875,31.735158700030297,0.3900663210837213,11.288013578104538,1373,3,0.0,207,60602356448899,97,15.1,-677.3766479492188,2.3305001258850098,0,0.0,0.0,1.60481254E9,,,,0,,3,-1.55,1.60481254E9
Raw,326492682,326559999000000,,,-1457982460431817713,0.09697723388671875,31.735158700030297,0.3900663210837213,11.288013578104538,1373,2,0.0,15,136220355075872,31,23.7,-464.4307556152344,0.6889999508857727,0,0.0,0.0,1.57542003E9,,,,0,,1,-0.5,1.57542003E9
Raw,326492682,326559999000000,,,-1457982460431817713,0.09697723388671875,31.735158700030297,0.3900663210837213,11.288013578104538,1373,8,0.0,15,136220360612829,31,23.6,-391.3865051269531,0.6664999723434448,0,0.0,0.0,1.57542003E9,,,,0,,1,-0.5,1.57542003E9
Raw,326492683,326559999000000,,,-1457982460431817713,0.09697723388671875,31.735158700030297,0.3900663210837213,11.288013578104538,1373,10,0.0,15,136220360037835,80,16.6,-156.73538208007812,1.1664999723434448,0,0.0,0.0,1.57542003E9,,,,0,,1,-0.5,1.57542003E9
Raw,326492683,326559999000000,,,-1457982460431817713,0.09697723388671875,31.735158700030297,0.3900663210837213,11.288013578104538,1373,16,0.0,15,136220358596248,13,31.0,552.328369140625,0.05220000073313713,0,0.0,0.0,1.57542003E9,,,,0,,1,-0.5,1.57542003E9
Raw,326492684,326559999000000,,,-1457982460431817713,0.09697723388671875,31.735158700030297,0.3900663210837213,11.288013578104538,1373,18,0.0,15,136220350496258,16,29.7,585.8368530273438,0.04170000180602074,0,0.0,0.0,1.57542003E9,,,,0,,1,-0.5,1.57542003E9
Raw,326492684,326559999000000,,,-1457982460431817713,0.09697723388671875,31.735158700030297,0.3900663210837213,11.288013578104538,1373,23,0.0,15,136220358543690,9,35.1,319.9941101074219,0.048600003123283386,0,0.0,0.0,1.57542003E9,,,,0,,1,-0.5,1.57542003E9
Raw,326492684,326559999000000,,,-1457982460431817713,0.09697723388671875,31.735158700030297,0.3900663210837213,11.288013578104538,1373,27,0.0,15,136220363937553,12,32.8,-13.452361106872559,0.0284000001847744,0,0.0,0.0,1.57542003E9,,,,0,,1,-0.5,1.57542003E9
Raw,326492685,326559999000000,,,-1457982460431817713,0.09697723388671875,31.735158700030297,0.3900663210837213,11.288013578104538,1373,8,0.0,15,136206299882590,24,25.0,204.13232421875,0.38030001521110535,0,0.0,0.0,1.56109798E9,,,,0,,5,-0.1,1.56109798E9
Raw,326492685,326559999000000,,,-1457982460431817713,0.09697723388671875,31.735158700030297,0.3900663210837213,11.288013578104538,1373,13,0.0,15,136206301982918,24,25.7,141.6610565185547,0.3833000063896179,0,0.0,0.0,1.56109798E9,,,,0,,5,-0.1,1.56109798E9
Raw,326492685,326559999000000,,,-1457982460431817713,0.09697723388671875,31.735158700030297,0.3900663210837213,11.288013578104538,1373,14,0.0,15,136206345313748,35,22.5,331.96905517578125,0.6240000128746033,0,0.0,0.0,1.56109798E9,,,,0,,5,-0.1,1.56109798E9
Raw,326492686,326559999000000,,,-1457982460431817713,0.09697723388671875,31.735158700030297,0.3900663210837213,11.288013578104538,1373,28,0.0,15,136206353313251,35,22.2,391.73175048828125,0.6360000371932983,0,0.0,0.0,1.56109798E9,,,,0,,5,-0.1,1.56109798E9
Raw,326492686,326559999000000,,,-1457982460431817713,0.09697723388671875,31.735158700030297,0.3900663210837213,11.288013578104538,1373,30,0.0,15,136206351345468,10,34.9,-438.12298583984375,0.038600001484155655,0,0.0,0.0,1.56109798E9,,,,0,,5,-0.1,1.56109798E9
Raw,326492687,326559999000000,,,-1457982460431817713,0.09697723388671875,31.735158700030297,0.3900663210837213,11.288013578104538,1373,13,0.0,7183,136220352113350,11,33.4,-157.9821014404297,0.04690000042319298,0,0.0,0.0,1.57542003E9,,,,0,,6,-0.41,1.57542003E9
Raw,326492687,326559999000000,,,-1457982460431817713,0.09697723388671875,31.735158700030297,0.3900663210837213,11.288013578104538,1373,15,0.0,7183,136220349499722,11,33.4,321.903564453125,0.04840000346302986,0,0.0,0.0,1.57542003E9,,,,0,,6,-0.41,1.57542003E9
Raw,326492687,326559999000000,,,-1457982460431817713,0.09697723388671875,31.735158700030297,0.3900663210837213,11.288013578104538,1373,21,0.0,7183,136220350381822,11,33.3,-63.20474624633789,0.04990000277757645,0,0.0,0.0,1.57542003E9,,,,0,,6,-0.41,1.57542003E9
Raw,326492688,326559999000000,,,-1457982460431817713,0.09697723388671875,31.735158700030297,0.3900663210837213,11.288013578104538,1373,23,0.0,7183,136220340346829,21,26.0,-493.5919189453125,0.13520000874996185,0,0.0,0.0,1.57542003E9,,,,0,,6,-0.41,1.57542003E9
Raw,326492688,326559999000000,,,-1457982460431817713,0.09697723388671875,31.735158700030297,0.3900663210837213,11.288013578104538,1373,26,0.0,7183,136220340587620,16,29.4,-474.5345764160156,0.050700001418590546,0,0.0,0.0,1.57542003E9,,,,0,,6,-0.41,1.57542003E9
Raw,326492688,326559999000000,,,-1457982460431817713,0.09697723388671875,31.735158700030297,0.3900663210837213,11.288013578104538,1373,27,0.0,7183,136220347248337,46,20.9,457.59918212890625,0.7549999952316284,0,0.0,0.0,1.57542003E9,,,,0,,6,-0.41,1.57542003E9
Fix,gps,45.064855,7.657477,297.187195,0.000000,3.216000,1774273804000
Raw,326493680,326560999000000,,,-1457982460431817712,0.08045387268066406,32.84471677034162,1.135411357122483,10.508299202868434,1373,2,0.0,207,60603358302873,10,34.9,-35.697601318359375,0.24910001456737518,0,0.0,0.0,1.59975002E9,,,,0,,3,-1.73,1.59975002E9
Raw,326493680,326560999000000,,,-1457982460431817712,0.08045387268066406,32.84471677034162,1.135411357122483,10.508299202868434,1373,18,0.0,207,60603365465133,16,29.3,91.28751373291016,0.23420000076293945,0,0.0,0.0,1.60031245E9,,,,0,,3,-1.73,1.60031245E9
Raw,326493681,326560999000000,,,-1457982460431817712,0.08045387268066406,32.84471677034162,1.135411357122483,10.508299202868434,1373,9,0.0,207,60603360247247,13,31.3,-243.37869262695312,0.22519999742507935,0,0.0,0.0,1.60087501E9,,,,0,,3,-1.73,1.60087501E9
Raw,326493681,326560999000000,,,-1457982460431817712,0.08045387268066406,32.84471677034162,1.135411357122483,10.508299202868434,1373,16,0.0,207,60603361647460,10,34.5,532.379638671875,0.22360001504421234,0,0.0,0.0,1.60143744E9,,,,0,,3,-1.73,1.60143744E9
Raw,326493682,326560999000000,,,-1457982460431817712,0.08045387268066406,32.84471677034162,1.135411357122483,10.508299202868434,1373,19,0.0,207,60603359430899,12,32.1,-459.86920166015625,0.2524000108242035,0,0.0,0.0,1.60368755E9,,,,0,,3,-1.73,1.60368755E9
Raw,326493682,326560999000000,,,-1457982460431817712,0.08045387268066406,32.84471677034162,1.135411357122483,10.508299202868434,1373,2,0.0,15,136221355077405,61,18.0,-463.7932434082031,1.0989999771118164,0,0.0,0.0,1.57542003E9,,,,0,,1,-0.64,1.57542003E9
Raw,326493682,326560999000000,,,-1457982460431817712,0.08045387268066406,32.84471677034162,1.135411357122483,10.508299202868434,1373,8,0.0,15,136221360614059,21,26.0,-391.93634033203125,0.1112000048160553,0,0.0,0.0,1.57542003E9,,,,0,,1,-0.64,1.57542003E9
Raw,326493683,326560999000000,,,-1457982460431817712,0.08045387268066406,32.84471677034162,1.135411357122483,10.508299202868434,1373,10,0.0,15,136221360038510,27,24.6,-158.7144317626953,0.6165000200271606,0,0.0,0.0,1.57542003E9,,,,0,,1,-0.64,1.57542003E9
Raw,326493683,326560999000000,,,-1457982460431817712,0.08045387268066406,32.84471677034162,1.135411357122483,10.508299202868434,1373,16,0.0,15,136221358594409,14,30.9,552.274658203125,0.052800003439188004,0,0.0,0.0,1.57542003E9,,,,0,,1,-0.64,1.57542003E9
Raw,326493683,326560999000000,,,-1457982460431817712,0.08045387268066406,32.84471677034162,1.135411357122483,10.508299202868434,1373,18,0.0,15,136221350494290,13,31.8,585.662109375,0.04020000249147415,0,0.0,0.0,1.57542003E9,,,,0,,1,-0.64,1.57542003E9
Raw,326493684,326560999000000,,,-1457982460431817712,0.08045387268066406,32.84471677034162,1.135411357122483,10.508299202868434,1373,23,0.0,15,136221358542642,10,34.9,319.8982849121094,0.04910000041127205,0,0.0,0.0,1.57542003E9,,,,0,,1,-0.64,1.57542003E9
Raw,326493684,326560999000000,,,-1457982460431817712,0.08045387268066406,32.84471677034162,1.135411357122483,10.508299202868434,1373,27,0.0,15,136221363937584,10,34.1,-13.610209465026855,0.026600001379847527,0,0.0,0.0,1.57542003E9,,,,0,,1,-0.64,1.57542003E9
Raw,326493685,326560999000000,,,-1457982460431817712,0.08045387268066406,32.84471677034162,1.135411357122483,10.508299202868434,1373,5,0.0,783,136207297832776,86,20.6,-16.55584716796875,11.954999923706055,0,0.0,0.0,1.56109798E9,,,,0,,5,-0.13,1.56109798E9
Raw,326493685,326560999000000,,,-1457982460431817712,0.08045387268066406,32.84471677034162,1.135411357122483,10.508299202868434,1373,8,0.0,15,136207299881883,21,26.0,203.82298278808594,0.10970000177621841,0,0.0,0.0,1.56109798E9,,,,0,,5,-0.13,1.56109798E9
Raw,326493685,326560999000000,,,-1457982460431817712,0.08045387268066406,32.84471677034162,1.135411357122483,10.508299202868434,1373,13,0.0,15,136207301982446,19,27.2,141.0758514404297,0.04280000180006027,0,0.0,0.0,1.56109798E9,,,,0,,5,-0.13,1.56109798E9
Raw,326493686,326560999000000,,,-1457982460431817712,0.08045387268066406,32.84471677034162,1.135411357122483,10.508299202868434,1373,14,0.0,15,136207345312683,35,22.9,331.5273742675781,0.6240000128746033,0,0.0,0.0,1.56109798E9,,,,0,,5,-0.13,1.56109798E9
Raw,326493686,326560999000000,,,-1457982460431817712,0.08045387268066406,32.84471677034162,1.135411357122483,10.508299202868434,1373,28,0.0,15,136207353311955,19,27.0,390.9400634765625,0.06080000102519989,0,0.0,0.0,1.56109798E9,,,,0,,5,-0.13,1.56109798E9
Raw,326493686,326560999000000,,,-1457982460431817712,0.08045387268066406,32.84471677034162,1.135411357122483,10.508299202868434,1373,13,0.0,7183,136221352113877,12,32.4,-158.22911071777344,0.0479000024497509,0,0.0,0.0,1.57542003E9,,,,0,,6,-0.52,1.57542003E9
Raw,326493687,326560999000000,,,-1457982460431817712,0.08045387268066406,32.84471677034162,1.135411357122483,10.508299202868434,1373,15,0.0,7183,136221349498636,11,33.8,321.66900634765625,0.04840000346302986,0,0.0,0.0,1.57542003E9,,,,0,,6,-0.52,1.57542003E9
Raw,326493687,326560999000000,,,-1457982460431817712,0.08045387268066406,32.84471677034162,1.135411357122483,10.508299202868434,1373,21,0.0,7183,136221350382026,13,31.6,-63.377960205078125,0.05220000073313713,0,0.0,0.0,1.57542003E9,,,,0,,6,-0.52,1.57542003E9
Raw,326493687,326560999000000,,,-1457982460431817712,0.08045387268066406,32.84471677034162,1.135411357122483,10.508299202868434,1373,23,0.0,7183,136221340348484,31,23.3,-494.0404052734375,0.6004999876022339,0,0.0,0.0,1.57542003E9,,,,0,,6,-0.52,1.57542003E9
Raw,326493688,326560999000000,,,-1457982460431817712,0.08045387268066406,32.84471677034162,1.135411357122483,10.508299202868434,1373,26,0.0,7183,136221340589199,17,28.3,-474.7861022949219,0.05730000138282776,0,0.0,0.0,1.57542003E9,,,,0,,6,-0.52,1.57542003E9
Raw,326493688,326560999000000,,,-1457982460431817712,0.08045387268066406,32.84471677034162,1.135411357122483,10.508299202868434,1373,27,0.0,7183,136221347246885,61,18.7,457.06640625,0.875,0,0.0,0.0,1.57542003E9,,,,0,,6,-0.52,1.57542003E9
Fix,gps,45.064855,7.657477,297.187500,0.000000,3.216000,1774273805000
Raw,326494689,326561999000000,,,-1457982460431817714,0.5307331085205078,31.892061088001356,0.17180232191624537,9.589414222918663,1373,2,0.0,207,60604358302993,9,35.4,-35.621734619140625,0.24860000610351562,0,0.0,0.0,1.59975002E9,,,,0,,3,-1.42,1.59975002E9
Raw,326494691,326561999000000,,,-1457982460431817714,0.5307331085205078,31.892061088001356,0.17180232191624537,9.589414222918663,1373,18,0.0,207,60604365464850,17,28.4,91.28621673583984,0.24080000817775726,0,0.0,0.0,1.60031245E9,,,,0,,3,-1.42,1.60031245E9
Raw,326494692,326561999000000,,,-1457982460431817714,0.5307331085205078,31.892061088001356,0.17180232191624537,9.589414222918663,1373,9,0.0,207,60604360247962,13,31.8,-243.23654174804688,0.22519999742507935,0,0.0,0.0,1.60087501E9,,,,0,,3,-1.42,1.60087501E9
Raw,326494692,326561999000000,,,-1457982460431817714,0.5307331085205078,31.892061088001356,0.17180232191624537,9.589414222918663,1373,16,0.0,207,60604361645687,10,34.5,532.4736938476562,0.22360001504421234,0,0.0,0.0,1.60143744E9,,,,0,,3,-1.42,1.60143744E9
Raw,326494693,326561999000000,,,-1457982460431817714,0.5307331085205078,31.892061088001356,0.17180232191624537,9.589414222918663,1373,19,0.0,207,60604359432430,14,30.2,-459.9648742675781,0.25429999828338623,0,0.0,0.0,1.60368755E9,,,,0,,3,-1.42,1.60368755E9
Raw,326494693,326561999000000,,,-1457982460431817714,0.5307331085205078,31.892061088001356,0.17180232191624537,9.589414222918663,1373,3,0.0,207,60604356453412,126,13.1,-676.5640258789062,2.570500135421753,0,0.0,0.0,1.60481254E9,,,,0,,3,-1.42,1.60481254E9
Raw,326494693,326561999000000,,,-1457982460431817714,0.5307331085205078,31.892061088001356,0.17180232191624537,9.589414222918663,1373,2,0.0,15,136222355079002,61,18.9,-463.07012939453125,1.0190000534057617,0,0.0,0.0,1.57542003E9,,,,0,,1,-0.44,1.57542003E9
Raw,326494694,326561999000000,,,-1457982460431817714,0.5307331085205078,31.892061088001356,0.17180232191624537,9.589414222918663,1373,8,0.0,15,136222360615398,21,26.6,-391.8288269042969,0.1112000048160553,0,0.0,0.0,1.57542003E9,,,,0,,1,-0.44,1.57542003E9
Raw,326494694,326561999000000,,,-1457982460431817714,0.5307331085205078,31.892061088001356,0.17180232191624537,9.589414222918663,1373,10,0.0,15,136222360039006,21,26.8,-158.7169952392578,0.1112000048160553,0,0.0,0.0,1.57542003E9,,,,0,,1,-0.44,1.57542003E9
Raw,326494695,326561999000000,,,-1457982460431817714,0.5307331085205078,31.892061088001356,0.17180232191624537,9.589414222918663,1373,16,0.0,15,136222358592585,13,31.7,552.2339477539062,0.05220000073313713,0,0.0,0.0,1.57542003E9,,,,0,,1,-0.44,1.57542003E9
Raw,326494695,326561999000000,,,-1457982460431817714,0.5307331085205078,31.892061088001356,0.17180232191624537,9.589414222918663,1373,18,0.0,15,136222350492320,13,31.6,585.5897216796875,0.04020000249147415,0,0.0,0.0,1.57542003E9,,,,0,,1,-0.44,1.57542003E9
Raw,326494696,326561999000000,,,-1457982460431817714,0.5307331085205078,31.892061088001356,0.17180232191624537,9.589414222918663,1373,23,0.0,15,136222358541555,10,34.5,319.89166259765625,0.04910000041127205,0,0.0,0.0,1.57542003E9,,,,0,,1,-0.44,1.57542003E9
Raw,326494696,326561999000000,,,-1457982460431817714,0.5307331085205078,31.892061088001356,0.17180232191624537,9.589414222918663,1373,27,0.0,15,136222363937621,10,34.7,-13.563640594482422,0.026600001379847527,0,0.0,0.0,1.57542003E9,,,,0,,1,-0.44,1.57542003E9
Raw,326494696,326561999000000,,,-1457982460431817714,0.5307331085205078,31.892061088001356,0.17180232191624537,9.589414222918663,1373,8,0.0,15,136208299881193,24,25.9,204.05101013183594,0.38030001521110535,0,0.0,0.0,1.56109798E9,,,,0,,5,-0.05,1.56109798E9
Raw,326494697,326561999000000,,,-1457982460431817714,0.5307331085205078,31.892061088001356,0.17180232191624537,9.589414222918663,1373,13,0.0,15,136208301981969,24,25.0,141.10626220703125,0.3833000063896179,0,0.0,0.0,1.56109798E9,,,,0,,5,-0.05,1.56109798E9
Raw,326494697,326561999000000,,,-1457982460431817714,0.5307331085205078,31.892061088001356,0.17180232191624537,9.589414222918663,1373,14,0.0,15,136208345311557,35,22.5,331.2873229980469,0.6240000128746033,0,0.0,0.0,1.56109798E9,,,,0,,5,-0.05,1.56109798E9
Raw,326494697,326561999000000,,,-1457982460431817714,0.5307331085205078,31.892061088001356,0.17180232191624537,9.589414222918663,1373,28,0.0,15,136208353310665,16,29.6,390.92132568359375,0.04620000347495079,0,0.0,0.0,1.56109798E9,,,,0,,5,-0.05,1.56109798E9
Raw,326494697,326561999000000,,,-1457982460431817714,0.5307331085205078,31.892061088001356,0.17180232191624537,9.589414222918663,1373,13,0.0,7183,136222352114401,12,32.6,-158.15061950683594,0.0479000024497509,0,0.0,0.0,1.57542003E9,,,,0,,6,-0.41,1.57542003E9
Raw,326494698,326561999000000,,,-1457982460431817714,0.5307331085205078,31.892061088001356,0.17180232191624537,9.589414222918663,1373,15,0.0,7183,136222349497561,9,35.2,321.69378662109375,0.0471000038087368,0,0.0,0.0,1.57542003E9,,,,0,,6,-0.41,1.57542003E9
Raw,326494698,326561999000000,,,-1457982460431817714,0.5307331085205078,31.892061088001356,0.17180232191624537,9.589414222918663,1373,21,0.0,7183,136222350382244,12,32.0,-63.29204559326172,0.05090000107884407,0,0.0,0.0,1.57542003E9,,,,0,,6,-0.41,1.57542003E9
Raw,326494698,326561999000000,,,-1457982460431817714,0.5307331085205078,31.892061088001356,0.17180232191624537,9.589414222918663,1373,23,0.0,7183,136222340350125,35,22.8,-493.583740234375,0.640500009059906,0,0.0,0.0,1.57542003E9,,,,0,,6,-0.41,1.57542003E9
Raw,326494699,326561999000000,,,-1457982460431817714,0.5307331085205078,31.892061088001356,0.17180232191624537,9.589414222918663,1373,26,0.0,7183,136222340590808,21,26.9,-474.6871032714844,0.13520000874996185,0,0.0,0.0,1.57542003E9,,,,0,,6,-0.41,1.57542003E9
Raw,326494699,326561999000000,,,-1457982460431817714,0.5307331085205078,31.892061088001356,0.17180232191624537,9.589414222918663,1373,27,0.0,7183,136222347245364,35,22.5,457.5421142578125,0.6450000405311584,0,0.0,0.0,1.57542003E9,,,,0,,6,-0.41,1.57542003E9
Fix,gps,45.064855,7.657478,297.188904,0.000000,3.216000,1774273806000
Raw,326495680,326562999000000,,,-1457982460431817710,0.7030582427978516,34.315580705879256,0.06028662952884053,9.946670945304794,1373,2,0.0,207,60605358303072,9,35.2,-35.14556884765625,0.24860000610351562,0,0.0,0.0,1.59975002E9,,,,0,,3,-1.54,1.59975002E9
Raw,326495681,326562999000000,,,-1457982460431817710,0.7030582427978516,34.315580705879256,0.06028662952884053,9.946670945304794,1373,18,0.0,207,60605365464544,17,28.4,91.62698364257812,0.24080000817775726,0,0.0,0.0,1.60031245E9,,,,0,,3,-1.54,1.60031245E9
Raw,326495681,326562999000000,,,-1457982460431817710,0.7030582427978516,34.315580705879256,0.06028662952884053,9.946670945304794,1373,9,0.0,207,60605360248778,12,32.6,-242.83314514160156,0.22390000522136688,0,0.0,0.0,1.60087501E9,,,,0,,3,-1.54,1.60087501E9
Raw,326495682,326562999000000,,,-1457982460431817710,0.7030582427978516,34.315580705879256,0.06028662952884053,9.946670945304794,1373,16,0.0,207,60605361643886,10,34.7,532.8812866210938,0.22360001504421234,0,0.0,0.0,1.60143744E9,,,,0,,3,-1.54,1.60143744E9
Raw,326495682,326562999000000,,,-1457982460431817710,0.7030582427978516,34.315580705879256,0.06028662952884053,9.946670945304794,1373,19,0.0,207,60605359433974,14,30.0,-459.55511474609375,0.25429999828338623,0,0.0,0.0,1.60368755E9,,,,0,,3,-1.54,1.60368755E9
Raw,326495683,326562999000000,,,-1457982460431817710,0.7030582427978516,34.315580705879256,0.06028662952884053,9.946670945304794,1373,8,0.0,15,136223360616646,21,26.1,-391.68475341796875,0.1112000048160553,0,0.0,0.0,1.57542003E9,,,,0,,1,-0.47,1.57542003E9
Raw,326495683,326562999000000,,,-1457982460431817710,0.7030582427978516,34.315580705879256,0.06028662952884053,9.946670945304794,1373,10,0.0,15,136223360039572,19,27.0,-158.384765625,0.04130000248551369,0,0.0,0.0,1.57542003E9,,,,0,,1,-0.47,1.57542003E9
Raw,326495684,326562999000000,,,-1457982460431817710,0.7030582427978516,34.315580705879256,0.06028662952884053,9.946670945304794,1373,16,0.0,15,136223358590744,13,31.9,552.630615234375,0.05220000073313713,0,0.0,0.0,1.57542003E9,,,,0,,1,-0.47,1.57542003E9
Raw,326495684,326562999000000,,,-1457982460431817710,0.7030582427978516,34.315580705879256,0.06028662952884053,9.946670945304794,1373,18,0.0,15,136223350490366,13,31.1,585.8531494140625,0.04020000249147415,0,0.0,0.0,1.57542003E9,,,,0,,1,-0.47,1.57542003E9
Raw,326495685,326562999000000,,,-1457982460431817710,0.7030582427978516,34.315580705879256,0.06028662952884053,9.946670945304794,1373,23,0.0,15,136223358540505,10,34.8,320.2334899902344,0.04910000041127205,0,0.0,0.0,1.57542003E9,,,,0,,1,-0.47,1.57542003E9
Raw,326495685,326562999000000,,,-1457982460431817710,0.7030582427978516,34.315580705879256,0.06028662952884053,9.946670945304794,1373,26,0.0,15,136223349598666,487,21.1,702.7069702148438,0.9649999737739563,0,0.0,0.0,1.57542003E9,,,,0,,1,-0.47,1.57542003E9
Raw,326495686,326562999000000,,,-1457982460431817710,0.7030582427978516,34.315580705879256,0.06028662952884053,9.946670945304794,1373,27,0.0,15,136223363937655,9,35.4,-13.172883987426758,0.026100000366568565,0,0.0,0.0,1.57542003E9,,,,0,,1,-0.47,1.57542003E9
Raw,326495686,326562999000000,,,-1457982460431817710,0.7030582427978516,34.315580705879256,0.06028662952884053,9.946670945304794,1373,8,0.0,15,136209299880525,21,26.0,204.4429931640625,0.10970000177621841,0,0.0,0.0,1.56109798E9,,,,0,,5,-0.04,1.56109798E9
Raw,326495687,326562999000000,,,-1457982460431817710,0.7030582427978516,34.315580705879256,0.06028662952884053,9.946670945304794,1373,13,0.0,15,136209301981492,19,27.2,141.33860778808594,0.04280000180006027,0,0.0,0.0,1.56109798E9,,,,0,,5,-0.04,1.56109798E9
Raw,326495687,326562999000000,,,-1457982460431817710,0.7030582427978516,34.315580705879256,0.06028662952884053,9.946670945304794,1373,14,0.0,15,136209345310449,35,22.4,331.9210510253906,0.6240000128746033,0,0.0,0.0,1.56109798E9,,,,0,,5,-0.04,1.56109798E9
Raw,326495687,326562999000000,,,-1457982460431817710,0.7030582427978516,34.315580705879256,0.06028662952884053,9.946670945304794,1373,28,0.0,15,136209353309346,16,29.7,391.54931640625,0.38600000739097595,0,0.0,0.0,1.56109798E9,,,,0,,5,-0.04,1.56109798E9
Raw,326495688,326562999000000,,,-1457982460431817710,0.7030582427978516,34.315580705879256,0.06028662952884053,9.946670945304794,1373,13,0.0,7183,136223352114923,12,32.5,-157.77020263671875,0.0479000024497509,0,0.0,0.0,1.57542003E9,,,,0,,6,-0.37,1.57542003E9
Raw,326495688,326562999000000,,,-1457982460431817710,0.7030582427978516,34.315580705879256,0.06028662952884053,9.946670945304794,1373,15,0.0,7183,136223349496487,9,35.5,322.06842041015625,0.0471000038087368,0,0.0,0.0,1.57542003E9,,,,0,,6,-0.37,1.57542003E9
Raw,326495690,326562999000000,,,-1457982460431817710,0.7030582427978516,34.315580705879256,0.06028662952884053,9.946670945304794,1373,21,0.0,7183,136223350382453,12,32.4,-62.885738372802734,0.05090000107884407,0,0.0,0.0,1.57542003E9,,,,0,,6,-0.37,1.57542003E9
Raw,326495690,326562999000000,,,-1457982460431817710,0.7030582427978516,34.315580705879256,0.06028662952884053,9.946670945304794,1373,23,0.0,7183,136223340351773,27,24.3,-493.5171203613281,0.5504999756813049,0,0.0,0.0,1.57542003E9,,,,0,,6,-0.37,1.57542003E9
Raw,326495691,326562999000000,,,-1457982460431817710,0.7030582427978516,34.315580705879256,0.06028662952884053,9.946670945304794,1373,26,0.0,7183,136223340592382,19,27.5,-474.3470764160156,0.06530000269412994,0,0.0,0.0,1.57542003E9,,,,0,,6,-0.37,1.57542003E9
Raw,326495691,326562999000000,,,-1457982460431817710,0.7030582427978516,34.315580705879256,0.06028662952884053,9.946670945304794,1373,27,0.0,7183,136223347243816,40,21.4,458.46502685546875,0.6949999928474426,0,0.0,0.0,1.57542003E9,,,,0,,6,-0.37,1.57542003E9
Fix,gps,45.064855,7.657478,297.186646,0.000000,3.216000,1774273807000
Raw,326496663,326563999000000,,,-1457982460431817705,0.3522205352783203,35.96998067223467,0.9356663562253115,9.937607153092848,1373,2,0.0,207,60606358303211,9,35.1,-34.9369010925293,0.24860000610351562,0,0.0,0.0,1.59975002E9,,,,0,,3,-1.56,1.59975002E9
Raw,326496664,326563999000000,,,-1457982460431817705,0.3522205352783203,35.96998067223467,0.9356663562253115,9.937607153092848,1373,18,0.0,207,60606365464361,24,25.7,91.54998016357422,0.8240000009536743,0,0.0,0.0,1.60031245E9,,,,0,,3,-1.56,1.60031245E9
Raw,326496664,326563999000000,,,-1457982460431817705,0.3522205352783203,35.96998067223467,0.9356663562253115,9.937607153092848,1373,9,0.0,207,60606360249649,12,32.7,-242.67271423339844,0.22390000522136688,0,0.0,0.0,1.60087501E9,,,,0,,3,-1.56,1.60087501E9
Raw,326496664,326563999000000,,,-1457982460431817705,0.3522205352783203,35.96998067223467,0.9356663562253115,9.937607153092848,1373,16,0.0,207,60606361642145,10,34.8,533.0230712890625,0.22360001504421234,0,0.0,0.0,1.60143744E9,,,,0,,3,-1.56,1.60143744E9
Raw,326496664,326563999000000,,,-1457982460431817705,0.3522205352783203,35.96998067223467,0.9356663562253115,9.937607153092848,1373,19,0.0,207,60606359435506,14,30.3,-459.4642028808594,0.25429999828338623,0,0.0,0.0,1.60368755E9,,,,0,,3,-1.56,1.60368755E9
Raw,326496665,326563999000000,,,-1457982460431817705,0.3522205352783203,35.96998067223467,0.9356663562253115,9.937607153092848,1373,3,0.0,207,60606356457916,84,16.2,-675.3590698242188,2.2304999828338623,0,0.0,0.0,1.60481254E9,,,,0,,3,-1.56,1.60481254E9
Raw,326496665,326563999000000,,,-1457982460431817705,0.3522205352783203,35.96998067223467,0.9356663562253115,9.937607153092848,1373,2,0.0,15,136224355081952,64,18.2,-463.93597412109375,1.8489999771118164,0,0.0,0.0,1.57542003E9,,,,0,,1,-0.55,1.57542003E9
Raw,326496665,326563999000000,,,-1457982460431817705,0.3522205352783203,35.96998067223467,0.9356663562253115,9.937607153092848,1373,8,0.0,15,136224360618058,27,24.8,-391.0439758300781,0.6165000200271606,0,0.0,0.0,1.57542003E9,,,,0,,1,-0.55,1.57542003E9
Raw,326496665,326563999000000,,,-1457982460431817705,0.3522205352783203,35.96998067223467,0.9356663562253115,9.937607153092848,1373,10,0.0,15,136224360040090,19,27.7,-158.07418823242188,0.04130000248551369,0,0.0,0.0,1.57542003E9,,,,0,,1,-0.55,1.57542003E9
Raw,326496666,326563999000000,,,-1457982460431817705,0.3522205352783203,35.96998067223467,0.9356663562253115,9.937607153092848,1373,16,0.0,15,136224358588891,12,32.6,552.7119140625,0.05090000107884407,0,0.0,0.0,1.57542003E9,,,,0,,1,-0.55,1.57542003E9
Raw,326496666,326563999000000,,,-1457982460431817705,0.3522205352783203,35.96998067223467,0.9356663562253115,9.937607153092848,1373,18,0.0,15,136224350488387,13,31.4,585.8591918945312,0.04020000249147415,0,0.0,0.0,1.57542003E9,,,,0,,1,-0.55,1.57542003E9
Raw,326496666,326563999000000,,,-1457982460431817705,0.3522205352783203,35.96998067223467,0.9356663562253115,9.937607153092848,1373,23,0.0,15,136224358539452,11,33.9,320.3735046386719,0.04990000277757645,0,0.0,0.0,1.57542003E9,,,,0,,1,-0.55,1.57542003E9
Raw,326496667,326563999000000,,,-1457982460431817705,0.3522205352783203,35.96998067223467,0.9356663562253115,9.937607153092848,1373,26,0.0,15,136224349596327,650,19.3,702.5071411132812,1.8650000095367432,0,0.0,0.0,1.57542003E9,,,,0,,1,-0.55,1.57542003E9
Raw,326496667,326563999000000,,,-1457982460431817705,0.3522205352783203,35.96998067223467,0.9356663562253115,9.937607153092848,1373,27,0.0,15,136224363937680,9,35.6,-13.047718048095703,0.026100000366568565,0,0.0,0.0,1.57542003E9,,,,0,,1,-0.55,1.57542003E9
Raw,326496667,326563999000000,,,-1457982460431817705,0.3522205352783203,35.96998067223467,0.9356663562253115,9.937607153092848,1373,5,0.0,783,136210297832905,125,20.8,-13.596396446228027,23.349498748779297,0,0.0,0.0,1.56109798E9,,,,0,,5,-0.13,1.56109798E9
Raw,326496667,326563999000000,,,-1457982460431817705,0.3522205352783203,35.96998067223467,0.9356663562253115,9.937607153092848,1373,8,0.0,15,136210299879811,21,26.4,204.33656311035156,0.10970000177621841,0,0.0,0.0,1.56109798E9,,,,0,,5,-0.13,1.56109798E9
Raw,326496668,326563999000000,,,-1457982460431817705,0.3522205352783203,35.96998067223467,0.9356663562253115,9.937607153092848,1373,13,0.0,15,136210301981022,21,26.1,141.4619903564453,0.11270000040531158,0,0.0,0.0,1.56109798E9,,,,0,,5,-0.13,1.56109798E9
Raw,326496668,326563999000000,,,-1457982460431817705,0.3522205352783203,35.96998067223467,0.9356663562253115,9.937607153092848,1373,14,0.0,15,136210345309377,35,22.2,332.718017578125,0.6240000128746033,0,0.0,0.0,1.56109798E9,,,,0,,5,-0.13,1.56109798E9
Raw,326496668,326563999000000,,,-1457982460431817705,0.3522205352783203,35.96998067223467,0.9356663562253115,9.937607153092848,1373,28,0.0,15,136210353308047,14,30.0,391.341064453125,0.04530000314116478,0,0.0,0.0,1.56109798E9,,,,0,,5,-0.13,1.56109798E9
Raw,326496669,326563999000000,,,-1457982460431817705,0.3522205352783203,35.96998067223467,0.9356663562253115,9.937607153092848,1373,13,0.0,7183,136224352115457,13,31.6,-157.78439331054688,0.04920000210404396,0,0.0,0.0,1.57542003E9,,,,0,,6,-0.48,1.57542003E9
Raw,326496669,326563999000000,,,-1457982460431817705,0.3522205352783203,35.96998067223467,0.9356663562253115,9.937607153092848,1373,15,0.0,7183,136224349495416,9,35.5,322.048095703125,0.0471000038087368,0,0.0,0.0,1.57542003E9,,,,0,,6,-0.48,1.57542003E9
Raw,326496669,326563999000000,,,-1457982460431817705,0.3522205352783203,35.96998067223467,0.9356663562253115,9.937607153092848,1373,21,0.0,7183,136224350382681,12,32.0,-62.840667724609375,0.05090000107884407,0,0.0,0.0,1.57542003E9,,,,0,,6,-0.48,1.57542003E9
Raw,326496669,326563999000000,,,-1457982460431817705,0.3522205352783203,35.96998067223467,0.9356663562253115,9.937607153092848,1373,23,0.0,7183,136224340353465,35,22.7,-493.3173522949219,0.640500009059906,0,0.0,0.0,1.57542003E9,,,,0,,6,-0.48,1.57542003E9
Raw,326496670,326563999000000,,,-1457982460431817705,0.3522205352783203,35.96998067223467,0.9356663562253115,9.937607153092848,1373,26,0.0,7183,136224340593943,21,26.2,-474.4058837890625,0.13520000874996185,0,0.0,0.0,1.57542003E9,,,,0,,6,-0.48,1.57542003E9
Raw,326496670,326563999000000,,,-1457982460431817705,0.3522205352783203,35.96998067223467,0.9356663562253115,9.937607153092848,1373,27,0.0,7183,136224347242298,35,22.3,458.2081604003906,0.6450000405311584,0,0.0,0.0,1.57542003E9,,,,0,,6,-0.48,1.57542003E9
Fix,gps,45.064855,7.657478,297.186646,0.000000,3.216000,1774273808000
Raw,326497667,326564999000000,,,-1457982460431817705,0.3820228576660156,33.99679553695023,0.7928913492783719,9.943947115496432,1373,2,0.0,207,60607358303370,11,33.8,-35.018733978271484,0.24990001320838928,0,0.0,0.0,1.59975002E9,,,,0,,3,-1.47,1.59975002E9
Raw,326497667,326564999000000,,,-1457982460431817705,0.3820228576660156,33.99679553695023,0.7928913492783719,9.943947115496432,1373,18,0.0,207,60607365464019,31,23.9,91.53125,0.9339999556541443,0,0.0,0.0,1.60031245E9,,,,0,,3,-1.47,1.60031245E9
Raw,326497668,326564999000000,,,-1457982460431817705,0.3820228576660156,33.99679553695023,0.7928913492783719,9.943947115496432,1373,9,0.0,207,60607360250454,12,32.1,-242.7391357421875,0.22390000522136688,0,0.0,0.0,1.60087501E9,,,,0,,3,-1.47,1.60087501E9
Raw,326497669,326564999000000,,,-1457982460431817705,0.3820228576660156,33.99679553695023,0.7928913492783719,9.943947115496432,1373,16,0.0,207,60607361640336,10,34.6,532.9344482421875,0.22360001504421234,0,0.0,0.0,1.60143744E9,,,,0,,3,-1.47,1.60143744E9
Raw,326497669,326564999000000,,,-1457982460431817705,0.3820228576660156,33.99679553695023,0.7928913492783719,9.943947115496432,1373,19,0.0,207,60607359437075,14,30.3,-459.7090148925781,0.25429999828338623,0,0.0,0.0,1.60368755E9,,,,0,,3,-1.47,1.60368755E9
Raw,326497670,326564999000000,,,-1457982460431817705,0.3820228576660156,33.99679553695023,0.7928913492783719,9.943947115496432,1373,3,0.0,207,60607356459979,40,21.2,-675.9849243164062,1.0705000162124634,0,0.0,0.0,1.60481254E9,,,,0,,3,-1.47,1.60481254E9
Raw,326497670,326564999000000,,,-1457982460431817705,0.3820228576660156,33.99679553695023,0.7928913492783719,9.943947115496432,1373,2,0.0,15,136225355083568,61,18.9,-463.1272277832031,1.0190000534057617,0,0.0,0.0,1.57542003E9,,,,0,,1,-0.47,1.57542003E9
Raw,326497670,326564999000000,,,-1457982460431817705,0.3820228576660156,33.99679553695023,0.7928913492783719,9.943947115496432,1373,10,0.0,15,136225360040649,27,24.8,-158.50511169433594,0.6165000200271606,0,0.0,0.0,1.57542003E9,,,,0,,1,-0.47,1.57542003E9
Raw,326497671,326564999000000,,,-1457982460431817705,0.3820228576660156,33.99679553695023,0.7928913492783719,9.943947115496432,1373,16,0.0,15,136225358587020,13,31.3,552.558349609375,0.05220000073313713,0,0.0,0.0,1.57542003E9,,,,0,,1,-0.47,1.57542003E9
Raw,326497671,326564999000000,,,-1457982460431817705,0.3820228576660156,33.99679553695023,0.7928913492783719,9.943947115496432,1373,18,0.0,15,136225350486394,12,32.8,585.7011108398438,0.03890000283718109,0,0.0,0.0,1.57542003E9,,,,0,,1,-0.47,1.57542003E9
Raw,326497672,326564999000000,,,-1457982460431817705,0.3820228576660156,33.99679553695023,0.7928913492783719,9.943947115496432,1373,23,0.0,15,136225358538384,9,35.1,320.2938537597656,0.048600003123283386,0,0.0,0.0,1.57542003E9,,,,0,,1,-0.47,1.57542003E9
Raw,326497672,326564999000000,,,-1457982460431817705,0.3820228576660156,33.99679553695023,0.7928913492783719,9.943947115496432,1373,27,0.0,15,136225363937722,8,36.6,-13.210352897644043,0.025700001046061516,0,0.0,0.0,1.57542003E9,,,,0,,1,-0.47,1.57542003E9
