# 
# Header Description:
# 
# Version: v2.0.0.1 Platform: 10 Manufacturer: Xiaomi Model: Redmi Note 7
# 
# Raw,ElapsedRealtimeMillis,TimeNanos,LeapSecond,TimeUncertaintyNanos,FullBiasNanos,BiasNanos,BiasUncertaintyNanos,DriftNanosPerSecond,DriftUncertaintyNanosPerSecond,HardwareClockDiscontinuityCount,Svid,TimeOffsetNanos,State,ReceivedSvTimeNanos,ReceivedSvTimeUncertaintyNanos,Cn0DbHz,PseudorangeRateMetersPerSecond,PseudorangeRateUncertaintyMetersPerSecond,AccumulatedDeltaRangeState,AccumulatedDeltaRangeMeters,AccumulatedDeltaRangeUncertaintyMeters,CarrierFrequencyHz,CarrierCycles,CarrierPhase,CarrierPhaseUncertainty,MultipathIndicator,SnrInDb,ConstellationType,AgcDb,CarrierFrequencyHz
# 
# Fix,Provider,Latitude,Longitude,Altitude,Speed,Accuracy,(UTC)TimeInMs
# 
# Nav,Svid,Type,Status,MessageId,Sub-messageId,Data(Bytes)
# 
Fix,gps,45.064498,7.657325,294.718628,0.000000,3.216000,1774275396000
Raw,328085688,328152999000000,,,-1457982460431822609,0.6780948638916016,44.4341276306659,46.2835165139579,11.05219433428116,1432,2,0.0,207,62195357790450,24,25.1,242.42291259765625,0.6072999835014343,0,0.0,0.0,1.59975002E9,,,,0,,3,-0.96,1.59975002E9
Raw,328085689,328152999000000,,,-1457982460431822609,0.6780948638916016,44.4341276306659,46.2835165139579,11.05219433428116,1432,18,0.0,207,62195364708561,40,21.4,207.6032257080078,1.0525000095367432,0,0.0,0.0,1.60031245E9,,,,0,,3,-0.96,1.60031245E9
Raw,328085689,328152999000000,,,-1457982460431822609,0.6780948638916016,44.4341276306659,46.2835165139579,11.05219433428116,1432,9,0.0,207,62195360842831,11,33.8,36.41836166381836,0.22290000319480896,0,0.0,0.0,1.60087501E9,,,,0,,3,-0.96,1.60087501E9
Raw,328085690,328152999000000,,,-1457982460431822609,0.6780948638916016,44.4341276306659,46.2835165139579,11.05219433428116,1432,16,0.0,207,62195358342415,9,35.2,715.1163330078125,0.24860000610351562,0,0.0,0.0,1.60143744E9,,,,0,,3,-0.96,1.60143744E9
Raw,328085690,328152999000000,,,-1457982460431822609,0.6780948638916016,44.4341276306659,46.2835165139579,11.05219433428116,1432,19,0.0,207,62195361674890,13,31.6,-368.9305419921875,0.22670000791549683,0,0.0,0.0,1.60368755E9,,,,0,,3,-0.96,1.60368755E9
Raw,328085690,328152999000000,,,-1457982460431822609,0.6780948638916016,44.4341276306659,46.2835165139579,11.05219433428116,1432,2,0.0,15,137813357334981,7,37.8,-370.0235290527344,0.04610000178217888,0,0.0,0.0,1.57542003E9,,,,0,,1,0.54,1.57542003E9
Raw,328085691,328152999000000,,,-1457982460431822609,0.6780948638916016,44.4341276306659,46.2835165139579,11.05219433428116,1432,8,0.0,15,137813362402250,8,36.2,-261.45184326171875,0.02420000173151493,0,0.0,0.0,1.57542003E9,,,,0,,1,0.54,1.57542003E9
Raw,328085691,328152999000000,,,-1457982460431822609,0.6780948638916016,44.4341276306659,46.2835165139579,11.05219433428116,1432,10,0.0,15,137813360385868,24,25.8,43.097068786621094,0.38179999589920044,0,0.0,0.0,1.57542003E9,,,,0,,1,0.54,1.57542003E9
Raw,328085692,328152999000000,,,-1457982460431822609,0.6780948638916016,44.4341276306659,46.2835165139579,11.05219433428116,1432,16,0.0,15,137813355366346,12,32.1,670.9622192382812,0.046400003135204315,0,0.0,0.0,1.57542003E9,,,,0,,1,0.54,1.57542003E9
Raw,328085692,328152999000000,,,-1457982460431822609,0.6780948638916016,44.4341276306659,46.2835165139579,11.05219433428116,1432,23,0.0,15,137813356429109,17,28.4,484.7012939453125,0.05730000138282776,0,0.0,0.0,1.57542003E9,,,,0,,1,0.54,1.57542003E9
Raw,328085692,328152999000000,,,-1457982460431822609,0.6780948638916016,44.4341276306659,46.2835165139579,11.05219433428116,1432,27,0.0,15,137813363612564,12,32.0,152.2733612060547,0.0284000001847744,0,0.0,0.0,1.57542003E9,,,,0,,1,0.54,1.57542003E9
Raw,328085693,328152999000000,,,-1457982460431822609,0.6780948638916016,44.4341276306659,46.2835165139579,11.05219433428116,1432,8,0.0,15,137799298721310,40,21.5,246.2234344482422,0.6934999823570251,0,0.0,0.0,1.56109798E9,,,,0,,5,0.16,1.56109798E9
Raw,328085693,328152999000000,,,-1457982460431822609,0.6780948638916016,44.4341276306659,46.2835165139579,11.05219433428116,1432,13,0.0,15,137799301144433,21,26.7,187.93626403808594,0.11270000040531158,0,0.0,0.0,1.56109798E9,,,,0,,5,0.16,1.56109798E9
Raw,328085694,328152999000000,,,-1457982460431822609,0.6780948638916016,44.4341276306659,46.2835165139579,11.05219433428116,1432,13,0.0,7183,137813352730375,21,26.7,-59.942405700683594,0.13520000874996185,0,0.0,0.0,1.57542003E9,,,,0,,6,0.55,1.57542003E9
Raw,328085694,328152999000000,,,-1457982460431822609,0.6780948638916016,44.4341276306659,46.2835165139579,11.05219433428116,1432,15,0.0,7183,137813347668867,21,26.5,379.9056396484375,0.13369999825954437,0,0.0,0.0,1.57542003E9,,,,0,,6,0.55,1.57542003E9
Raw,328085694,328152999000000,,,-1457982460431822609,0.6780948638916016,44.4341276306659,46.2835165139579,11.05219433428116,1432,21,0.0,7183,137813350351653,14,30.2,91.16169738769531,0.052800003439188004,0,0.0,0.0,1.57542003E9,,,,0,,6,0.55,1.57542003E9
Raw,328085694,328152999000000,,,-1457982460431822609,0.6780948638916016,44.4341276306659,46.2835165139579,11.05219433428116,1432,23,0.0,7183,137813342788364,13,31.9,-404.9818115234375,0.05220000073313713,0,0.0,0.0,1.57542003E9,,,,0,,6,0.55,1.57542003E9
Raw,328085695,328152999000000,,,-1457982460431822609,0.6780948638916016,44.4341276306659,46.2835165139579,11.05219433428116,1432,26,0.0,7183,137813343000377,16,29.2,-417.1507263183594,0.0552000030875206,0,0.0,0.0,1.57542003E9,,,,0,,6,0.55,1.57542003E9
Raw,328085695,328152999000000,,,-1457982460431822609,0.6780948638916016,44.4341276306659,46.2835165139579,11.05219433428116,1432,27,0.0,7183,137813344601714,19,27.9,549.9140014648438,0.06530000269412994,0,0.0,0.0,1.57542003E9,,,,0,,6,0.55,1.57542003E9
Raw,328086697,328153999000000,,,-1457982460431822562,0.21442127227783203,45.9181574115064,44.717195877611445,10.01729885813718,1432,18,0.0,207,62196364708217,21,26.9,206.97604370117188,0.3172000050544739,0,0.0,0.0,1.60031245E9,,,,0,,3,-0.94,1.60031245E9
Raw,328086697,328153999000000,,,-1457982460431822562,0.21442127227783203,45.9181574115064,44.717195877611445,10.01729885813718,1432,9,0.0,207,62196360842666,11,33.8,36.55159378051758,0.22290000319480896,0,0.0,0.0,1.60087501E9,,,,0,,3,-0.94,1.60087501E9
Raw,328086698,328153999000000,,,-1457982460431822562,0.21442127227783203,45.9181574115064,44.717195877611445,10.01729885813718,1432,16,0.0,207,62196358340030,12,32.5,715.2109985351562,0.250900000333786,0,0.0,0.0,1.60143744E9,,,,0,,3,-0.94,1.60143744E9
Raw,328086698,328153999000000,,,-1457982460431822562,0.21442127227783203,45.9181574115064,44.717195877611445,10.01729885813718,1432,19,0.0,207,62196361676105,10,34.3,-368.865966796875,0.22360001504421234,0,0.0,0.0,1.60368755E9,,,,0,,3,-0.94,1.60368755E9
Raw,328086698,328153999000000,,,-1457982460431822562,0.21442127227783203,45.9181574115064,44.717195877611445,10.01729885813718,1432,3,0.0,207,62196359666425,84,16.5,-505.1205749511719,2.2350001335144043,0,0.0,0.0,1.60481254E9,,,,0,,3,-0.94,1.60481254E9
Raw,328086699,328153999000000,,,-1457982460431822562,0.21442127227783203,45.9181574115064,44.717195877611445,10.01729885813718,1432,2,0.0,15,137814357336206,9,35.3,-369.9561767578125,0.0471000038087368,0,0.0,0.0,1.57542003E9,,,,0,,1,0.56,1.57542003E9
Raw,328086699,328153999000000,,,-1457982460431822562,0.21442127227783203,45.9181574115064,44.717195877611445,10.01729885813718,1432,8,0.0,15,137814362403117,13,31.9,-261.41278076171875,0.028200000524520874,0,0.0,0.0,1.57542003E9,,,,0,,1,0.56,1.57542003E9
Raw,328086699,328153999000000,,,-1457982460431822562,0.21442127227783203,45.9181574115064,44.717195877611445,10.01729885813718,1432,10,0.0,15,137814360385736,27,24.4,43.082489013671875,0.6664999723434448,0,0.0,0.0,1.57542003E9,,,,0,,1,0.56,1.57542003E9
Raw,328086700,328153999000000,,,-1457982460431822562,0.21442127227783203,45.9181574115064,44.717195877611445,10.01729885813718,1432,16,0.0,15,137814355364093,17,28.3,670.9463500976562,0.055800002068281174,0,0.0,0.0,1.57542003E9,,,,0,,1,0.56,1.57542003E9
Raw,328086700,328153999000000,,,-1457982460431822562,0.21442127227783203,45.9181574115064,44.717195877611445,10.01729885813718,1432,23,0.0,15,137814356427471,21,26.6,484.74163818359375,0.13520000874996185,0,0.0,0.0,1.57542003E9,,,,0,,1,0.56,1.57542003E9
Raw,328086700,328153999000000,,,-1457982460431822562,0.21442127227783203,45.9181574115064,44.717195877611445,10.01729885813718,1432,27,0.0,15,137814363612057,12,32.7,152.34461975097656,0.0284000001847744,0,0.0,0.0,1.57542003E9,,,,0,,1,0.56,1.57542003E9
Raw,328086701,328153999000000,,,-1457982460431822562,0.21442127227783203,45.9181574115064,44.717195877611445,10.01729885813718,1432,8,0.0,15,137800298720512,19,27.0,246.45474243164062,0.06830000132322311,0,0.0,0.0,1.56109798E9,,,,0,,5,0.33,1.56109798E9
Raw,328086701,328153999000000,,,-1457982460431822562,0.21442127227783203,45.9181574115064,44.717195877611445,10.01729885813718,1432,13,0.0,15,137800301143780,19,27.4,188.03025817871094,0.04280000180006027,0,0.0,0.0,1.56109798E9,,,,0,,5,0.33,1.56109798E9
Raw,328086701,328153999000000,,,-1457982460431822562,0.21442127227783203,45.9181574115064,44.717195877611445,10.01729885813718,1432,13,0.0,7183,137814352730552,21,26.3,-59.962890625,0.13520000874996185,0,0.0,0.0,1.57542003E9,,,,0,,6,0.58,1.57542003E9
Raw,328086702,328153999000000,,,-1457982460431822562,0.21442127227783203,45.9181574115064,44.717195877611445,10.01729885813718,1432,15,0.0,7183,137814347667596,17,28.0,379.74200439453125,0.055800002068281174,0,0.0,0.0,1.57542003E9,,,,0,,6,0.58,1.57542003E9
Raw,328086702,328153999000000,,,-1457982460431822562,0.21442127227783203,45.9181574115064,44.717195877611445,10.01729885813718,1432,21,0.0,7183,137814350351328,19,27.7,91.17417907714844,0.06830000132322311,0,0.0,0.0,1.57542003E9,,,,0,,6,0.58,1.57542003E9
Raw,328086703,328153999000000,,,-1457982460431822562,0.21442127227783203,45.9181574115064,44.717195877611445,10.01729885813718,1432,23,0.0,7183,137814342789809,11,33.1,-405.0509338378906,0.04990000277757645,0,0.0,0.0,1.57542003E9,,,,0,,6,0.58,1.57542003E9
Raw,328086704,328153999000000,,,-1457982460431822562,0.21442127227783203,45.9181574115064,44.717195877611445,10.01729885813718,1432,26,0.0,7183,137814343001743,19,27.2,-417.1726379394531,0.06980000436306,0,0.0,0.0,1.57542003E9,,,,0,,6,0.58,1.57542003E9
Raw,328086704,328153999000000,,,-1457982460431822562,0.21442127227783203,45.9181574115064,44.717195877611445,10.01729885813718,1432,27,0.0,7183,137814344599854,21,26.6,549.8764038085938,0.13520000874996185,0,0.0,0.0,1.57542003E9,,,,0,,6,0.58,1.57542003E9
Fix,gps,45.064498,7.657325,294.733215,0.000000,3.216000,1774275397000
Fix,gps,45.064497,7.657325,294.752075,0.000000,3.216000,1774275398000
Raw,328087666,328154999000000,,,-1457982460431822514,0.6133928298950195,49.0069214720279,44.301169644224316,11.68169009204512,1432,2,0.0,207,62197357788753,110,14.4,240.70538330078125,2.452000141143799,0,0.0,0.0,1.59975002E9,,,,0,,3,-0.87,1.59975002E9
Raw,328087667,328154999000000,,,-1457982460431822514,0.6133928298950195,49.0069214720279,44.301169644224316,11.68169009204512,1432,18,0.0,207,62197364707466,21,26.2,206.27215576171875,0.3172000050544739,0,0.0,0.0,1.60031245E9,,,,0,,3,-0.87,1.60031245E9
Raw,328087667,328154999000000,,,-1457982460431822514,0.6133928298950195,49.0069214720279,44.301169644224316,11.68169009204512,1432,9,0.0,207,62197360842527,14,30.9,35.88297653198242,0.22579999268054962,0,0.0,0.0,1.60087501E9,,,,0,,3,-0.87,1.60087501E9
Raw,328087667,328154999000000,,,-1457982460431822514,0.6133928298950195,49.0069214720279,44.301169644224316,11.68169009204512,1432,16,0.0,207,62197358337649,12,32.0,714.5257568359375,0.250900000333786,0,0.0,0.0,1.60143744E9,,,,0,,3,-0.87,1.60143744E9
Raw,328087668,328154999000000,,,-1457982460431822514,0.6133928298950195,49.0069214720279,44.301169644224316,11.68169009204512,1432,19,0.0,207,62197361677328,12,32.9,-369.6592102050781,0.22540001571178436,0,0.0,0.0,1.60368755E9,,,,0,,3,-0.87,1.60368755E9
Raw,328087668,328154999000000,,,-1457982460431822514,0.6133928298950195,49.0069214720279,44.301169644224316,11.68169009204512,1432,3,0.0,207,62197359668277,53,19.8,-507.6051330566406,1.225000023841858,0,0.0,0.0,1.60481254E9,,,,0,,3,-0.87,1.60481254E9
Raw,328087668,328154999000000,,,-1457982460431822514,0.6133928298950195,49.0069214720279,44.301169644224316,11.68169009204512,1432,2,0.0,15,137815357337442,12,32.9,-370.7200927734375,0.049400001764297485,0,0.0,0.0,1.57542003E9,,,,0,,1,0.41,1.57542003E9
Raw,328087668,328154999000000,,,-1457982460431822514,0.6133928298950195,49.0069214720279,44.301169644224316,11.68169009204512,1432,8,0.0,15,137815362404004,17,28.6,-262.11163330078125,0.03629999980330467,0,0.0,0.0,1.57542003E9,,,,0,,1,0.41,1.57542003E9
Raw,328087669,328154999000000,,,-1457982460431822514,0.6133928298950195,49.0069214720279,44.301169644224316,11.68169009204512,1432,10,0.0,15,137815360385601,19,27.4,42.452266693115234,0.04130000248551369,0,0.0,0.0,1.57542003E9,,,,0,,1,0.41,1.57542003E9
Raw,328087669,328154999000000,,,-1457982460431822514,0.6133928298950195,49.0069214720279,44.301169644224316,11.68169009204512,1432,16,0.0,15,137815355361880,17,28.7,670.247314453125,0.055800002068281174,0,0.0,0.0,1.57542003E9,,,,0,,1,0.41,1.57542003E9
Raw,328087669,328154999000000,,,-1457982460431822514,0.6133928298950195,49.0069214720279,44.301169644224316,11.68169009204512,1432,23,0.0,15,137815356425884,31,23.6,483.8882751464844,0.6904999613761902,0,0.0,0.0,1.57542003E9,,,,0,,1,0.41,1.57542003E9
Raw,328087669,328154999000000,,,-1457982460431822514,0.6133928298950195,49.0069214720279,44.301169644224316,11.68169009204512,1432,27,0.0,15,137815363611518,11,33.3,151.66104125976562,0.027400000020861626,0,0.0,0.0,1.57542003E9,,,,0,,1,0.41,1.57542003E9
Raw,328087670,328154999000000,,,-1457982460431822514,0.6133928298950195,49.0069214720279,44.301169644224316,11.68169009204512,1432,8,0.0,15,137801298719662,40,21.0,246.06021118164062,0.6934999823570251,0,0.0,0.0,1.56109798E9,,,,0,,5,0.27,1.56109798E9
Raw,328087670,328154999000000,,,-1457982460431822514,0.6133928298950195,49.0069214720279,44.301169644224316,11.68169009204512,1432,13,0.0,15,137801301143126,35,22.2,187.67059326171875,0.6180000305175781,0,0.0,0.0,1.56109798E9,,,,0,,5,0.27,1.56109798E9
Raw,328087670,328154999000000,,,-1457982460431822514,0.6133928298950195,49.0069214720279,44.301169644224316,11.68169009204512,1432,13,0.0,7183,137815352730767,24,25.5,-60.643367767333984,0.4058000147342682,0,0.0,0.0,1.57542003E9,,,,0,,6,0.46,1.57542003E9
Raw,328087671,328154999000000,,,-1457982460431822514,0.6133928298950195,49.0069214720279,44.301169644224316,11.68169009204512,1432,15,0.0,7183,137815347666335,19,27.4,379.0682373046875,0.06379999965429306,0,0.0,0.0,1.57542003E9,,,,0,,6,0.46,1.57542003E9
Raw,328087671,328154999000000,,,-1457982460431822514,0.6133928298950195,49.0069214720279,44.301169644224316,11.68169009204512,1432,21,0.0,7183,137815350351020,16,29.9,90.57625579833984,0.053700003772974014,0,0.0,0.0,1.57542003E9,,,,0,,6,0.46,1.57542003E9
Raw,328087671,328154999000000,,,-1457982460431822514,0.6133928298950195,49.0069214720279,44.301169644224316,11.68169009204512,1432,23,0.0,7183,137815342791135,10,34.0,-405.6404113769531,0.04910000041127205,0,0.0,0.0,1.57542003E9,,,,0,,6,0.46,1.57542003E9
Raw,328087671,328154999000000,,,-1457982460431822514,0.6133928298950195,49.0069214720279,44.301169644224316,11.68169009204512,1432,26,0.0,7183,137815343003168,21,26.0,-417.9177551269531,0.1397000104188919,0,0.0,0.0,1.57542003E9,,,,0,,6,0.46,1.57542003E9
Raw,328087672,328154999000000,,,-1457982460431822514,0.6133928298950195,49.0069214720279,44.301169644224316,11.68169009204512,1432,27,0.0,7183,137815344598039,46,20.0,549.57763671875,0.750499963760376,0,0.0,0.0,1.57542003E9,,,,0,,6,0.46,1.57542003E9
Fix,gps,45.064497,7.657325,294.764099,0.000000,3.216000,1774275399000
Raw,328088689,328155999000000,,,-1457982460431822469,0.3466787338256836,43.3920395153109,42.13890844751661,9.831996517454542,1432,2,0.0,207,62198357787772,70,17.0,242.20458984375,1.3920000791549683,0,0.0,0.0,1.59975002E9,,,,0,,3,-0.67,1.59975002E9
Raw,328088689,328155999000000,,,-1457982460431822469,0.3466787338256836,43.3920395153109,42.13890844751661,9.831996517454542,1432,18,0.0,207,62198364706810,31,23.7,205.5425567626953,0.9324999451637268,0,0.0,0.0,1.60031245E9,,,,0,,3,-0.67,1.60031245E9
Raw,328088690,328155999000000,,,-1457982460431822469,0.3466787338256836,43.3920395153109,42.13890844751661,9.831996517454542,1432,9,0.0,207,62198360842454,13,31.6,35.39430236816406,0.22519999742507935,0,0.0,0.0,1.60087501E9,,,,0,,3,-0.67,1.60087501E9
Raw,328088691,328155999000000,,,-1457982460431822469,0.3466787338256836,43.3920395153109,42.13890844751661,9.831996517454542,1432,16,0.0,207,62198358335285,11,33.5,713.9117431640625,0.24990001320838928,0,0.0,0.0,1.60143744E9,,,,0,,3,-0.67,1.60143744E9
Raw,328088692,328155999000000,,,-1457982460431822469,0.3466787338256836,43.3920395153109,42.13890844751661,9.831996517454542,1432,19,0.0,207,62198361678580,12,32.0,-370.32061767578125,0.22540001571178436,0,0.0,0.0,1.60368755E9,,,,0,,3,-0.67,1.60368755E9
Raw,328088693,328155999000000,,,-1457982460431822469,0.3466787338256836,43.3920395153109,42.13890844751661,9.831996517454542,1432,3,0.0,207,62198359670173,53,19.0,-507.110107421875,1.225000023841858,0,0.0,0.0,1.60481254E9,,,,0,,3,-0.67,1.60481254E9
Raw,328088693,328155999000000,,,-1457982460431822469,0.3466787338256836,43.3920395153109,42.13890844751661,9.831996517454542,1432,2,0.0,15,137816357338694,13,31.5,-371.3343200683594,0.050700001418590546,0,0.0,0.0,1.57542003E9,,,,0,,1,0.64,1.57542003E9
Raw,328088694,328155999000000,,,-1457982460431822469,0.3466787338256836,43.3920395153109,42.13890844751661,9.831996517454542,1432,8,0.0,15,137816362404865,19,27.7,-262.72064208984375,0.04430000111460686,0,0.0,0.0,1.57542003E9,,,,0,,1,0.64,1.57542003E9
Raw,328088694,328155999000000,,,-1457982460431822469,0.3466787338256836,43.3920395153109,42.13890844751661,9.831996517454542,1432,10,0.0,15,137816360385509,35,22.7,41.579166412353516,0.7264999747276306,0,0.0,0.0,1.57542003E9,,,,0,,1,0.64,1.57542003E9
Raw,328088694,328155999000000,,,-1457982460431822469,0.3466787338256836,43.3920395153109,42.13890844751661,9.831996517454542,1432,16,0.0,15,137816355359645,19,27.8,669.6548461914062,0.06379999965429306,0,0.0,0.0,1.57542003E9,,,,0,,1,0.64,1.57542003E9
Raw,328088695,328155999000000,,,-1457982460431822469,0.3466787338256836,43.3920395153109,42.13890844751661,9.831996517454542,1432,23,0.0,15,137816356424239,31,23.2,483.2412414550781,0.750499963760376,0,0.0,0.0,1.57542003E9,,,,0,,1,0.64,1.57542003E9
Raw,328088695,328155999000000,,,-1457982460431822469,0.3466787338256836,43.3920395153109,42.13890844751661,9.831996517454542,1432,27,0.0,15,137816363611021,11,33.5,151.10731506347656,0.027400000020861626,0,0.0,0.0,1.57542003E9,,,,0,,1,0.64,1.57542003E9
Raw,328088695,328155999000000,,,-1457982460431822469,0.3466787338256836,43.3920395153109,42.13890844751661,9.831996517454542,1432,8,0.0,15,137802298718860,80,16.6,245.7145233154297,1.0234999656677246,0,0.0,0.0,1.56109798E9,,,,0,,5,0.31,1.56109798E9
Raw,328088696,328155999000000,,,-1457982460431822469,0.3466787338256836,43.3920395153109,42.13890844751661,9.831996517454542,1432,13,0.0,15,137802301142512,46,20.8,186.50875854492188,0.7279999852180481,0,0.0,0.0,1.56109798E9,,,,0,,5,0.31,1.56109798E9
Raw,328088696,328155999000000,,,-1457982460431822469,0.3466787338256836,43.3920395153109,42.13890844751661,9.831996517454542,1432,13,0.0,7183,137816352730987,24,25.9,-61.362064361572266,0.4058000147342682,0,0.0,0.0,1.57542003E9,,,,0,,6,0.55,1.57542003E9
Raw,328088696,328155999000000,,,-1457982460431822469,0.3466787338256836,43.3920395153109,42.13890844751661,9.831996517454542,1432,15,0.0,7183,137816347665076,21,26.6,378.43585205078125,0.13369999825954437,0,0.0,0.0,1.57542003E9,,,,0,,6,0.55,1.57542003E9
Raw,328088697,328155999000000,,,-1457982460431822469,0.3466787338256836,43.3920395153109,42.13890844751661,9.831996517454542,1432,21,0.0,7183,137816350350728,14,30.4,89.84709930419922,0.052800003439188004,0,0.0,0.0,1.57542003E9,,,,0,,6,0.55,1.57542003E9
Raw,328088697,328155999000000,,,-1457982460431822469,0.3466787338256836,43.3920395153109,42.13890844751661,9.831996517454542,1432,23,0.0,7183,137816342792508,11,33.4,-406.3380432128906,0.04990000277757645,0,0.0,0.0,1.57542003E9,,,,0,,6,0.55,1.57542003E9
Raw,328088697,328155999000000,,,-1457982460431822469,0.3466787338256836,43.3920395153109,42.13890844751661,9.831996517454542,1432,26,0.0,7183,137816343004553,17,28.2,-418.6228332519531,0.06180000305175781,0,0.0,0.0,1.57542003E9,,,,0,,6,0.55,1.57542003E9
Raw,328088698,328155999000000,,,-1457982460431822469,0.3466787338256836,43.3920395153109,42.13890844751661,9.831996517454542,1432,27,0.0,7183,137816344596234,46,20.4,549.177978515625,0.750499963760376,0,0.0,0.0,1.57542003E9,,,,0,,6,0.55,1.57542003E9
Fix,gps,45.064497,7.657325,294.762451,0.000000,3.216000,1774275400000
Raw,328089680,328156999000000,,,-1457982460431822433,0.03495979309082031,40.94628457096405,39.98229373011968,9.943267947421587,1432,2,0.0,207,62199357787050,35,22.6,240.98648071289062,1.0119999647140503,0,0.0,0.0,1.59975002E9,,,,0,,3,-1.17,1.59975002E9
Raw,328089681,328156999000000,,,-1457982460431822433,0.03495979309082031,40.94628457096405,39.98229373011968,9.943267947421587,1432,18,0.0,207,62199364706080,61,18.4,204.0813446044922,1.2825000286102295,0,0.0,0.0,1.60031245E9,,,,0,,3,-1.17,1.60031245E9
Raw,328089681,328156999000000,,,-1457982460431822433,0.03495979309082031,40.94628457096405,39.98229373011968,9.943267947421587,1432,9,0.0,207,62199360842357,9,35.4,34.388668060302734,0.2215999960899353,0,0.0,0.0,1.60087501E9,,,,0,,3,-1.17,1.60087501E9
Raw,328089681,328156999000000,,,-1457982460431822433,0.03495979309082031,40.94628457096405,39.98229373011968,9.943267947421587,1432,16,0.0,207,62199358332879,10,34.1,712.691162109375,0.24910001456737518,0,0.0,0.0,1.60143744E9,,,,0,,3,-1.17,1.60143744E9
Raw,328089683,328156999000000,,,-1457982460431822433,0.03495979309082031,40.94628457096405,39.98229373011968,9.943267947421587,1432,19,0.0,207,62199361679824,9,35.3,-371.3957824707031,0.22310000658035278,0,0.0,0.0,1.60368755E9,,,,0,,3,-1.17,1.60368755E9
Raw,328089683,328156999000000,,,-1457982460431822433,0.03495979309082031,40.94628457096405,39.98229373011968,9.943267947421587,1432,3,0.0,207,62199359671591,35,22.3,-507.9226989746094,1.0149999856948853,0,0.0,0.0,1.60481254E9,,,,0,,3,-1.17,1.60481254E9
Raw,328089684,328156999000000,,,-1457982460431822433,0.03495979309082031,40.94628457096405,39.98229373011968,9.943267947421587,1432,2,0.0,15,137817357339916,7,37.2,-372.52496337890625,0.04610000178217888,0,0.0,0.0,1.57542003E9,,,,0,,1,0.41,1.57542003E9
Raw,328089684,328156999000000,,,-1457982460431822433,0.03495979309082031,40.94628457096405,39.98229373011968,9.943267947421587,1432,8,0.0,15,137817362405727,12,32.0,-263.7427062988281,0.026900000870227814,0,0.0,0.0,1.57542003E9,,,,0,,1,0.41,1.57542003E9
Raw,328089685,328156999000000,,,-1457982460431822433,0.03495979309082031,40.94628457096405,39.98229373011968,9.943267947421587,1432,10,0.0,15,137817360385289,24,25.4,40.710731506347656,0.38179999589920044,0,0.0,0.0,1.57542003E9,,,,0,,1,0.41,1.57542003E9
Raw,328089685,328156999000000,,,-1457982460431822433,0.03495979309082031,40.94628457096405,39.98229373011968,9.943267947421587,1432,16,0.0,15,137817355357405,13,31.5,668.4220581054688,0.047700002789497375,0,0.0,0.0,1.57542003E9,,,,0,,1,0.41,1.57542003E9
Raw,328089685,328156999000000,,,-1457982460431822433,0.03495979309082031,40.94628457096405,39.98229373011968,9.943267947421587,1432,23,0.0,15,137817356422588,27,24.7,482.8416748046875,0.640500009059906,0,0.0,0.0,1.57542003E9,,,,0,,1,0.41,1.57542003E9
Raw,328089686,328156999000000,,,-1457982460431822433,0.03495979309082031,40.94628457096405,39.98229373011968,9.943267947421587,1432,27,0.0,15,137817363610545,16,29.7,150.0513153076172,0.031200001016259193,0,0.0,0.0,1.57542003E9,,,,0,,1,0.41,1.57542003E9
Raw,328089686,328156999000000,,,-1457982460431822433,0.03495979309082031,40.94628457096405,39.98229373011968,9.943267947421587,1432,13,0.0,15,137803301141905,24,25.1,185.941162109375,0.3833000063896179,0,0.0,0.0,1.56109798E9,,,,0,,5,0.21,1.56109798E9
Raw,328089686,328156999000000,,,-1457982460431822433,0.03495979309082031,40.94628457096405,39.98229373011968,9.943267947421587,1432,13,0.0,7183,137817352731155,19,27.8,-62.12430191040039,0.06530000269412994,0,0.0,0.0,1.57542003E9,,,,0,,6,0.43,1.57542003E9
Raw,328089687,328156999000000,,,-1457982460431822433,0.03495979309082031,40.94628457096405,39.98229373011968,9.943267947421587,1432,15,0.0,7183,137817347663836,40,21.0,377.6663513183594,0.6889999508857727,0,0.0,0.0,1.57542003E9,,,,0,,6,0.43,1.57542003E9
Raw,328089688,328156999000000,,,-1457982460431822433,0.03495979309082031,40.94628457096405,39.98229373011968,9.943267947421587,1432,21,0.0,7183,137817350350436,17,28.1,88.86188507080078,0.06030000001192093,0,0.0,0.0,1.57542003E9,,,,0,,6,0.43,1.57542003E9
Raw,328089688,328156999000000,,,-1457982460431822433,0.03495979309082031,40.94628457096405,39.98229373011968,9.943267947421587,1432,23,0.0,7183,137817342793893,17,28.4,-407.5427551269531,0.06030000001192093,0,0.0,0.0,1.57542003E9,,,,0,,6,0.43,1.57542003E9
Raw,328089689,328156999000000,,,-1457982460431822433,0.03495979309082031,40.94628457096405,39.98229373011968,9.943267947421587,1432,26,0.0,7183,137817343005960,17,28.9,-419.8149108886719,0.06180000305175781,0,0.0,0.0,1.57542003E9,,,,0,,6,0.43,1.57542003E9
Raw,328089689,328156999000000,,,-1457982460431822433,0.03495979309082031,40.94628457096405,39.98229373011968,9.943267947421587,1432,27,0.0,7183,137817344594372,27,24.2,547.6651611328125,0.5504999756813049,0,0.0,0.0,1.57542003E9,,,,0,,6,0.43,1.57542003E9
Fix,gps,45.064497,7.657325,294.759888,0.000000,3.216000,1774275401000
Raw,328090685,328157999000000,,,-1457982460431822396,0.2580604553222656,44.850981794297695,36.39513155015819,13.55442289278118,1432,2,0.0,207,62200357786180,31,23.1,242.74801635742188,0.9519999623298645,0,0.0,0.0,1.59975002E9,,,,0,,3,-1.23,1.59975002E9
Raw,328090686,328157999000000,,,-1457982460431822396,0.2580604553222656,44.850981794297695,36.39513155015819,13.55442289278118,1432,18,0.0,207,62200364705386,19,27.2,206.20741271972656,0.24730001389980316,0,0.0,0.0,1.60031245E9,,,,0,,3,-1.23,1.60031245E9
Raw,328090686,328157999000000,,,-1457982460431822396,0.2580604553222656,44.850981794297695,36.39513155015819,13.55442289278118,1432,9,0.0,207,62200360842284,10,34.7,36.14884948730469,0.22210000455379486,0,0.0,0.0,1.60087501E9,,,,0,,3,-1.23,1.60087501E9
Raw,328090687,328157999000000,,,-1457982460431822396,0.2580604553222656,44.850981794297695,36.39513155015819,13.55442289278118,1432,16,0.0,207,62200358330509,8,36.2,714.373779296875,0.24820001423358917,0,0.0,0.0,1.60143744E9,,,,0,,3,-1.23,1.60143744E9
Raw,328090688,328157999000000,,,-1457982460431822396,0.2580604553222656,44.850981794297695,36.39513155015819,13.55442289278118,1432,19,0.0,207,62200361681038,11,33.1,-369.8456115722656,0.22440001368522644,0,0.0,0.0,1.60368755E9,,,,0,,3,-1.23,1.60368755E9
Raw,328090688,328157999000000,,,-1457982460431822396,0.2580604553222656,44.850981794297695,36.39513155015819,13.55442289278118,1432,2,0.0,15,137818357341150,6,39.1,-370.87030029296875,0.045100003480911255,0,0.0,0.0,1.57542003E9,,,,0,,1,0.41,1.57542003E9
Raw,328090689,328157999000000,,,-1457982460431822396,0.2580604553222656,44.850981794297695,36.39513155015819,13.55442289278118,1432,8,0.0,15,137818362406645,12,32.9,-262.12017822265625,0.026900000870227814,0,0.0,0.0,1.57542003E9,,,,0,,1,0.41,1.57542003E9
Raw,328090689,328157999000000,,,-1457982460431822396,0.2580604553222656,44.850981794297695,36.39513155015819,13.55442289278118,1432,10,0.0,15,137818360385160,31,23.5,43.034915924072266,0.6664999723434448,0,0.0,0.0,1.57542003E9,,,,0,,1,0.41,1.57542003E9
Raw,328090690,328157999000000,,,-1457982460431822396,0.2580604553222656,44.850981794297695,36.39513155015819,13.55442289278118,1432,16,0.0,15,137818355355182,12,32.9,670.0370483398438,0.046400003135204315,0,0.0,0.0,1.57542003E9,,,,0,,1,0.41,1.57542003E9
Raw,328090690,328157999000000,,,-1457982460431822396,0.2580604553222656,44.850981794297695,36.39513155015819,13.55442289278118,1432,23,0.0,15,137818356421024,17,28.0,484.1724548339844,0.05730000138282776,0,0.0,0.0,1.57542003E9,,,,0,,1,0.41,1.57542003E9
Raw,328090691,328157999000000,,,-1457982460431822396,0.2580604553222656,44.850981794297695,36.39513155015819,13.55442289278118,1432,27,0.0,15,137818363610018,13,31.3,151.651611328125,0.02970000170171261,0,0.0,0.0,1.57542003E9,,,,0,,1,0.41,1.57542003E9
Raw,328090691,328157999000000,,,-1457982460431822396,0.2580604553222656,44.850981794297695,36.39513155015819,13.55442289278118,1432,8,0.0,15,137804298717224,64,18.9,245.10960388183594,1.6234999895095825,0,0.0,0.0,1.56109798E9,,,,0,,5,0.09,1.56109798E9
Raw,328090692,328157999000000,,,-1457982460431822396,0.2580604553222656,44.850981794297695,36.39513155015819,13.55442289278118,1432,13,0.0,15,137804301141283,21,26.4,187.18814086914062,0.11270000040531158,0,0.0,0.0,1.56109798E9,,,,0,,5,0.09,1.56109798E9
Raw,328090696,328157999000000,,,-1457982460431822396,0.2580604553222656,44.850981794297695,36.39513155015819,13.55442289278118,1432,13,0.0,7183,137818352731376,14,30.3,-60.877254486083984,0.049800001084804535,0,0.0,0.0,1.57542003E9,,,,0,,6,0.33,1.57542003E9
Raw,328090696,328157999000000,,,-1457982460431822396,0.2580604553222656,44.850981794297695,36.39513155015819,13.55442289278118,1432,15,0.0,7183,137818347662580,70,17.4,379.47412109375,0.9389999508857727,0,0.0,0.0,1.57542003E9,,,,0,,6,0.33,1.57542003E9
Raw,328090697,328157999000000,,,-1457982460431822396,0.2580604553222656,44.850981794297695,36.39513155015819,13.55442289278118,1432,21,0.0,7183,137818350350122,17,28.6,90.38011169433594,0.06030000001192093,0,0.0,0.0,1.57542003E9,,,,0,,6,0.33,1.57542003E9
Raw,328090697,328157999000000,,,-1457982460431822396,0.2580604553222656,44.850981794297695,36.39513155015819,13.55442289278118,1432,23,0.0,7183,137818342795287,12,32.8,-405.8053283691406,0.05090000107884407,0,0.0,0.0,1.57542003E9,,,,0,,6,0.33,1.57542003E9
Raw,328090697,328157999000000,,,-1457982460431822396,0.2580604553222656,44.850981794297695,36.39513155015819,13.55442289278118,1432,26,0.0,7183,137818343007354,12,32.2,-418.2177734375,0.052400000393390656,0,0.0,0.0,1.57542003E9,,,,0,,6,0.33,1.57542003E9
Raw,328090698,328157999000000,,,-1457982460431822396,0.2580604553222656,44.850981794297695,36.39513155015819,13.55442289278118,1432,27,0.0,7183,137818344592552,21,26.8,548.92626953125,0.13520000874996185,0,0.0,0.0,1.57542003E9,,,,0,,6,0.33,1.57542003E9
Fix,gps,45.064497,7.657325,294.769165,0.000000,3.216000,1774275402000
Raw,328091684,328158999000000,,,-1457982460431822356,0.029259681701660156,37.81984923989512,40.89655257342851,10.054627653332785,1432,2,0.0,207,62201357785487,17,28.6,242.7737579345703,0.2587999999523163,0,0.0,0.0,1.59975002E9,,,,0,,3,-1.12,1.59975002E9
Raw,328091684,328158999000000,,,-1457982460431822356,0.029259681701660156,37.81984923989512,40.89655257342851,10.054627653332785,1432,18,0.0,207,62201364704618,40,21.3,207.20045471191406,1.0525000095367432,0,0.0,0.0,1.60031245E9,,,,0,,3,-1.12,1.60031245E9
Raw,328091685,328158999000000,,,-1457982460431822356,0.029259681701660156,37.81984923989512,40.89655257342851,10.054627653332785,1432,9,0.0,207,62201360842091,9,35.5,36.817440032958984,0.2215999960899353,0,0.0,0.0,1.60087501E9,,,,0,,3,-1.12,1.60087501E9
Raw,328091685,328158999000000,,,-1457982460431822356,0.029259681701660156,37.81984923989512,40.89655257342851,10.054627653332785,1432,16,0.0,207,62201358328105,11,33.8,715.0237426757812,0.24990001320838928,0,0.0,0.0,1.60143744E9,,,,0,,3,-1.12,1.60143744E9
Raw,328091686,328158999000000,,,-1457982460431822356,0.029259681701660156,37.81984923989512,40.89655257342851,10.054627653332785,1432,19,0.0,207,62201361682282,8,36.1,-369.2593078613281,0.22270001471042633,0,0.0,0.0,1.60368755E9,,,,0,,3,-1.12,1.60368755E9
Raw,328091686,328158999000000,,,-1457982460431822356,0.029259681701660156,37.81984923989512,40.89655257342851,10.054627653332785,1432,3,0.0,207,62201359674898,49,20.1,-506.1200256347656,1.8950001001358032,0,0.0,0.0,1.60481254E9,,,,0,,3,-1.12,1.60481254E9
Raw,328091686,328158999000000,,,-1457982460431822356,0.029259681701660156,37.81984923989512,40.89655257342851,10.054627653332785,1432,2,0.0,15,137819357342384,7,37.6,-370.2729797363281,0.04610000178217888,0,0.0,0.0,1.57542003E9,,,,0,,1,0.46,1.57542003E9
Raw,328091687,328158999000000,,,-1457982460431822356,0.029259681701660156,37.81984923989512,40.89655257342851,10.054627653332785,1432,8,0.0,15,137819362407481,17,28.9,-261.6251525878906,0.03629999980330467,0,0.0,0.0,1.57542003E9,,,,0,,1,0.46,1.57542003E9
Raw,328091687,328158999000000,,,-1457982460431822356,0.029259681701660156,37.81984923989512,40.89655257342851,10.054627653332785,1432,10,0.0,15,137819360385037,16,29.6,43.08620834350586,0.02670000120997429,0,0.0,0.0,1.57542003E9,,,,0,,1,0.46,1.57542003E9
Raw,328091688,328158999000000,,,-1457982460431822356,0.029259681701660156,37.81984923989512,40.89655257342851,10.054627653332785,1432,16,0.0,15,137819355352932,12,32.1,670.5728149414062,0.046400003135204315,0,0.0,0.0,1.57542003E9,,,,0,,1,0.46,1.57542003E9
Raw,328091689,328158999000000,,,-1457982460431822356,0.029259681701660156,37.81984923989512,40.89655257342851,10.054627653332785,1432,23,0.0,15,137819356419421,16,29.5,484.517822265625,0.050700001418590546,0,0.0,0.0,1.57542003E9,,,,0,,1,0.46,1.57542003E9
Raw,328091689,328158999000000,,,-1457982460431822356,0.029259681701660156,37.81984923989512,40.89655257342851,10.054627653332785,1432,27,0.0,15,137819363609540,13,31.8,152.19570922851562,0.02970000170171261,0,0.0,0.0,1.57542003E9,,,,0,,1,0.46,1.57542003E9
Raw,328091689,328158999000000,,,-1457982460431822356,0.029259681701660156,37.81984923989512,40.89655257342851,10.054627653332785,1432,8,0.0,15,137805298716426,80,16.4,246.46348571777344,1.0234999656677246,0,0.0,0.0,1.56109798E9,,,,0,,5,0.21,1.56109798E9
Raw,328091690,328158999000000,,,-1457982460431822356,0.029259681701660156,37.81984923989512,40.89655257342851,10.054627653332785,1432,13,0.0,15,137805301140641,27,24.7,187.47854614257812,0.527999997138977,0,0.0,0.0,1.56109798E9,,,,0,,5,0.21,1.56109798E9
Raw,328091690,328158999000000,,,-1457982460431822356,0.029259681701660156,37.81984923989512,40.89655257342851,10.054627653332785,1432,13,0.0,7183,137819352731576,12,32.0,-60.43354797363281,0.0479000024497509,0,0.0,0.0,1.57542003E9,,,,0,,6,0.52,1.57542003E9
Raw,328091690,328158999000000,,,-1457982460431822356,0.029259681701660156,37.81984923989512,40.89655257342851,10.054627653332785,1432,15,0.0,7183,137819347661244,53,19.2,379.14111328125,0.8089999556541443,0,0.0,0.0,1.57542003E9,,,,0,,6,0.52,1.57542003E9
Raw,328091691,328158999000000,,,-1457982460431822356,0.029259681701660156,37.81984923989512,40.89655257342851,10.054627653332785,1432,21,0.0,7183,137819350349829,13,31.1,91.02275848388672,0.05220000073313713,0,0.0,0.0,1.57542003E9,,,,0,,6,0.52,1.57542003E9
Raw,328091691,328158999000000,,,-1457982460431822356,0.029259681701660156,37.81984923989512,40.89655257342851,10.054627653332785,1432,23,0.0,7183,137819342796592,14,30.2,-405.3468933105469,0.052800003439188004,0,0.0,0.0,1.57542003E9,,,,0,,6,0.52,1.57542003E9
Raw,328091692,328158999000000,,,-1457982460431822356,0.029259681701660156,37.81984923989512,40.89655257342851,10.054627653332785,1432,26,0.0,7183,137819343008750,11,33.1,-417.7015686035156,0.05140000209212303,0,0.0,0.0,1.57542003E9,,,,0,,6,0.52,1.57542003E9
Raw,328091693,328158999000000,,,-1457982460431822356,0.029259681701660156,37.81984923989512,40.89655257342851,10.054627653332785,1432,27,0.0,7183,137819344590728,16,29.0,549.3765869140625,0.050700001418590546,0,0.0,0.0,1.57542003E9,,,,0,,6,0.52,1.57542003E9
Fix,gps,45.064497,7.657322,294.752014,0.240000,3.216000,1774275403000
Raw,328092699,328159999000000,,,-1457982460431822309,0.31064414978027344,37.97883982770145,42.15990380720736,10.967326159682774,1432,2,0.0,207,62202357784581,21,26.2,242.93165588378906,0.3366999924182892,0,0.0,0.0,1.59975002E9,,,,0,,3,-1.14,1.59975002E9
Raw,328092700,328159999000000,,,-1457982460431822309,0.31064414978027344,37.97883982770145,42.15990380720736,10.967326159682774,1432,9,0.0,207,62202360841986,8,36.1,36.50850296020508,0.22120000422000885,0,0.0,0.0,1.60087501E9,,,,0,,3,-1.14,1.60087501E9
Raw,328092700,328159999000000,,,-1457982460431822309,0.31064414978027344,37.97883982770145,42.15990380720736,10.967326159682774,1432,16,0.0,207,62202358325743,9,35.1,714.6427001953125,0.24860000610351562,0,0.0,0.0,1.60143744E9,,,,0,,3,-1.14,1.60143744E9
Raw,328092700,328159999000000,,,-1457982460431822309,0.31064414978027344,37.97883982770145,42.15990380720736,10.967326159682774,1432,19,0.0,207,62202361683516,7,37.1,-369.5845947265625,0.22210000455379486,0,0.0,0.0,1.60368755E9,,,,0,,3,-1.14,1.60368755E9
Raw,328092701,328159999000000,,,-1457982460431822309,0.31064414978027344,37.97883982770145,42.15990380720736,10.967326159682774,1432,3,0.0,207,62202359676602,53,19.7,-506.28814697265625,1.225000023841858,0,0.0,0.0,1.60481254E9,,,,0,,3,-1.14,1.60481254E9
Raw,328092701,328159999000000,,,-1457982460431822309,0.31064414978027344,37.97883982770145,42.15990380720736,10.967326159682774,1432,2,0.0,15,137820357343619,6,38.4,-370.7162170410156,0.04560000076889992,0,0.0,0.0,1.57542003E9,,,,0,,1,0.51,1.57542003E9
Raw,328092702,328159999000000,,,-1457982460431822309,0.31064414978027344,37.97883982770145,42.15990380720736,10.967326159682774,1432,8,0.0,15,137820362408335,17,28.3,-261.8141174316406,0.03629999980330467,0,0.0,0.0,1.57542003E9,,,,0,,1,0.51,1.57542003E9
Raw,328092702,328159999000000,,,-1457982460431822309,0.31064414978027344,37.97883982770145,42.15990380720736,10.967326159682774,1432,10,0.0,15,137820360384923,17,28.7,43.141937255859375,0.0333000011742115,0,0.0,0.0,1.57542003E9,,,,0,,1,0.51,1.57542003E9
Raw,328092702,328159999000000,,,-1457982460431822309,0.31064414978027344,37.97883982770145,42.15990380720736,10.967326159682774,1432,16,0.0,15,137820355350690,12,32.0,670.3756103515625,0.046400003135204315,0,0.0,0.0,1.57542003E9,,,,0,,1,0.51,1.57542003E9
Raw,328092703,328159999000000,,,-1457982460431822309,0.31064414978027344,37.97883982770145,42.15990380720736,10.967326159682774,1432,23,0.0,15,137820356417800,21,26.7,484.675048828125,0.13520000874996185,0,0.0,0.0,1.57542003E9,,,,0,,1,0.51,1.57542003E9
Raw,328092703,328159999000000,,,-1457982460431822309,0.31064414978027344,37.97883982770145,42.15990380720736,10.967326159682774,1432,27,0.0,15,137820363609014,13,31.9,152.12611389160156,0.02970000170171261,0,0.0,0.0,1.57542003E9,,,,0,,1,0.51,1.57542003E9
Raw,328092703,328159999000000,,,-1457982460431822309,0.31064414978027344,37.97883982770145,42.15990380720736,10.967326159682774,1432,8,0.0,15,137806298715631,80,16.6,244.4758758544922,1.0234999656677246,0,0.0,0.0,1.56109798E9,,,,0,,5,0.27,1.56109798E9
Raw,328092704,328159999000000,,,-1457982460431822309,0.31064414978027344,37.97883982770145,42.15990380720736,10.967326159682774,1432,13,0.0,15,137806301139998,24,25.1,187.64382934570312,0.3833000063896179,0,0.0,0.0,1.56109798E9,,,,0,,5,0.27,1.56109798E9
Raw,328092704,328159999000000,,,-1457982460431822309,0.31064414978027344,37.97883982770145,42.15990380720736,10.967326159682774,1432,13,0.0,7183,137820352731792,12,32.1,-60.59261703491211,0.0479000024497509,0,0.0,0.0,1.57542003E9,,,,0,,6,0.49,1.57542003E9
Raw,328092704,328159999000000,,,-1457982460431822309,0.31064414978027344,37.97883982770145,42.15990380720736,10.967326159682774,1432,15,0.0,7183,137820347659982,46,20.5,379.6358642578125,0.7489999532699585,0,0.0,0.0,1.57542003E9,,,,0,,6,0.49,1.57542003E9
Raw,328092705,328159999000000,,,-1457982460431822309,0.31064414978027344,37.97883982770145,42.15990380720736,10.967326159682774,1432,21,0.0,7183,137820350349529,12,32.5,90.74610137939453,0.05090000107884407,0,0.0,0.0,1.57542003E9,,,,0,,6,0.49,1.57542003E9
Raw,328092705,328159999000000,,,-1457982460431822309,0.31064414978027344,37.97883982770145,42.15990380720736,10.967326159682774,1432,23,0.0,7183,137820342797964,16,29.4,-405.6143493652344,0.053700003772974014,0,0.0,0.0,1.57542003E9,,,,0,,6,0.49,1.57542003E9
Raw,328092706,328159999000000,,,-1457982460431822309,0.31064414978027344,37.97883982770145,42.15990380720736,10.967326159682774,1432,26,0.0,7183,137820343010148,13,31.2,-418.1414489746094,0.053700003772974014,0,0.0,0.0,1.57542003E9,,,,0,,6,0.49,1.57542003E9
Raw,328092706,328159999000000,,,-1457982460431822309,0.31064414978027344,37.97883982770145,42.15990380720736,10.967326159682774,1432,27,0.0,7183,137820344588899,21,26.8,549.2757568359375,0.13520000874996185,0,0.0,0.0,1.57542003E9,,,,0,,6,0.49,1.57542003E9
Fix,gps,45.064495,7.657321,294.520569,0.000000,3.216000,1774275404000
Raw,328093678,328160999000000,,,-1457982460431822268,0.1994304656982422,36.92912287078798,41.48071028344211,12.019759123398732,1432,2,0.0,207,62203357783843,27,24.6,243.55384826660156,0.8919999599456787,0,0.0,0.0,1.59975002E9,,,,0,,3,-1.19,1.59975002E9
Raw,328093679,328160999000000,,,-1457982460431822268,0.1994304656982422,36.92912287078798,41.48071028344211,12.019759123398732,1432,18,0.0,207,62203364703482,84,16.2,206.57289123535156,2.2125000953674316,0,0.0,0.0,1.60031245E9,,,,0,,3,-1.19,1.60031245E9
Raw,328093679,328160999000000,,,-1457982460431822268,0.1994304656982422,36.92912287078798,41.48071028344211,12.019759123398732,1432,9,0.0,207,62203360841889,12,32.8,37.091434478759766,0.22390000522136688,0,0.0,0.0,1.60087501E9,,,,0,,3,-1.19,1.60087501E9
Raw,328093680,328160999000000,,,-1457982460431822268,0.1994304656982422,36.92912287078798,41.48071028344211,12.019759123398732,1432,16,0.0,207,62203358323375,9,35.5,715.2279052734375,0.24860000610351562,0,0.0,0.0,1.60143744E9,,,,0,,3,-1.19,1.60143744E9
Raw,328093680,328160999000000,,,-1457982460431822268,0.1994304656982422,36.92912287078798,41.48071028344211,12.019759123398732,1432,19,0.0,207,62203361684762,12,32.5,-369.1934509277344,0.22540001571178436,0,0.0,0.0,1.60368755E9,,,,0,,3,-1.19,1.60368755E9
Raw,328093681,328160999000000,,,-1457982460431822268,0.1994304656982422,36.92912287078798,41.48071028344211,12.019759123398732,1432,3,0.0,207,62203359678484,46,20.4,-506.026611328125,1.1449999809265137,0,0.0,0.0,1.60481254E9,,,,0,,3,-1.19,1.60481254E9
Raw,328093681,328160999000000,,,-1457982460431822268,0.1994304656982422,36.92912287078798,41.48071028344211,12.019759123398732,1432,2,0.0,15,137821357344852,8,36.6,-370.1864013671875,0.04670000076293945,0,0.0,0.0,1.57542003E9,,,,0,,1,0.44,1.57542003E9
Raw,328093681,328160999000000,,,-1457982460431822268,0.1994304656982422,36.92912287078798,41.48071028344211,12.019759123398732,1432,8,0.0,15,137821362409210,19,27.3,-261.53369140625,0.04430000111460686,0,0.0,0.0,1.57542003E9,,,,0,,1,0.44,1.57542003E9
Raw,328093682,328160999000000,,,-1457982460431822268,0.1994304656982422,36.92912287078798,41.48071028344211,12.019759123398732,1432,10,0.0,15,137821360384779,16,29.6,43.28392791748047,0.02670000120997429,0,0.0,0.0,1.57542003E9,,,,0,,1,0.44,1.57542003E9
Raw,328093682,328160999000000,,,-1457982460431822268,0.1994304656982422,36.92912287078798,41.48071028344211,12.019759123398732,1432,16,0.0,15,137821355348477,16,29.8,670.77294921875,0.04920000210404396,0,0.0,0.0,1.57542003E9,,,,0,,1,0.44,1.57542003E9
Raw,328093683,328160999000000,,,-1457982460431822268,0.1994304656982422,36.92912287078798,41.48071028344211,12.019759123398732,1432,23,0.0,15,137821356416195,17,28.3,484.6326904296875,0.05730000138282776,0,0.0,0.0,1.57542003E9,,,,0,,1,0.44,1.57542003E9
Raw,328093683,328160999000000,,,-1457982460431822268,0.1994304656982422,36.92912287078798,41.48071028344211,12.019759123398732,1432,27,0.0,15,137821363608515,10,34.2,152.40345764160156,0.026600001379847527,0,0.0,0.0,1.57542003E9,,,,0,,1,0.44,1.57542003E9
Raw,328093684,328160999000000,,,-1457982460431822268,0.1994304656982422,36.92912287078798,41.48071028344211,12.019759123398732,1432,13,0.0,15,137807301139426,46,20.1,186.86402893066406,0.7279999852180481,0,0.0,0.0,1.56109798E9,,,,0,,5,0.22,1.56109798E9
Raw,328093684,328160999000000,,,-1457982460431822268,0.1994304656982422,36.92912287078798,41.48071028344211,12.019759123398732,1432,13,0.0,7183,137821352731990,14,30.7,-60.36845397949219,0.049800001084804535,0,0.0,0.0,1.57542003E9,,,,0,,6,0.46,1.57542003E9
Raw,328093684,328160999000000,,,-1457982460431822268,0.1994304656982422,36.92912287078798,41.48071028344211,12.019759123398732,1432,15,0.0,7183,137821347658730,21,26.7,379.2475891113281,0.13369999825954437,0,0.0,0.0,1.57542003E9,,,,0,,6,0.46,1.57542003E9
Raw,328093685,328160999000000,,,-1457982460431822268,0.1994304656982422,36.92912287078798,41.48071028344211,12.019759123398732,1432,21,0.0,7183,137821350349218,11,33.3,91.09519958496094,0.04990000277757645,0,0.0,0.0,1.57542003E9,,,,0,,6,0.46,1.57542003E9
Raw,328093685,328160999000000,,,-1457982460431822268,0.1994304656982422,36.92912287078798,41.48071028344211,12.019759123398732,1432,23,0.0,7183,137821342799262,21,26.5,-405.4806823730469,0.13819999992847443,0,0.0,0.0,1.57542003E9,,,,0,,6,0.46,1.57542003E9
Raw,328093685,328160999000000,,,-1457982460431822268,0.1994304656982422,36.92912287078798,41.48071028344211,12.019759123398732,1432,26,0.0,7183,137821343011553,13,31.4,-417.6435546875,0.053700003772974014,0,0.0,0.0,1.57542003E9,,,,0,,6,0.46,1.57542003E9
Raw,328093686,328160999000000,,,-1457982460431822268,0.1994304656982422,36.92912287078798,41.48071028344211,12.019759123398732,1432,27,0.0,7183,137821344587055,17,28.4,549.482666015625,0.05730000138282776,0,0.0,0.0,1.57542003E9,,,,0,,6,0.46,1.57542003E9
Fix,gps,45.064490,7.657319,294.680786,0.270000,3.216000,1774275405000
Raw,328094693,328161999000000,,,-1457982460431822230,0.8381414413452148,36.51002771221101,43.28461250137991,11.925314201777775,1432,2,0.0,207,62204357783060,24,25.8,242.80348205566406,0.6072999835014343,0,0.0,0.0,1.59975002E9,,,,0,,3,-1.2,1.59975002E9
Raw,328094694,328161999000000,,,-1457982460431822230,0.8381414413452148,36.51002771221101,43.28461250137991,11.925314201777775,1432,18,0.0,207,62204364702707,24,25.4,206.12083435058594,0.5877999663352966,0,0.0,0.0,1.60031245E9,,,,0,,3,-1.2,1.60031245E9
Raw,328094694,328161999000000,,,-1457982460431822230,0.8381414413452148,36.51002771221101,43.28461250137991,11.925314201777775,1432,9,0.0,207,62204360841726,24,25.8,36.7935676574707,0.5817999839782715,0,0.0,0.0,1.60087501E9,,,,0,,3,-1.2,1.60087501E9
Raw,328094694,328161999000000,,,-1457982460431822230,0.8381414413452148,36.51002771221101,43.28461250137991,11.925314201777775,1432,16,0.0,207,62204358320990,8,36.2,714.67626953125,0.24820001423358917,0,0.0,0.0,1.60143744E9,,,,0,,3,-1.2,1.60143744E9
Raw,328094694,328161999000000,,,-1457982460431822230,0.8381414413452148,36.51002771221101,43.28461250137991,11.925314201777775,1432,19,0.0,207,62204361685941,13,31.0,-369.6471862792969,0.22670000791549683,0,0.0,0.0,1.60368755E9,,,,0,,3,-1.2,1.60368755E9
Raw,328094695,328161999000000,,,-1457982460431822230,0.8381414413452148,36.51002771221101,43.28461250137991,11.925314201777775,1432,3,0.0,207,62204359680305,70,17.6,-506.4375915527344,1.3949999809265137,0,0.0,0.0,1.60481254E9,,,,0,,3,-1.2,1.60481254E9
Raw,328094695,328161999000000,,,-1457982460431822230,0.8381414413452148,36.51002771221101,43.28461250137991,11.925314201777775,1432,2,0.0,15,137822357346092,12,32.8,-370.6792297363281,0.049400001764297485,0,0.0,0.0,1.57542003E9,,,,0,,1,0.39,1.57542003E9
Raw,328094695,328161999000000,,,-1457982460431822230,0.8381414413452148,36.51002771221101,43.28461250137991,11.925314201777775,1432,8,0.0,15,137822362410070,16,29.3,-261.95703125,0.02970000170171261,0,0.0,0.0,1.57542003E9,,,,0,,1,0.39,1.57542003E9
Raw,328094696,328161999000000,,,-1457982460431822230,0.8381414413452148,36.51002771221101,43.28461250137991,11.925314201777775,1432,10,0.0,15,137822360384563,14,30.2,42.791988372802734,0.025800000876188278,0,0.0,0.0,1.57542003E9,,,,0,,1,0.39,1.57542003E9
Raw,328094696,328161999000000,,,-1457982460431822230,0.8381414413452148,36.51002771221101,43.28461250137991,11.925314201777775,1432,16,0.0,15,137822355346253,21,26.1,670.2401733398438,0.13369999825954437,0,0.0,0.0,1.57542003E9,,,,0,,1,0.39,1.57542003E9
Raw,328094696,328161999000000,,,-1457982460431822230,0.8381414413452148,36.51002771221101,43.28461250137991,11.925314201777775,1432,23,0.0,15,137822356414586,16,29.9,484.2477111816406,0.050700001418590546,0,0.0,0.0,1.57542003E9,,,,0,,1,0.39,1.57542003E9
Raw,328094696,328161999000000,,,-1457982460431822230,0.8381414413452148,36.51002771221101,43.28461250137991,11.925314201777775,1432,27,0.0,15,137822363607999,13,31.7,151.8638916015625,0.02970000170171261,0,0.0,0.0,1.57542003E9,,,,0,,1,0.39,1.57542003E9
Raw,328094697,328161999000000,,,-1457982460431822230,0.8381414413452148,36.51002771221101,43.28461250137991,11.925314201777775,1432,8,0.0,15,137808298713928,73,17.9,244.65830993652344,1.69350004196167,0,0.0,0.0,1.56109798E9,,,,0,,5,0.15,1.56109798E9
Raw,328094697,328161999000000,,,-1457982460431822230,0.8381414413452148,36.51002771221101,43.28461250137991,11.925314201777775,1432,13,0.0,15,137808301138782,35,22.2,186.69119262695312,0.6180000305175781,0,0.0,0.0,1.56109798E9,,,,0,,5,0.15,1.56109798E9
Raw,328094698,328161999000000,,,-1457982460431822230,0.8381414413452148,36.51002771221101,43.28461250137991,11.925314201777775,1432,13,0.0,7183,137822352732197,13,31.7,-60.783172607421875,0.04920000210404396,0,0.0,0.0,1.57542003E9,,,,0,,6,0.39,1.57542003E9
Raw,328094698,328161999000000,,,-1457982460431822230,0.8381414413452148,36.51002771221101,43.28461250137991,11.925314201777775,1432,15,0.0,7183,137822347657482,13,31.6,378.74530029296875,0.047700002789497375,0,0.0,0.0,1.57542003E9,,,,0,,6,0.39,1.57542003E9
Raw,328094699,328161999000000,,,-1457982460431822230,0.8381414413452148,36.51002771221101,43.28461250137991,11.925314201777775,1432,21,0.0,7183,137822350348918,11,33.9,90.71528625488281,0.04990000277757645,0,0.0,0.0,1.57542003E9,,,,0,,6,0.39,1.57542003E9
Raw,328094699,328161999000000,,,-1457982460431822230,0.8381414413452148,36.51002771221101,43.28461250137991,11.925314201777775,1432,23,0.0,7183,137822342800551,21,26.0,-405.73504638671875,0.13819999992847443,0,0.0,0.0,1.57542003E9,,,,0,,6,0.39,1.57542003E9
Raw,328094699,328161999000000,,,-1457982460431822230,0.8381414413452148,36.51002771221101,43.28461250137991,11.925314201777775,1432,26,0.0,7183,137822343012935,13,31.8,-418.12579345703125,0.053700003772974014,0,0.0,0.0,1.57542003E9,,,,0,,6,0.39,1.57542003E9
Raw,328094700,328161999000000,,,-1457982460431822230,0.8381414413452148,36.51002771221101,43.28461250137991,11.925314201777775,1432,27,0.0,7183,137822344585211,17,28.5,549.0081787109375,0.05730000138282776,0,0.0,0.0,1.57542003E9,,,,0,,6,0.39,1.57542003E9
Fix,gps,45.064481,7.657316,294.880249,0.000000,3.216000,1774275406000
Raw,328095687,328162999000000,,,-1457982460431822189,0.8759393692016602,34.67293572612107,40.56049321154226,9.911523599792208,1432,2,0.0,207,62205357782276,27,24.5,243.14158630371094,0.8919999599456787,0,0.0,0.0,1.59975002E9,,,,0,,3,-1.29,1.59975002E9
Raw,328095687,328162999000000,,,-1457982460431822189,0.8759393692016602,34.67293572612107,40.56049321154226,9.911523599792208,1432,18,0.0,207,62205364701891,14,30.7,206.15306091308594,0.23180000483989716,0,0.0,0.0,1.60031245E9,,,,0,,3,-1.29,1.60031245E9
Raw,328095688,328162999000000,,,-1457982460431822189,0.8759393692016602,34.67293572612107,40.56049321154226,9.911523599792208,1432,9,0.0,207,62205360841608,13,31.7,36.62848663330078,0.22519999742507935,0,0.0,0.0,1.60087501E9,,,,0,,3,-1.29,1.60087501E9
Raw,328095688,328162999000000,,,-1457982460431822189,0.8759393692016602,34.67293572612107,40.56049321154226,9.911523599792208,1432,16,0.0,207,62205358318630,8,36.2,714.5748291015625,0.24820001423358917,0,0.0,0.0,1.60143744E9,,,,0,,3,-1.29,1.60143744E9
Raw,328095688,328162999000000,,,-1457982460431822189,0.8759393692016602,34.67293572612107,40.56049321154226,9.911523599792208,1432,19,0.0,207,62205361687157,11,33.3,-369.8604736328125,0.22440001368522644,0,0.0,0.0,1.60368755E9,,,,0,,3,-1.29,1.60368755E9
Raw,328095689,328162999000000,,,-1457982460431822189,0.8759393692016602,34.67293572612107,40.56049321154226,9.911523599792208,1432,3,0.0,207,62205359681733,81,16.9,-507.69854736328125,1.4850000143051147,0,0.0,0.0,1.60481254E9,,,,0,,3,-1.29,1.60481254E9
Raw,328095689,328162999000000,,,-1457982460431822189,0.8759393692016602,34.67293572612107,40.56049321154226,9.911523599792208,1432,2,0.0,15,137823357347335,11,33.0,-370.9059753417969,0.04840000346302986,0,0.0,0.0,1.57542003E9,,,,0,,1,0.31,1.57542003E9
Raw,328095690,328162999000000,,,-1457982460431822189,0.8759393692016602,34.67293572612107,40.56049321154226,9.911523599792208,1432,8,0.0,15,137823362411042,17,28.0,-262.01953125,0.03629999980330467,0,0.0,0.0,1.57542003E9,,,,0,,1,0.31,1.57542003E9
Raw,328095690,328162999000000,,,-1457982460431822189,0.8759393692016602,34.67293572612107,40.56049321154226,9.911523599792208,1432,10,0.0,15,137823360384486,19,27.5,42.86383056640625,0.04130000248551369,0,0.0,0.0,1.57542003E9,,,,0,,1,0.31,1.57542003E9
Raw,328095690,328162999000000,,,-1457982460431822189,0.8759393692016602,34.67293572612107,40.56049321154226,9.911523599792208,1432,16,0.0,15,137823355343966,24,25.2,669.9774780273438,0.4043000042438507,0,0.0,0.0,1.57542003E9,,,,0,,1,0.31,1.57542003E9
Raw,328095691,328162999000000,,,-1457982460431822189,0.8759393692016602,34.67293572612107,40.56049321154226,9.911523599792208,1432,23,0.0,15,137823356412934,21,26.3,484.2814636230469,0.13520000874996185,0,0.0,0.0,1.57542003E9,,,,0,,1,0.31,1.57542003E9
Raw,328095691,328162999000000,,,-1457982460431822189,0.8759393692016602,34.67293572612107,40.56049321154226,9.911523599792208,1432,27,0.0,15,137823363607503,11,33.0,151.87106323242188,0.027400000020861626,0,0.0,0.0,1.57542003E9,,,,0,,1,0.31,1.57542003E9
Raw,328095692,328162999000000,,,-1457982460431822189,0.8759393692016602,34.67293572612107,40.56049321154226,9.911523599792208,1432,8,0.0,15,137809298713169,53,19.3,245.10960388183594,0.8134999871253967,0,0.0,0.0,1.56109798E9,,,,0,,5,0.11,1.56109798E9
Raw,328095692,328162999000000,,,-1457982460431822189,0.8759393692016602,34.67293572612107,40.56049321154226,9.911523599792208,1432,13,0.0,15,137809301138176,70,17.0,187.1616973876953,0.9179999828338623,0,0.0,0.0,1.56109798E9,,,,0,,5,0.11,1.56109798E9
Raw,328095693,328162999000000,,,-1457982460431822189,0.8759393692016602,34.67293572612107,40.56049321154226,9.911523599792208,1432,13,0.0,7183,137823352732415,16,29.4,-61.013397216796875,0.050700001418590546,0,0.0,0.0,1.57542003E9,,,,0,,6,0.33,1.57542003E9
Raw,328095693,328162999000000,,,-1457982460431822189,0.8759393692016602,34.67293572612107,40.56049321154226,9.911523599792208,1432,15,0.0,7183,137823347656213,13,31.1,378.55413818359375,0.047700002789497375,0,0.0,0.0,1.57542003E9,,,,0,,6,0.33,1.57542003E9
Raw,328095693,328162999000000,,,-1457982460431822189,0.8759393692016602,34.67293572612107,40.56049321154226,9.911523599792208,1432,21,0.0,7183,137823350348618,9,35.2,90.52664184570312,0.048600003123283386,0,0.0,0.0,1.57542003E9,,,,0,,6,0.33,1.57542003E9
Raw,328095694,328162999000000,,,-1457982460431822189,0.8759393692016602,34.67293572612107,40.56049321154226,9.911523599792208,1432,23,0.0,7183,137823342801988,12,32.0,-405.9151611328125,0.05090000107884407,0,0.0,0.0,1.57542003E9,,,,0,,6,0.33,1.57542003E9
Raw,328095694,328162999000000,,,-1457982460431822189,0.8759393692016602,34.67293572612107,40.56049321154226,9.911523599792208,1432,26,0.0,7183,137823343014329,11,33.4,-418.38958740234375,0.05140000209212303,0,0.0,0.0,1.57542003E9,,,,0,,6,0.33,1.57542003E9
Raw,328095695,328162999000000,,,-1457982460431822189,0.8759393692016602,34.67293572612107,40.56049321154226,9.911523599792208,1432,27,0.0,7183,137823344583386,24,25.4,548.8150024414062,0.4058000147342682,0,0.0,0.0,1.57542003E9,,,,0,,6,0.33,1.57542003E9
Fix,gps,45.064477,7.657316,295.911011,0.000000,3.216000,1774275407000
Raw,328096679,328163999000000,,,-1457982460431822151,0.9037027359008789,37.97783574555069,39.5512749012443,10.98653293740592,1432,2,0.0,207,62206357781481,21,26.7,242.591552734375,0.3366999924182892,0,0.0,0.0,1.59975002E9,,,,0,,3,-1.23,1.59975002E9
Raw,328096679,328163999000000,,,-1457982460431822151,0.9037027359008789,37.97783574555069,39.5512749012443,10.98653293740592,1432,18,0.0,207,62206364701245,13,31.6,205.88612365722656,0.23120000958442688,0,0.0,0.0,1.60031245E9,,,,0,,3,-1.23,1.60031245E9
Raw,328096680,328163999000000,,,-1457982460431822151,0.9037027359008789,37.97783574555069,39.5512749012443,10.98653293740592,1432,9,0.0,207,62206360841476,12,32.9,36.58845520019531,0.22390000522136688,0,0.0,0.0,1.60087501E9,,,,0,,3,-1.23,1.60087501E9
Raw,328096680,328163999000000,,,-1457982460431822151,0.9037027359008789,37.97783574555069,39.5512749012443,10.98653293740592,1432,16,0.0,207,62206358316211,8,36.1,714.3895874023438,0.24820001423358917,0,0.0,0.0,1.60143744E9,,,,0,,3,-1.23,1.60143744E9
Raw,328096681,328163999000000,,,-1457982460431822151,0.9037027359008789,37.97783574555069,39.5512749012443,10.98653293740592,1432,19,0.0,207,62206361688414,11,33.6,-370.029052734375,0.22440001368522644,0,0.0,0.0,1.60368755E9,,,,0,,3,-1.23,1.60368755E9
Raw,328096681,328163999000000,,,-1457982460431822151,0.9037027359008789,37.97783574555069,39.5512749012443,10.98653293740592,1432,3,0.0,207,62206359683468,93,15.8,-506.1667175292969,1.5850000381469727,0,0.0,0.0,1.60481254E9,,,,0,,3,-1.23,1.60481254E9
Raw,328096682,328163999000000,,,-1457982460431822151,0.9037027359008789,37.97783574555069,39.5512749012443,10.98653293740592,1432,2,0.0,15,137824357348543,17,28.9,-371.0351867675781,0.058800000697374344,0,0.0,0.0,1.57542003E9,,,,0,,1,0.41,1.57542003E9
Raw,328096683,328163999000000,,,-1457982460431822151,0.9037027359008789,37.97783574555069,39.5512749012443,10.98653293740592,1432,8,0.0,15,137824362411894,12,32.3,-262.20062255859375,0.026900000870227814,0,0.0,0.0,1.57542003E9,,,,0,,1,0.41,1.57542003E9
Raw,328096683,328163999000000,,,-1457982460431822151,0.9037027359008789,37.97783574555069,39.5512749012443,10.98653293740592,1432,10,0.0,15,137824360384423,21,26.9,42.711639404296875,0.1112000048160553,0,0.0,0.0,1.57542003E9,,,,0,,1,0.41,1.57542003E9
Raw,328096683,328163999000000,,,-1457982460431822151,0.9037027359008789,37.97783574555069,39.5512749012443,10.98653293740592,1432,16,0.0,15,137824355341739,19,27.1,669.8397216796875,0.06379999965429306,0,0.0,0.0,1.57542003E9,,,,0,,1,0.41,1.57542003E9
Raw,328096684,328163999000000,,,-1457982460431822151,0.9037027359008789,37.97783574555069,39.5512749012443,10.98653293740592,1432,23,0.0,15,137824356411322,27,24.9,483.6884460449219,0.640500009059906,0,0.0,0.0,1.57542003E9,,,,0,,1,0.41,1.57542003E9
Raw,328096684,328163999000000,,,-1457982460431822151,0.9037027359008789,37.97783574555069,39.5512749012443,10.98653293740592,1432,27,0.0,15,137824363607005,12,32.3,151.70089721679688,0.0284000001847744,0,0.0,0.0,1.57542003E9,,,,0,,1,0.41,1.57542003E9
Raw,328096685,328163999000000,,,-1457982460431822151,0.9037027359008789,37.97783574555069,39.5512749012443,10.98653293740592,1432,8,0.0,15,137810298712356,80,16.0,245.58969116210938,1.0234999656677246,0,0.0,0.0,1.56109798E9,,,,0,,5,0.12,1.56109798E9
Raw,328096685,328163999000000,,,-1457982460431822151,0.9037027359008789,37.97783574555069,39.5512749012443,10.98653293740592,1432,13,0.0,15,137810301137541,35,22.3,186.39353942871094,0.6180000305175781,0,0.0,0.0,1.56109798E9,,,,0,,5,0.12,1.56109798E9
Raw,328096685,328163999000000,,,-1457982460431822151,0.9037027359008789,37.97783574555069,39.5512749012443,10.98653293740592,1432,13,0.0,7183,137824352732623,14,30.1,-60.974365234375,0.049800001084804535,0,0.0,0.0,1.57542003E9,,,,0,,6,0.33,1.57542003E9
Raw,328096686,328163999000000,,,-1457982460431822151,0.9037027359008789,37.97783574555069,39.5512749012443,10.98653293740592,1432,15,0.0,7183,137824347654971,14,30.5,378.51751708984375,0.04830000177025795,0,0.0,0.0,1.57542003E9,,,,0,,6,0.33,1.57542003E9
