# 
# Header Description:
# 
# Version: v2.0.0.1 Platform: 10 Manufacturer: Xiaomi Model: Redmi Note 7
# 
# Raw,ElapsedRealtimeMillis,TimeNanos,LeapSecond,TimeUncertaintyNanos,FullBiasNanos,BiasNanos,BiasUncertaintyNanos,DriftNanosPerSecond,DriftUncertaintyNanosPerSecond,HardwareClockDiscontinuityCount,Svid,TimeOffsetNanos,State,ReceivedSvTimeNanos,ReceivedSvTimeUncertaintyNanos,Cn0DbHz,PseudorangeRateMetersPerSecond,PseudorangeRateUncertaintyMetersPerSecond,AccumulatedDeltaRangeState,AccumulatedDeltaRangeMeters,AccumulatedDeltaRangeUncertaintyMeters,CarrierFrequencyHz,CarrierCycles,CarrierPhase,CarrierPhaseUncertainty,MultipathIndicator,SnrInDb,ConstellationType,AgcDb,CarrierFrequencyHz
# 
# Fix,Provider,Latitude,Longitude,Altitude,Speed,Accuracy,(UTC)TimeInMs
# 
# Nav,Svid,Type,Status,MessageId,Sub-messageId,Data(Bytes)
# 
Raw,327702664,327769999000000,,,-1457982460431821479,0.633148193359375,30.236697057262063,17.897510273947365,11.054425886527078,1417,2,0.0,207,61812358042288,19,27.9,172.30929565429688,0.26829999685287476,0,0.0,0.0,1.59975002E9,,,,0,,3,0.26,1.59975002E9
Raw,327702664,327769999000000,,,-1457982460431821479,0.633148193359375,30.236697057262063,17.897510273947365,11.054425886527078,1417,18,0.0,207,61812364939876,17,28.8,175.7474365234375,0.23930001258850098,0,0.0,0.0,1.60031245E9,,,,0,,3,0.26,1.60031245E9
Raw,327702664,327769999000000,,,-1457982460431821479,0.633148193359375,30.236697057262063,17.897510273947365,11.054425886527078,1417,9,0.0,207,61812360829664,21,26.4,-36.160404205322266,0.31119999289512634,0,0.0,0.0,1.60087501E9,,,,0,,3,0.26,1.60087501E9
Raw,327702665,327769999000000,,,-1457982460431821479,0.633148193359375,30.236697057262063,17.897510273947365,11.054425886527078,1417,16,0.0,207,61812359216617,12,32.3,673.7182006835938,0.2224000096321106,0,0.0,0.0,1.60143744E9,,,,0,,3,0.26,1.60143744E9
Raw,327702665,327769999000000,,,-1457982460431821479,0.633148193359375,30.236697057262063,17.897510273947365,11.054425886527078,1417,19,0.0,207,61812361173024,13,31.2,-395.7897033691406,0.22670000791549683,0,0.0,0.0,1.60368755E9,,,,0,,3,0.26,1.60368755E9
Raw,327702665,327769999000000,,,-1457982460431821479,0.633148193359375,30.236697057262063,17.897510273947365,11.054425886527078,1417,2,0.0,15,137430356831287,5,40.2,-397.43408203125,0.04340000078082085,0,0.0,0.0,1.57542003E9,,,,0,,1,2.12,1.57542003E9
Raw,327702666,327769999000000,,,-1457982460431821479,0.633148193359375,30.236697057262063,17.897510273947365,11.054425886527078,1417,8,0.0,15,137430362030214,10,34.6,-299.8106384277344,0.025100000202655792,0,0.0,0.0,1.57542003E9,,,,0,,1,2.12,1.57542003E9
Raw,327702666,327769999000000,,,-1457982460431821479,0.633148193359375,30.236697057262063,17.897510273947365,11.054425886527078,1417,10,0.0,15,137430360393983,17,28.5,-9.644082069396973,0.0333000011742115,0,0.0,0.0,1.57542003E9,,,,0,,1,2.12,1.57542003E9
Raw,327702667,327769999000000,,,-1457982460431821479,0.633148193359375,30.236697057262063,17.897510273947365,11.054425886527078,1417,16,0.0,15,137430356192104,16,29.4,642.3652954101562,0.050700001418590546,0,0.0,0.0,1.57542003E9,,,,0,,1,2.12,1.57542003E9
Raw,327702667,327769999000000,,,-1457982460431821479,0.633148193359375,30.236697057262063,17.897510273947365,11.054425886527078,1417,18,0.0,15,137430348115476,40,21.1,599.758056640625,0.8585000038146973,0,0.0,0.0,1.57542003E9,,,,0,,1,2.12,1.57542003E9
Raw,327702667,327769999000000,,,-1457982460431821479,0.633148193359375,30.236697057262063,17.897510273947365,11.054425886527078,1417,23,0.0,15,137430357009615,13,31.9,444.44476318359375,0.050700001418590546,0,0.0,0.0,1.57542003E9,,,,0,,1,2.12,1.57542003E9
Raw,327702668,327769999000000,,,-1457982460431821479,0.633148193359375,30.236697057262063,17.897510273947365,11.054425886527078,1417,27,0.0,15,137430363765112,10,34.2,107.50733947753906,0.026600001379847527,0,0.0,0.0,1.57542003E9,,,,0,,1,2.12,1.57542003E9
Raw,327702668,327769999000000,,,-1457982460431821479,0.633148193359375,30.236697057262063,17.897510273947365,11.054425886527078,1417,8,0.0,15,137416299014329,55,19.4,233.4528045654297,1.565000057220459,0,0.0,0.0,1.56109798E9,,,,0,,5,1.9,1.56109798E9
Raw,327702668,327769999000000,,,-1457982460431821479,0.633148193359375,30.236697057262063,17.897510273947365,11.054425886527078,1417,13,0.0,15,137416301362002,12,32.5,173.32882690429688,0.02540000155568123,0,0.0,0.0,1.56109798E9,,,,0,,5,1.9,1.56109798E9
Raw,327702669,327769999000000,,,-1457982460431821479,0.633148193359375,30.236697057262063,17.897510273947365,11.054425886527078,1417,13,0.0,7183,137430352622935,11,33.1,-87.27958679199219,0.04690000042319298,0,0.0,0.0,1.57542003E9,,,,0,,6,2.26,1.57542003E9
Raw,327702669,327769999000000,,,-1457982460431821479,0.633148193359375,30.236697057262063,17.897510273947365,11.054425886527078,1417,15,0.0,7183,137430348130141,35,22.3,363.0517883300781,0.640500009059906,0,0.0,0.0,1.57542003E9,,,,0,,6,2.26,1.57542003E9
Raw,327702669,327769999000000,,,-1457982460431821479,0.633148193359375,30.236697057262063,17.897510273947365,11.054425886527078,1417,21,0.0,7183,137430350427800,7,37.1,49.11591720581055,0.047600001096725464,0,0.0,0.0,1.57542003E9,,,,0,,6,2.26,1.57542003E9
Raw,327702670,327769999000000,,,-1457982460431821479,0.633148193359375,30.236697057262063,17.897510273947365,11.054425886527078,1417,23,0.0,7183,137430342239255,27,24.6,-433.46044921875,0.5534999966621399,0,0.0,0.0,1.57542003E9,,,,0,,6,2.26,1.57542003E9
Raw,327702670,327769999000000,,,-1457982460431821479,0.633148193359375,30.236697057262063,17.897510273947365,11.054425886527078,1417,26,0.0,7183,137430342442003,17,28.9,-435.87493896484375,0.06030000001192093,0,0.0,0.0,1.57542003E9,,,,0,,6,2.26,1.57542003E9
Raw,327702670,327769999000000,,,-1457982460431821479,0.633148193359375,30.236697057262063,17.897510273947365,11.054425886527078,1417,27,0.0,7183,137430345275418,53,19.3,525.9716796875,0.8119999766349792,0,0.0,0.0,1.57542003E9,,,,0,,6,2.26,1.57542003E9
Fix,gps,45.064787,7.657546,294.211060,0.000000,3.216000,1774275013000
Fix,gps,45.064787,7.657546,294.211304,0.000000,3.216000,1774275014000
Raw,327703686,327770999000000,,,-1457982460431821460,0.3639078140258789,28.973254302400164,19.439099330912654,10.068835308668962,1417,2,0.0,207,61813358041639,14,30.4,171.11973571777344,0.25279998779296875,0,0.0,0.0,1.59975002E9,,,,0,,3,0.17,1.59975002E9
Raw,327703687,327770999000000,,,-1457982460431821460,0.3639078140258789,28.973254302400164,19.439099330912654,10.068835308668962,1417,18,0.0,207,61813364939345,16,29.5,174.44744873046875,0.23270000517368317,0,0.0,0.0,1.60031245E9,,,,0,,3,0.17,1.60031245E9
Raw,327703687,327770999000000,,,-1457982460431821460,0.3639078140258789,28.973254302400164,19.439099330912654,10.068835308668962,1417,9,0.0,207,61813360829733,16,29.4,-37.24338150024414,0.22669999301433563,0,0.0,0.0,1.60087501E9,,,,0,,3,0.17,1.60087501E9
Raw,327703687,327770999000000,,,-1457982460431821460,0.3639078140258789,28.973254302400164,19.439099330912654,10.068835308668962,1417,16,0.0,207,61813359214349,11,33.3,672.5216674804688,0.22140000760555267,0,0.0,0.0,1.60143744E9,,,,0,,3,0.17,1.60143744E9
Raw,327703687,327770999000000,,,-1457982460431821460,0.3639078140258789,28.973254302400164,19.439099330912654,10.068835308668962,1417,19,0.0,207,61813361174337,12,32.7,-397.0493469238281,0.22540001571178436,0,0.0,0.0,1.60368755E9,,,,0,,3,0.17,1.60368755E9
Raw,327703688,327770999000000,,,-1457982460431821460,0.3639078140258789,28.973254302400164,19.439099330912654,10.068835308668962,1417,3,0.0,207,61813358972959,84,16.6,-560.4625854492188,2.2335000038146973,0,0.0,0.0,1.60481254E9,,,,0,,3,0.17,1.60481254E9
Raw,327703688,327770999000000,,,-1457982460431821460,0.3639078140258789,28.973254302400164,19.439099330912654,10.068835308668962,1417,2,0.0,15,137431356832618,6,39.9,-398.6807556152344,0.04360000044107437,0,0.0,0.0,1.57542003E9,,,,0,,1,2.09,1.57542003E9
Raw,327703688,327770999000000,,,-1457982460431821460,0.3639078140258789,28.973254302400164,19.439099330912654,10.068835308668962,1417,8,0.0,15,137431362031208,10,34.2,-301.0913391113281,0.025100000202655792,0,0.0,0.0,1.57542003E9,,,,0,,1,2.09,1.57542003E9
Raw,327703689,327770999000000,,,-1457982460431821460,0.3639078140258789,28.973254302400164,19.439099330912654,10.068835308668962,1417,10,0.0,15,137431360394033,17,28.0,-10.886514663696289,0.0333000011742115,0,0.0,0.0,1.57542003E9,,,,0,,1,2.09,1.57542003E9
Raw,327703689,327770999000000,,,-1457982460431821460,0.3639078140258789,28.973254302400164,19.439099330912654,10.068835308668962,1417,16,0.0,15,137431356190009,19,27.1,640.8794555664062,0.06530000269412994,0,0.0,0.0,1.57542003E9,,,,0,,1,2.09,1.57542003E9
Raw,327703690,327770999000000,,,-1457982460431821460,0.3639078140258789,28.973254302400164,19.439099330912654,10.068835308668962,1417,18,0.0,15,137431348113338,31,23.2,598.435546875,0.7384999990463257,0,0.0,0.0,1.57542003E9,,,,0,,1,2.09,1.57542003E9
Raw,327703690,327770999000000,,,-1457982460431821460,0.3639078140258789,28.973254302400164,19.439099330912654,10.068835308668962,1417,23,0.0,15,137431357008113,12,32.2,443.1046142578125,0.049400001764297485,0,0.0,0.0,1.57542003E9,,,,0,,1,2.09,1.57542003E9
Raw,327703690,327770999000000,,,-1457982460431821460,0.3639078140258789,28.973254302400164,19.439099330912654,10.068835308668962,1417,27,0.0,15,137431363764751,11,33.4,106.23863220214844,0.027400000020861626,0,0.0,0.0,1.57542003E9,,,,0,,1,2.09,1.57542003E9
Raw,327703690,327770999000000,,,-1457982460431821460,0.3639078140258789,28.973254302400164,19.439099330912654,10.068835308668962,1417,8,0.0,15,137417299013478,61,18.4,231.54202270507812,0.875,0,0.0,0.0,1.56109798E9,,,,0,,5,1.84,1.56109798E9
Raw,327703691,327770999000000,,,-1457982460431821460,0.3639078140258789,28.973254302400164,19.439099330912654,10.068835308668962,1417,13,0.0,15,137417301361432,14,30.8,171.91017150878906,0.027300000190734863,0,0.0,0.0,1.56109798E9,,,,0,,5,1.84,1.56109798E9
Raw,327703691,327770999000000,,,-1457982460431821460,0.3639078140258789,28.973254302400164,19.439099330912654,10.068835308668962,1417,13,0.0,7183,137431352623240,12,32.5,-88.53887939453125,0.0479000024497509,0,0.0,0.0,1.57542003E9,,,,0,,6,2.18,1.57542003E9
Raw,327703692,327770999000000,,,-1457982460431821460,0.3639078140258789,28.973254302400164,19.439099330912654,10.068835308668962,1417,15,0.0,7183,137431348128948,24,25.8,361.79180908203125,0.4058000147342682,0,0.0,0.0,1.57542003E9,,,,0,,6,2.18,1.57542003E9
Raw,327703692,327770999000000,,,-1457982460431821460,0.3639078140258789,28.973254302400164,19.439099330912654,10.068835308668962,1417,21,0.0,7183,137431350427635,7,37.1,47.90314483642578,0.047600001096725464,0,0.0,0.0,1.57542003E9,,,,0,,6,2.18,1.57542003E9
Raw,327703693,327770999000000,,,-1457982460431821460,0.3639078140258789,28.973254302400164,19.439099330912654,10.068835308668962,1417,23,0.0,7183,137431342240775,31,23.9,-434.2406311035156,0.6035000085830688,0,0.0,0.0,1.57542003E9,,,,0,,6,2.18,1.57542003E9
Raw,327703693,327770999000000,,,-1457982460431821460,0.3639078140258789,28.973254302400164,19.439099330912654,10.068835308668962,1417,26,0.0,7183,137431342443452,16,29.9,-437.07757568359375,0.053700003772974014,0,0.0,0.0,1.57542003E9,,,,0,,6,2.18,1.57542003E9
Raw,327703693,327770999000000,,,-1457982460431821460,0.3639078140258789,28.973254302400164,19.439099330912654,10.068835308668962,1417,27,0.0,7183,137431345273638,61,18.7,525.7814331054688,0.871999979019165,0,0.0,0.0,1.57542003E9,,,,0,,6,2.18,1.57542003E9
Raw,327704658,327771999000000,,,-1457982460431821446,0.5945167541503906,28.253965865587816,14.926056103607474,11.04646355542012,1417,2,0.0,207,61814358041054,10,34.5,171.49069213867188,0.24910001456737518,0,0.0,0.0,1.59975002E9,,,,0,,3,0.2,1.59975002E9
Raw,327704659,327771999000000,,,-1457982460431821446,0.5945167541503906,28.253965865587816,14.926056103607474,11.04646355542012,1417,18,0.0,207,61814364938804,27,24.5,175.03524780273438,0.872499942779541,0,0.0,0.0,1.60031245E9,,,,0,,3,0.2,1.60031245E9
Raw,327704659,327771999000000,,,-1457982460431821446,0.5945167541503906,28.253965865587816,14.926056103607474,11.04646355542012,1417,9,0.0,207,61814360829838,12,32.7,-36.65153884887695,0.22390000522136688,0,0.0,0.0,1.60087501E9,,,,0,,3,0.2,1.60087501E9
Raw,327704659,327771999000000,,,-1457982460431821446,0.5945167541503906,28.253965865587816,14.926056103607474,11.04646355542012,1417,16,0.0,207,61814359212117,16,29.9,673.186767578125,0.22519999742507935,0,0.0,0.0,1.60143744E9,,,,0,,3,0.2,1.60143744E9
Raw,327704659,327771999000000,,,-1457982460431821446,0.5945167541503906,28.253965865587816,14.926056103607474,11.04646355542012,1417,19,0.0,207,61814361175619,10,34.9,-396.53472900390625,0.22360001504421234,0,0.0,0.0,1.60368755E9,,,,0,,3,0.2,1.60368755E9
Raw,327704659,327771999000000,,,-1457982460431821446,0.5945167541503906,28.253965865587816,14.926056103607474,11.04646355542012,1417,3,0.0,207,61814358975001,27,24.4,-559.0054931640625,0.8934999704360962,0,0.0,0.0,1.60481254E9,,,,0,,3,0.2,1.60481254E9
Raw,327704660,327771999000000,,,-1457982460431821446,0.5945167541503906,28.253965865587816,14.926056103607474,11.04646355542012,1417,2,0.0,15,137432356833929,5,40.1,-398.1150207519531,0.04340000078082085,0,0.0,0.0,1.57542003E9,,,,0,,1,2.15,1.57542003E9
Raw,327704660,327771999000000,,,-1457982460431821446,0.5945167541503906,28.253965865587816,14.926056103607474,11.04646355542012,1417,8,0.0,15,137432362032174,8,36.0,-300.5211486816406,0.02420000173151493,0,0.0,0.0,1.57542003E9,,,,0,,1,2.15,1.57542003E9
Raw,327704660,327771999000000,,,-1457982460431821446,0.5945167541503906,28.253965865587816,14.926056103607474,11.04646355542012,1417,10,0.0,15,137432360394018,11,33.7,-10.415283203125,0.02290000021457672,0,0.0,0.0,1.57542003E9,,,,0,,1,2.15,1.57542003E9
Raw,327704660,327771999000000,,,-1457982460431821446,0.5945167541503906,28.253965865587816,14.926056103607474,11.04646355542012,1417,16,0.0,15,137432356187788,35,22.0,641.3562622070312,0.8104999661445618,0,0.0,0.0,1.57542003E9,,,,0,,1,2.15,1.57542003E9
Raw,327704660,327771999000000,,,-1457982460431821446,0.5945167541503906,28.253965865587816,14.926056103607474,11.04646355542012,1417,18,0.0,15,137432348111636,17,28.5,599.3306884765625,0.04529999941587448,0,0.0,0.0,1.57542003E9,,,,0,,1,2.15,1.57542003E9
Raw,327704660,327771999000000,,,-1457982460431821446,0.5945167541503906,28.253965865587816,14.926056103607474,11.04646355542012,1417,23,0.0,15,137432357006645,11,33.3,443.5776062011719,0.04840000346302986,0,0.0,0.0,1.57542003E9,,,,0,,1,2.15,1.57542003E9
Raw,327704661,327771999000000,,,-1457982460431821446,0.5945167541503906,28.253965865587816,14.926056103607474,11.04646355542012,1417,27,0.0,15,137432363764392,11,33.6,106.71057891845703,0.027400000020861626,0,0.0,0.0,1.57542003E9,,,,0,,1,2.15,1.57542003E9
Raw,327704661,327771999000000,,,-1457982460431821446,0.5945167541503906,28.253965865587816,14.926056103607474,11.04646355542012,1417,8,0.0,15,137418299012745,40,21.4,232.03170776367188,0.6949999928474426,0,0.0,0.0,1.56109798E9,,,,0,,5,1.96,1.56109798E9
Raw,327704661,327771999000000,,,-1457982460431821446,0.5945167541503906,28.253965865587816,14.926056103607474,11.04646355542012,1417,13,0.0,15,137418301360843,14,30.7,172.24853515625,0.027300000190734863,0,0.0,0.0,1.56109798E9,,,,0,,5,1.96,1.56109798E9
Raw,327704661,327771999000000,,,-1457982460431821446,0.5945167541503906,28.253965865587816,14.926056103607474,11.04646355542012,1417,13,0.0,7183,137432352623545,12,32.6,-88.10018157958984,0.0479000024497509,0,0.0,0.0,1.57542003E9,,,,0,,6,2.26,1.57542003E9
Raw,327704661,327771999000000,,,-1457982460431821446,0.5945167541503906,28.253965865587816,14.926056103607474,11.04646355542012,1417,15,0.0,7183,137432348127720,17,28.3,361.954833984375,0.05730000138282776,0,0.0,0.0,1.57542003E9,,,,0,,6,2.26,1.57542003E9
Raw,327704662,327771999000000,,,-1457982460431821446,0.5945167541503906,28.253965865587816,14.926056103607474,11.04646355542012,1417,21,0.0,7183,137432350427472,8,36.5,48.40369415283203,0.04820000380277634,0,0.0,0.0,1.57542003E9,,,,0,,6,2.26,1.57542003E9
Raw,327704662,327771999000000,,,-1457982460431821446,0.5945167541503906,28.253965865587816,14.926056103607474,11.04646355542012,1417,23,0.0,7183,137432342242316,10,34.6,-434.3046569824219,0.04910000041127205,0,0.0,0.0,1.57542003E9,,,,0,,6,2.26,1.57542003E9
Raw,327704662,327771999000000,,,-1457982460431821446,0.5945167541503906,28.253965865587816,14.926056103607474,11.04646355542012,1417,26,0.0,7183,137432342444898,11,33.2,-436.5832824707031,0.04990000277757645,0,0.0,0.0,1.57542003E9,,,,0,,6,2.26,1.57542003E9
Raw,327704663,327771999000000,,,-1457982460431821446,0.5945167541503906,28.253965865587816,14.926056103607474,11.04646355542012,1417,27,0.0,7183,137432345271835,70,17.9,524.4588623046875,0.9419999718666077,0,0.0,0.0,1.57542003E9,,,,0,,6,2.26,1.57542003E9
Fix,gps,45.064787,7.657547,293.943542,0.150000,3.216000,1774275015000
Fix,gps,45.064791,7.657547,294.022583,0.250000,3.216000,1774275016000
Raw,327705689,327772999000000,,,-1457982460431821424,0.18629932403564453,24.54725472489372,16.300514144646705,9.713543720138732,1417,2,0.0,207,61815358040490,12,32.3,172.4691925048828,0.250900000333786,0,0.0,0.0,1.59975002E9,,,,0,,3,0.24,1.59975002E9
Raw,327705689,327772999000000,,,-1457982460431821424,0.18629932403564453,24.54725472489372,16.300514144646705,9.713543720138732,1417,18,0.0,207,61815364938335,27,24.9,175.51295471191406,0.872499942779541,0,0.0,0.0,1.60031245E9,,,,0,,3,0.24,1.60031245E9
Raw,327705690,327772999000000,,,-1457982460431821424,0.18629932403564453,24.54725472489372,16.300514144646705,9.713543720138732,1417,9,0.0,207,61815360829945,12,32.8,-35.990474700927734,0.22390000522136688,0,0.0,0.0,1.60087501E9,,,,0,,3,0.24,1.60087501E9
Raw,327705690,327772999000000,,,-1457982460431821424,0.18629932403564453,24.54725472489372,16.300514144646705,9.713543720138732,1417,16,0.0,207,61815359209852,9,35.0,673.7774658203125,0.22010000050067902,0,0.0,0.0,1.60143744E9,,,,0,,3,0.24,1.60143744E9
Raw,327705691,327772999000000,,,-1457982460431821424,0.18629932403564453,24.54725472489372,16.300514144646705,9.713543720138732,1417,19,0.0,207,61815361176918,7,37.0,-396.04327392578125,0.22210000455379486,0,0.0,0.0,1.60368755E9,,,,0,,3,0.24,1.60368755E9
Raw,327705691,327772999000000,,,-1457982460431821424,0.18629932403564453,24.54725472489372,16.300514144646705,9.713543720138732,1417,3,0.0,207,61815358977044,40,21.3,-558.1368408203125,1.0734999179840088,0,0.0,0.0,1.60481254E9,,,,0,,3,0.24,1.60481254E9
Raw,327705691,327772999000000,,,-1457982460431821424,0.18629932403564453,24.54725472489372,16.300514144646705,9.713543720138732,1417,2,0.0,15,137433356835265,7,37.6,-397.7046203613281,0.044600002467632294,0,0.0,0.0,1.57542003E9,,,,0,,1,2.24,1.57542003E9
Raw,327705692,327772999000000,,,-1457982460431821424,0.18629932403564453,24.54725472489372,16.300514144646705,9.713543720138732,1417,8,0.0,15,137433362033185,10,34.5,-299.9955749511719,0.025100000202655792,0,0.0,0.0,1.57542003E9,,,,0,,1,2.24,1.57542003E9
Raw,327705692,327772999000000,,,-1457982460431821424,0.18629932403564453,24.54725472489372,16.300514144646705,9.713543720138732,1417,10,0.0,15,137433360394028,16,29.5,-9.56644344329834,0.02670000120997429,0,0.0,0.0,1.57542003E9,,,,0,,1,2.24,1.57542003E9
Raw,327705692,327772999000000,,,-1457982460431821424,0.18629932403564453,24.54725472489372,16.300514144646705,9.713543720138732,1417,16,0.0,15,137433356185657,12,32.4,642.2553100585938,0.0479000024497509,0,0.0,0.0,1.57542003E9,,,,0,,1,2.24,1.57542003E9
Raw,327705692,327772999000000,,,-1457982460431821424,0.18629932403564453,24.54725472489372,16.300514144646705,9.713543720138732,1417,18,0.0,15,137433348109691,14,30.5,599.9674072265625,0.398499995470047,0,0.0,0.0,1.57542003E9,,,,0,,1,2.24,1.57542003E9
Raw,327705693,327772999000000,,,-1457982460431821424,0.18629932403564453,24.54725472489372,16.300514144646705,9.713543720138732,1417,23,0.0,15,137433357005147,16,29.9,444.236572265625,0.05220000073313713,0,0.0,0.0,1.57542003E9,,,,0,,1,2.24,1.57542003E9
Raw,327705693,327772999000000,,,-1457982460431821424,0.18629932403564453,24.54725472489372,16.300514144646705,9.713543720138732,1417,26,0.0,15,137433346763068,152,13.9,705.5423583984375,4.485500335693359,0,0.0,0.0,1.57542003E9,,,,0,,1,2.24,1.57542003E9
Raw,327705693,327772999000000,,,-1457982460431821424,0.18629932403564453,24.54725472489372,16.300514144646705,9.713543720138732,1417,27,0.0,15,137433363764056,9,35.6,107.63751983642578,0.026100000366568565,0,0.0,0.0,1.57542003E9,,,,0,,1,2.24,1.57542003E9
Raw,327705694,327772999000000,,,-1457982460431821424,0.18629932403564453,24.54725472489372,16.300514144646705,9.713543720138732,1417,8,0.0,15,137419299012019,21,26.3,232.51345825195312,0.1397000104188919,0,0.0,0.0,1.56109798E9,,,,0,,5,2.01,1.56109798E9
Raw,327705694,327772999000000,,,-1457982460431821424,0.18629932403564453,24.54725472489372,16.300514144646705,9.713543720138732,1417,13,0.0,15,137419301360266,17,28.0,173.0511016845703,0.03480000048875809,0,0.0,0.0,1.56109798E9,,,,0,,5,2.01,1.56109798E9
Raw,327705694,327772999000000,,,-1457982460431821424,0.18629932403564453,24.54725472489372,16.300514144646705,9.713543720138732,1417,13,0.0,7183,137433352623827,9,35.8,-87.5364990234375,0.04560000076889992,0,0.0,0.0,1.57542003E9,,,,0,,6,2.29,1.57542003E9
Raw,327705695,327772999000000,,,-1457982460431821424,0.18629932403564453,24.54725472489372,16.300514144646705,9.713543720138732,1417,15,0.0,7183,137433348126551,31,23.8,363.0613098144531,0.6004999876022339,0,0.0,0.0,1.57542003E9,,,,0,,6,2.29,1.57542003E9
Raw,327705696,327772999000000,,,-1457982460431821424,0.18629932403564453,24.54725472489372,16.300514144646705,9.713543720138732,1417,21,0.0,7183,137433350427305,8,36.8,48.932159423828125,0.04820000380277634,0,0.0,0.0,1.57542003E9,,,,0,,6,2.29,1.57542003E9
Raw,327705696,327772999000000,,,-1457982460431821424,0.18629932403564453,24.54725472489372,16.300514144646705,9.713543720138732,1417,23,0.0,7183,137433342243758,10,34.3,-433.93243408203125,0.04910000041127205,0,0.0,0.0,1.57542003E9,,,,0,,6,2.29,1.57542003E9
Raw,327705696,327772999000000,,,-1457982460431821424,0.18629932403564453,24.54725472489372,16.300514144646705,9.713543720138732,1417,26,0.0,7183,137433342446351,16,29.6,-436.0118713378906,0.053700003772974014,0,0.0,0.0,1.57542003E9,,,,0,,6,2.29,1.57542003E9
Raw,327705696,327772999000000,,,-1457982460431821424,0.18629932403564453,24.54725472489372,16.300514144646705,9.713543720138732,1417,27,0.0,7183,137433345270167,24,25.2,524.9006958007812,0.4072999954223633,0,0.0,0.0,1.57542003E9,,,,0,,6,2.29,1.57542003E9
Fix,gps,45.064798,7.657551,294.234253,0.000000,3.216000,1774275017000
Raw,327706700,327773999000000,,,-1457982460431821404,0.7946052551269531,24.51331602060236,17.929645898734616,10.846651353466362,1417,2,0.0,207,61816358039938,13,31.4,172.63209533691406,0.25220000743865967,0,0.0,0.0,1.59975002E9,,,,0,,3,0.16,1.59975002E9
Raw,327706700,327773999000000,,,-1457982460431821404,0.7946052551269531,24.51331602060236,17.929645898734616,10.846651353466362,1417,18,0.0,207,61816364937665,11,33.1,175.47096252441406,0.2289000153541565,0,0.0,0.0,1.60031245E9,,,,0,,3,0.16,1.60031245E9
Raw,327706701,327773999000000,,,-1457982460431821404,0.7946052551269531,24.51331602060236,17.929645898734616,10.846651353466362,1417,9,0.0,207,61816360830048,17,28.9,-35.85136032104492,0.23330000042915344,0,0.0,0.0,1.60087501E9,,,,0,,3,0.16,1.60087501E9
Raw,327706701,327773999000000,,,-1457982460431821404,0.7946052551269531,24.51331602060236,17.929645898734616,10.846651353466362,1417,16,0.0,207,61816359207603,9,35.7,673.59521484375,0.22010000050067902,0,0.0,0.0,1.60143744E9,,,,0,,3,0.16,1.60143744E9
Raw,327706701,327773999000000,,,-1457982460431821404,0.7946052551269531,24.51331602060236,17.929645898734616,10.846651353466362,1417,19,0.0,207,61816361178239,9,35.2,-395.9784240722656,0.22310000658035278,0,0.0,0.0,1.60368755E9,,,,0,,3,0.16,1.60368755E9
Raw,327706702,327773999000000,,,-1457982460431821404,0.7946052551269531,24.51331602060236,17.929645898734616,10.846651353466362,1417,3,0.0,207,61816358978716,27,24.4,-558.2769165039062,0.8934999704360962,0,0.0,0.0,1.60481254E9,,,,0,,3,0.16,1.60481254E9
Raw,327706702,327773999000000,,,-1457982460431821404,0.7946052551269531,24.51331602060236,17.929645898734616,10.846651353466362,1417,2,0.0,15,137434356836590,8,36.1,-397.6548156738281,0.04520000144839287,0,0.0,0.0,1.57542003E9,,,,0,,1,2.03,1.57542003E9
Raw,327706702,327773999000000,,,-1457982460431821404,0.7946052551269531,24.51331602060236,17.929645898734616,10.846651353466362,1417,8,0.0,15,137434362034192,19,27.3,-300.3327331542969,0.04430000111460686,0,0.0,0.0,1.57542003E9,,,,0,,1,2.03,1.57542003E9
Raw,327706703,327773999000000,,,-1457982460431821404,0.7946052551269531,24.51331602060236,17.929645898734616,10.846651353466362,1417,10,0.0,15,137434360394105,12,32.4,-9.711084365844727,0.023900000378489494,0,0.0,0.0,1.57542003E9,,,,0,,1,2.03,1.57542003E9
Raw,327706704,327773999000000,,,-1457982460431821404,0.7946052551269531,24.51331602060236,17.929645898734616,10.846651353466362,1417,16,0.0,15,137434356183512,8,36.9,641.9503173828125,0.04520000144839287,0,0.0,0.0,1.57542003E9,,,,0,,1,2.03,1.57542003E9
Raw,327706704,327773999000000,,,-1457982460431821404,0.7946052551269531,24.51331602060236,17.929645898734616,10.846651353466362,1417,18,0.0,15,137434348107575,40,21.5,599.74853515625,0.7985000014305115,0,0.0,0.0,1.57542003E9,,,,0,,1,2.03,1.57542003E9
Raw,327706704,327773999000000,,,-1457982460431821404,0.7946052551269531,24.51331602060236,17.929645898734616,10.846651353466362,1417,23,0.0,15,137434357003708,17,28.1,443.8123779296875,0.058800000697374344,0,0.0,0.0,1.57542003E9,,,,0,,1,2.03,1.57542003E9
Raw,327706704,327773999000000,,,-1457982460431821404,0.7946052551269531,24.51331602060236,17.929645898734616,10.846651353466362,1417,27,0.0,15,137434363763702,8,36.0,107.3777084350586,0.025700001046061516,0,0.0,0.0,1.57542003E9,,,,0,,1,2.03,1.57542003E9
Raw,327706705,327773999000000,,,-1457982460431821404,0.7946052551269531,24.51331602060236,17.929645898734616,10.846651353466362,1417,8,0.0,15,137420299011200,24,25.8,232.36813354492188,0.41030001640319824,0,0.0,0.0,1.56109798E9,,,,0,,5,1.86,1.56109798E9
Raw,327706705,327773999000000,,,-1457982460431821404,0.7946052551269531,24.51331602060236,17.929645898734616,10.846651353466362,1417,13,0.0,15,137420301359689,21,26.8,173.51727294921875,0.4580000042915344,0,0.0,0.0,1.56109798E9,,,,0,,5,1.86,1.56109798E9
Raw,327706705,327773999000000,,,-1457982460431821404,0.7946052551269531,24.51331602060236,17.929645898734616,10.846651353466362,1417,13,0.0,7183,137434352624118,10,34.6,-87.58702850341797,0.04610000178217888,0,0.0,0.0,1.57542003E9,,,,0,,6,2.18,1.57542003E9
Raw,327706706,327773999000000,,,-1457982460431821404,0.7946052551269531,24.51331602060236,17.929645898734616,10.846651353466362,1417,15,0.0,7183,137434348125311,17,28.8,362.5283203125,0.05730000138282776,0,0.0,0.0,1.57542003E9,,,,0,,6,2.18,1.57542003E9
Raw,327706706,327773999000000,,,-1457982460431821404,0.7946052551269531,24.51331602060236,17.929645898734616,10.846651353466362,1417,21,0.0,7183,137434350427161,12,32.0,48.944244384765625,0.05090000107884407,0,0.0,0.0,1.57542003E9,,,,0,,6,2.18,1.57542003E9
Raw,327706706,327773999000000,,,-1457982460431821404,0.7946052551269531,24.51331602060236,17.929645898734616,10.846651353466362,1417,23,0.0,7183,137434342245202,21,26.2,-433.5965270996094,0.13819999992847443,0,0.0,0.0,1.57542003E9,,,,0,,6,2.18,1.57542003E9
Raw,327706706,327773999000000,,,-1457982460431821404,0.7946052551269531,24.51331602060236,17.929645898734616,10.846651353466362,1417,26,0.0,7183,137434342447811,17,28.3,-436.337158203125,0.06030000001192093,0,0.0,0.0,1.57542003E9,,,,0,,6,2.18,1.57542003E9
Raw,327706707,327773999000000,,,-1457982460431821404,0.7946052551269531,24.51331602060236,17.929645898734616,10.846651353466362,1417,27,0.0,7183,137434345268382,12,32.5,525.10205078125,0.049400001764297485,0,0.0,0.0,1.57542003E9,,,,0,,6,2.18,1.57542003E9
Raw,327707682,327774999000000,,,-1457982460431821389,0.9341850280761719,25.63439920777455,18.065037338703952,11.371618054727598,1417,2,0.0,207,61817358039183,21,26.0,172.88546752929688,0.8034999966621399,0,0.0,0.0,1.59975002E9,,,,0,,3,0.16,1.59975002E9
Raw,327707683,327774999000000,,,-1457982460431821389,0.9341850280761719,25.63439920777455,18.065037338703952,11.371618054727598,1417,18,0.0,207,61817364937133,17,28.0,175.6825714111328,0.23930001258850098,0,0.0,0.0,1.60031245E9,,,,0,,3,0.16,1.60031245E9
Raw,327707683,327774999000000,,,-1457982460431821389,0.9341850280761719,25.63439920777455,18.065037338703952,11.371618054727598,1417,9,0.0,207,61817360830174,19,27.3,-35.599761962890625,0.24130000174045563,0,0.0,0.0,1.60087501E9,,,,0,,3,0.16,1.60087501E9
Raw,327707684,327774999000000,,,-1457982460431821389,0.9341850280761719,25.63439920777455,18.065037338703952,11.371618054727598,1417,16,0.0,207,61817359205338,10,34.1,673.91162109375,0.22060000896453857,0,0.0,0.0,1.60143744E9,,,,0,,3,0.16,1.60143744E9
Raw,327707684,327774999000000,,,-1457982460431821389,0.9341850280761719,25.63439920777455,18.065037338703952,11.371618054727598,1417,19,0.0,207,61817361179613,12,32.4,-395.8705749511719,0.22540001571178436,0,0.0,0.0,1.60368755E9,,,,0,,3,0.16,1.60368755E9
Raw,327707685,327774999000000,,,-1457982460431821389,0.9341850280761719,25.63439920777455,18.065037338703952,11.371618054727598,1417,3,0.0,207,61817358980560,12,32.3,-558.0739135742188,0.250900000333786,0,0.0,0.0,1.60481254E9,,,,0,,3,0.16,1.60481254E9
Raw,327707685,327774999000000,,,-1457982460431821389,0.9341850280761719,25.63439920777455,18.065037338703952,11.371618054727598,1417,2,0.0,15,137435356837933,11,33.5,-397.50360107421875,0.04690000042319298,0,0.0,0.0,1.57542003E9,,,,0,,1,2.03,1.57542003E9
Raw,327707686,327774999000000,,,-1457982460431821389,0.9341850280761719,25.63439920777455,18.065037338703952,11.371618054727598,1417,8,0.0,15,137435362035199,12,32.1,-299.8686218261719,0.026900000870227814,0,0.0,0.0,1.57542003E9,,,,0,,1,2.03,1.57542003E9
Raw,327707686,327774999000000,,,-1457982460431821389,0.9341850280761719,25.63439920777455,18.065037338703952,11.371618054727598,1417,10,0.0,15,137435360394100,10,34.4,-9.39030933380127,0.022099999710917473,0,0.0,0.0,1.57542003E9,,,,0,,1,2.03,1.57542003E9
Raw,327707687,327774999000000,,,-1457982460431821389,0.9341850280761719,25.63439920777455,18.065037338703952,11.371618054727598,1417,16,0.0,15,137435356181362,7,37.9,642.3131103515625,0.044600002467632294,0,0.0,0.0,1.57542003E9,,,,0,,1,2.03,1.57542003E9
Raw,327707687,327774999000000,,,-1457982460431821389,0.9341850280761719,25.63439920777455,18.065037338703952,11.371618054727598,1417,18,0.0,15,137435348105489,53,19.5,599.3679809570312,0.9284999966621399,0,0.0,0.0,1.57542003E9,,,,0,,1,2.03,1.57542003E9
Raw,327707687,327774999000000,,,-1457982460431821389,0.9341850280761719,25.63439920777455,18.065037338703952,11.371618054727598,1417,23,0.0,15,137435357002177,16,29.9,444.5154113769531,0.05220000073313713,0,0.0,0.0,1.57542003E9,,,,0,,1,2.03,1.57542003E9
Raw,327707688,327774999000000,,,-1457982460431821389,0.9341850280761719,25.63439920777455,18.065037338703952,11.371618054727598,1417,27,0.0,15,137435363763347,9,35.9,107.64488220214844,0.026100000366568565,0,0.0,0.0,1.57542003E9,,,,0,,1,2.03,1.57542003E9
Raw,327707689,327774999000000,,,-1457982460431821389,0.9341850280761719,25.63439920777455,18.065037338703952,11.371618054727598,1417,8,0.0,15,137421299010429,27,24.5,232.531005859375,0.5550000071525574,0,0.0,0.0,1.56109798E9,,,,0,,5,1.89,1.56109798E9
Raw,327707690,327774999000000,,,-1457982460431821389,0.9341850280761719,25.63439920777455,18.065037338703952,11.371618054727598,1417,13,0.0,15,137421301359124,27,24.0,173.16201782226562,0.527999997138977,0,0.0,0.0,1.56109798E9,,,,0,,5,1.89,1.56109798E9
Raw,327707690,327774999000000,,,-1457982460431821389,0.9341850280761719,25.63439920777455,18.065037338703952,11.371618054727598,1417,13,0.0,7183,137435352624407,11,33.2,-87.44261169433594,0.04690000042319298,0,0.0,0.0,1.57542003E9,,,,0,,6,2.22,1.57542003E9
Raw,327707691,327774999000000,,,-1457982460431821389,0.9341850280761719,25.63439920777455,18.065037338703952,11.371618054727598,1417,15,0.0,7183,137435348124107,35,22.3,363.1088562011719,0.640500009059906,0,0.0,0.0,1.57542003E9,,,,0,,6,2.22,1.57542003E9
Raw,327707691,327774999000000,,,-1457982460431821389,0.9341850280761719,25.63439920777455,18.065037338703952,11.371618054727598,1417,21,0.0,7183,137435350426983,16,29.7,49.13080978393555,0.053700003772974014,0,0.0,0.0,1.57542003E9,,,,0,,6,2.22,1.57542003E9
Raw,327707691,327774999000000,,,-1457982460431821389,0.9341850280761719,25.63439920777455,18.065037338703952,11.371618054727598,1417,23,0.0,7183,137435342246627,16,29.6,-433.57568359375,0.053700003772974014,0,0.0,0.0,1.57542003E9,,,,0,,6,2.22,1.57542003E9
Raw,327707692,327774999000000,,,-1457982460431821389,0.9341850280761719,25.63439920777455,18.065037338703952,11.371618054727598,1417,26,0.0,7183,137435342449270,21,26.5,-436.1872863769531,0.13819999992847443,0,0.0,0.0,1.57542003E9,,,,0,,6,2.22,1.57542003E9
Raw,327707693,327774999000000,,,-1457982460431821389,0.9341850280761719,25.63439920777455,18.065037338703952,11.371618054727598,1417,27,0.0,7183,137435345266650,13,31.5,525.4065551757812,0.050700001418590546,0,0.0,0.0,1.57542003E9,,,,0,,6,2.22,1.57542003E9
Fix,gps,45.064803,7.657548,294.756226,0.000000,3.216000,1774275018000
Fix,gps,45.064806,7.657547,294.907227,0.000000,3.216000,1774275019000
Raw,327708695,327775999000000,,,-1457982460431821368,0.4679851531982422,28.58411244233139,18.652433423894095,11.615312944271333,1417,2,0.0,207,61818358038709,14,30.3,172.6043701171875,0.643500030040741,0,0.0,0.0,1.59975002E9,,,,0,,3,0.17,1.59975002E9
Raw,327708695,327775999000000,,,-1457982460431821368,0.4679851531982422,28.58411244233139,18.652433423894095,11.615312944271333,1417,18,0.0,207,61818364936520,11,33.1,175.45535278320312,0.2289000153541565,0,0.0,0.0,1.60031245E9,,,,0,,3,0.17,1.60031245E9
Raw,327708696,327775999000000,,,-1457982460431821368,0.4679851531982422,28.58411244233139,18.652433423894095,11.615312944271333,1417,9,0.0,207,61818360830224,17,28.8,-35.774471282958984,0.23330000042915344,0,0.0,0.0,1.60087501E9,,,,0,,3,0.17,1.60087501E9
Raw,327708697,327775999000000,,,-1457982460431821368,0.4679851531982422,28.58411244233139,18.652433423894095,11.615312944271333,1417,16,0.0,207,61818359203087,9,35.3,673.6777954101562,0.22010000050067902,0,0.0,0.0,1.60143744E9,,,,0,,3,0.17,1.60143744E9
Raw,327708698,327775999000000,,,-1457982460431821368,0.4679851531982422,28.58411244233139,18.652433423894095,11.615312944271333,1417,19,0.0,207,61818361180909,12,32.6,-396.11236572265625,0.22540001571178436,0,0.0,0.0,1.60368755E9,,,,0,,3,0.17,1.60368755E9
Raw,327708698,327775999000000,,,-1457982460431821368,0.4679851531982422,28.58411244233139,18.652433423894095,11.615312944271333,1417,3,0.0,207,61818358982584,35,22.7,-557.865966796875,1.0134999752044678,0,0.0,0.0,1.60481254E9,,,,0,,3,0.17,1.60481254E9
Raw,327708698,327775999000000,,,-1457982460431821368,0.4679851531982422,28.58411244233139,18.652433423894095,11.615312944271333,1417,2,0.0,15,137436356839252,9,35.0,-397.7086181640625,0.04560000076889992,0,0.0,0.0,1.57542003E9,,,,0,,1,2.15,1.57542003E9
Raw,327708699,327775999000000,,,-1457982460431821368,0.4679851531982422,28.58411244233139,18.652433423894095,11.615312944271333,1417,8,0.0,15,137436362036222,19,27.3,-300.0670166015625,0.04430000111460686,0,0.0,0.0,1.57542003E9,,,,0,,1,2.15,1.57542003E9
Raw,327708699,327775999000000,,,-1457982460431821368,0.4679851531982422,28.58411244233139,18.652433423894095,11.615312944271333,1417,10,0.0,15,137436360394125,13,31.7,-9.60569953918457,0.025200000032782555,0,0.0,0.0,1.57542003E9,,,,0,,1,2.15,1.57542003E9
Raw,327708699,327775999000000,,,-1457982460431821368,0.4679851531982422,28.58411244233139,18.652433423894095,11.615312944271333,1417,16,0.0,15,137436356179244,9,35.8,642.0888671875,0.04560000076889992,0,0.0,0.0,1.57542003E9,,,,0,,1,2.15,1.57542003E9
Raw,327708699,327775999000000,,,-1457982460431821368,0.4679851531982422,28.58411244233139,18.652433423894095,11.615312944271333,1417,18,0.0,15,137436348103783,61,18.7,598.3308715820312,1.0084999799728394,0,0.0,0.0,1.57542003E9,,,,0,,1,2.15,1.57542003E9
Raw,327708700,327775999000000,,,-1457982460431821368,0.4679851531982422,28.58411244233139,18.652433423894095,11.615312944271333,1417,23,0.0,15,137436357000796,40,21.1,445.34429931640625,0.871999979019165,0,0.0,0.0,1.57542003E9,,,,0,,1,2.15,1.57542003E9
Raw,327708700,327775999000000,,,-1457982460431821368,0.4679851531982422,28.58411244233139,18.652433423894095,11.615312944271333,1417,26,0.0,15,137436346756288,102,15.8,705.5042724609375,2.765500068664551,0,0.0,0.0,1.57542003E9,,,,0,,1,2.15,1.57542003E9
Raw,327708700,327775999000000,,,-1457982460431821368,0.4679851531982422,28.58411244233139,18.652433423894095,11.615312944271333,1417,27,0.0,15,137436363762993,10,34.8,107.41679382324219,0.026600001379847527,0,0.0,0.0,1.57542003E9,,,,0,,1,2.15,1.57542003E9
Raw,327708701,327775999000000,,,-1457982460431821368,0.4679851531982422,28.58411244233139,18.652433423894095,11.615312944271333,1417,8,0.0,15,137422299009669,19,27.5,232.2742919921875,0.06980000436306,0,0.0,0.0,1.56109798E9,,,,0,,5,1.92,1.56109798E9
Raw,327708701,327775999000000,,,-1457982460431821368,0.4679851531982422,28.58411244233139,18.652433423894095,11.615312944271333,1417,13,0.0,15,137422301358536,17,28.1,172.7422332763672,0.03480000048875809,0,0.0,0.0,1.56109798E9,,,,0,,5,1.92,1.56109798E9
Raw,327708701,327775999000000,,,-1457982460431821368,0.4679851531982422,28.58411244233139,18.652433423894095,11.615312944271333,1417,13,0.0,7183,137436352624700,11,33.0,-87.60187530517578,0.04690000042319298,0,0.0,0.0,1.57542003E9,,,,0,,6,2.22,1.57542003E9
Raw,327708702,327775999000000,,,-1457982460431821368,0.4679851531982422,28.58411244233139,18.652433423894095,11.615312944271333,1417,15,0.0,7183,137436348122866,27,24.0,362.5475158691406,0.5504999756813049,0,0.0,0.0,1.57542003E9,,,,0,,6,2.22,1.57542003E9
Raw,327708702,327775999000000,,,-1457982460431821368,0.4679851531982422,28.58411244233139,18.652433423894095,11.615312944271333,1417,21,0.0,7183,137436350426806,13,31.1,49.047183990478516,0.05220000073313713,0,0.0,0.0,1.57542003E9,,,,0,,6,2.22,1.57542003E9
Raw,327708702,327775999000000,,,-1457982460431821368,0.4679851531982422,28.58411244233139,18.652433423894095,11.615312944271333,1417,23,0.0,7183,137436342248081,27,24.6,-434.20257568359375,0.5534999966621399,0,0.0,0.0,1.57542003E9,,,,0,,6,2.22,1.57542003E9
Raw,327708702,327775999000000,,,-1457982460431821368,0.4679851531982422,28.58411244233139,18.652433423894095,11.615312944271333,1417,26,0.0,7183,137436342450734,14,30.2,-436.291259765625,0.052800003439188004,0,0.0,0.0,1.57542003E9,,,,0,,6,2.22,1.57542003E9
Raw,327708703,327775999000000,,,-1457982460431821368,0.4679851531982422,28.58411244233139,18.652433423894095,11.615312944271333,1417,27,0.0,7183,137436345264881,12,32.7,525.220703125,0.049400001764297485,0,0.0,0.0,1.57542003E9,,,,0,,6,2.22,1.57542003E9
Fix,gps,45.064810,7.657548,294.765015,0.290000,3.216000,1774275020000
Raw,327709692,327776999000000,,,-1457982460431821353,0.7565765380859375,29.124295906512998,17.206538671507122,11.274030986662016,1417,2,0.0,207,61819358038224,17,28.7,172.61338806152344,0.26030001044273376,0,0.0,0.0,1.59975002E9,,,,0,,3,0.27,1.59975002E9
Raw,327709693,327776999000000,,,-1457982460431821353,0.7565765380859375,29.124295906512998,17.206538671507122,11.274030986662016,1417,18,0.0,207,61819364935880,12,32.9,175.1548309326172,0.22990001738071442,0,0.0,0.0,1.60031245E9,,,,0,,3,0.27,1.60031245E9
Raw,327709694,327776999000000,,,-1457982460431821353,0.7565765380859375,29.124295906512998,17.206538671507122,11.274030986662016,1417,9,0.0,207,61819360830408,17,28.4,-35.852317810058594,0.23330000042915344,0,0.0,0.0,1.60087501E9,,,,0,,3,0.27,1.60087501E9
Raw,327709694,327776999000000,,,-1457982460431821353,0.7565765380859375,29.124295906512998,17.206538671507122,11.274030986662016,1417,16,0.0,207,61819359200881,9,35.1,673.48486328125,0.22010000050067902,0,0.0,0.0,1.60143744E9,,,,0,,3,0.27,1.60143744E9
Raw,327709695,327776999000000,,,-1457982460431821353,0.7565765380859375,29.124295906512998,17.206538671507122,11.274030986662016,1417,19,0.0,207,61819361182164,13,31.3,-396.3765869140625,0.22670000791549683,0,0.0,0.0,1.60368755E9,,,,0,,3,0.27,1.60368755E9
Raw,327709695,327776999000000,,,-1457982460431821353,0.7565765380859375,29.124295906512998,17.206538671507122,11.274030986662016,1417,3,0.0,207,61819358984465,40,21.6,-557.9033203125,1.0734999179840088,0,0.0,0.0,1.60481254E9,,,,0,,3,0.27,1.60481254E9
Raw,327709695,327776999000000,,,-1457982460431821353,0.7565765380859375,29.124295906512998,17.206538671507122,11.274030986662016,1417,2,0.0,15,137437356840546,10,34.6,-398.0168762207031,0.04610000178217888,0,0.0,0.0,1.57542003E9,,,,0,,1,2.24,1.57542003E9
Raw,327709696,327776999000000,,,-1457982460431821353,0.7565765380859375,29.124295906512998,17.206538671507122,11.274030986662016,1417,8,0.0,15,137437362037214,11,33.2,-300.2813720703125,0.02590000070631504,0,0.0,0.0,1.57542003E9,,,,0,,1,2.24,1.57542003E9
Raw,327709697,327776999000000,,,-1457982460431821353,0.7565765380859375,29.124295906512998,17.206538671507122,11.274030986662016,1417,10,0.0,15,137437360394176,12,32.8,-9.779132843017578,0.023900000378489494,0,0.0,0.0,1.57542003E9,,,,0,,1,2.24,1.57542003E9
Raw,327709698,327776999000000,,,-1457982460431821353,0.7565765380859375,29.124295906512998,17.206538671507122,11.274030986662016,1417,16,0.0,15,137437356177092,7,37.7,641.9085693359375,0.044600002467632294,0,0.0,0.0,1.57542003E9,,,,0,,1,2.24,1.57542003E9
Raw,327709699,327776999000000,,,-1457982460431821353,0.7565765380859375,29.124295906512998,17.206538671507122,11.274030986662016,1417,18,0.0,15,137437348101607,31,23.7,599.3013916015625,0.6784999966621399,0,0.0,0.0,1.57542003E9,,,,0,,1,2.24,1.57542003E9
Raw,327709699,327776999000000,,,-1457982460431821353,0.7565765380859375,29.124295906512998,17.206538671507122,11.274030986662016,1417,23,0.0,15,137437356999238,21,26.6,444.0859680175781,0.13520000874996185,0,0.0,0.0,1.57542003E9,,,,0,,1,2.24,1.57542003E9
Raw,327709700,327776999000000,,,-1457982460431821353,0.7565765380859375,29.124295906512998,17.206538671507122,11.274030986662016,1417,26,0.0,15,137437346753913,61,18.3,705.9514770507812,1.0855000019073486,0,0.0,0.0,1.57542003E9,,,,0,,1,2.24,1.57542003E9
Raw,327709700,327776999000000,,,-1457982460431821353,0.7565765380859375,29.124295906512998,17.206538671507122,11.274030986662016,1417,27,0.0,15,137437363762630,10,34.2,107.23231506347656,0.026600001379847527,0,0.0,0.0,1.57542003E9,,,,0,,1,2.24,1.57542003E9
Raw,327709700,327776999000000,,,-1457982460431821353,0.7565765380859375,29.124295906512998,17.206538671507122,11.274030986662016,1417,8,0.0,15,137423299008889,27,24.5,231.85887145996094,0.5550000071525574,0,0.0,0.0,1.56109798E9,,,,0,,5,1.99,1.56109798E9
Raw,327709701,327776999000000,,,-1457982460431821353,0.7565765380859375,29.124295906512998,17.206538671507122,11.274030986662016,1417,13,0.0,15,137423301357975,17,28.2,172.4437713623047,0.03480000048875809,0,0.0,0.0,1.56109798E9,,,,0,,5,1.99,1.56109798E9
Raw,327709701,327776999000000,,,-1457982460431821353,0.7565765380859375,29.124295906512998,17.206538671507122,11.274030986662016,1417,13,0.0,7183,137437352624993,13,31.2,-87.71835327148438,0.04920000210404396,0,0.0,0.0,1.57542003E9,,,,0,,6,2.33,1.57542003E9
Raw,327709701,327776999000000,,,-1457982460431821353,0.7565765380859375,29.124295906512998,17.206538671507122,11.274030986662016,1417,15,0.0,7183,137437348121662,19,27.1,362.42364501953125,0.06530000269412994,0,0.0,0.0,1.57542003E9,,,,0,,6,2.33,1.57542003E9
Raw,327709702,327776999000000,,,-1457982460431821353,0.7565765380859375,29.124295906512998,17.206538671507122,11.274030986662016,1417,21,0.0,7183,137437350426640,11,33.4,48.935001373291016,0.04990000277757645,0,0.0,0.0,1.57542003E9,,,,0,,6,2.33,1.57542003E9
Raw,327709702,327776999000000,,,-1457982460431821353,0.7565765380859375,29.124295906512998,17.206538671507122,11.274030986662016,1417,23,0.0,7183,137437342249564,19,27.6,-433.90423583984375,0.06830000132322311,0,0.0,0.0,1.57542003E9,,,,0,,6,2.33,1.57542003E9
Raw,327709703,327776999000000,,,-1457982460431821353,0.7565765380859375,29.124295906512998,17.206538671507122,11.274030986662016,1417,26,0.0,7183,137437342452196,17,28.3,-436.3896484375,0.06030000001192093,0,0.0,0.0,1.57542003E9,,,,0,,6,2.33,1.57542003E9
Raw,327709703,327776999000000,,,-1457982460431821353,0.7565765380859375,29.124295906512998,17.206538671507122,11.274030986662016,1417,27,0.0,7183,137437345263134,12,32.5,525.1861572265625,0.049400001764297485,0,0.0,0.0,1.57542003E9,,,,0,,6,2.33,1.57542003E9
Raw,327710691,327777999000000,,,-1457982460431821337,0.6561155319213867,30.252684155129828,15.282888147127133,11.434428377190288,1417,2,0.0,207,61820358037702,24,25.7,172.99859619140625,0.6087999939918518,0,0.0,0.0,1.59975002E9,,,,0,,3,-0.56,1.59975002E9
Raw,327710691,327777999000000,,,-1457982460431821337,0.6561155319213867,30.252684155129828,15.282888147127133,11.434428377190288,1417,18,0.0,207,61820364935211,13,31.2,175.6801300048828,0.23120000958442688,0,0.0,0.0,1.60031245E9,,,,0,,3,-0.56,1.60031245E9
Raw,327710692,327777999000000,,,-1457982460431821337,0.6561155319213867,30.252684155129828,15.282888147127133,11.434428377190288,1417,9,0.0,207,61820360830568,24,25.4,-35.22260665893555,0.5817999839782715,0,0.0,0.0,1.60087501E9,,,,0,,3,-0.56,1.60087501E9
Raw,327710692,327777999000000,,,-1457982460431821337,0.6561155319213867,30.252684155129828,15.282888147127133,11.434428377190288,1417,16,0.0,207,61820359198699,17,28.9,674.002197265625,0.23180000483989716,0,0.0,0.0,1.60143744E9,,,,0,,3,-0.56,1.60143744E9
Raw,327710693,327777999000000,,,-1457982460431821337,0.6561155319213867,30.252684155129828,15.282888147127133,11.434428377190288,1417,19,0.0,207,61820361183494,14,30.9,-395.9056701660156,0.2273000031709671,0,0.0,0.0,1.60368755E9,,,,0,,3,-0.56,1.60368755E9
Raw,327710693,327777999000000,,,-1457982460431821337,0.6561155319213867,30.252684155129828,15.282888147127133,11.434428377190288,1417,2,0.0,15,137438356841893,11,33.0,-397.54766845703125,0.04690000042319298,0,0.0,0.0,1.57542003E9,,,,0,,1,1.39,1.57542003E9
Raw,327710693,327777999000000,,,-1457982460431821337,0.6561155319213867,30.252684155129828,15.282888147127133,11.434428377190288,1417,8,0.0,15,137438362038218,13,31.5,-299.7696228027344,0.028200000524520874,0,0.0,0.0,1.57542003E9,,,,0,,1,1.39,1.57542003E9
Raw,327710694,327777999000000,,,-1457982460431821337,0.6561155319213867,30.252684155129828,15.282888147127133,11.434428377190288,1417,10,0.0,15,137438360394210,12,32.2,-9.291497230529785,0.023900000378489494,0,0.0,0.0,1.57542003E9,,,,0,,1,1.39,1.57542003E9
Raw,327710694,327777999000000,,,-1457982460431821337,0.6561155319213867,30.252684155129828,15.282888147127133,11.434428377190288,1417,16,0.0,15,137438356174941,8,36.6,642.317626953125,0.04520000144839287,0,0.0,0.0,1.57542003E9,,,,0,,1,1.39,1.57542003E9
Raw,327710695,327777999000000,,,-1457982460431821337,0.6561155319213867,30.252684155129828,15.282888147127133,11.434428377190288,1417,18,0.0,15,137438348099725,35,22.4,599.47265625,0.7985000014305115,0,0.0,0.0,1.57542003E9,,,,0,,1,1.39,1.57542003E9
Raw,327710695,327777999000000,,,-1457982460431821337,0.6561155319213867,30.252684155129828,15.282888147127133,11.434428377190288,1417,23,0.0,15,137438356997719,27,24.9,444.5450744628906,0.640500009059906,0,0.0,0.0,1.57542003E9,,,,0,,1,1.39,1.57542003E9
Raw,327710695,327777999000000,,,-1457982460431821337,0.6561155319213867,30.252684155129828,15.282888147127133,11.434428377190288,1417,27,0.0,15,137438363762227,12,32.0,107.69882202148438,0.0284000001847744,0,0.0,0.0,1.57542003E9,,,,0,,1,1.39,1.57542003E9
Raw,327710696,327777999000000,,,-1457982460431821337,0.6561155319213867,30.252684155129828,15.282888147127133,11.434428377190288,1417,8,0.0,15,137424299008110,19,27.9,232.4917755126953,0.06980000436306,0,0.0,0.0,1.56109798E9,,,,0,,5,1.47,1.56109798E9
Raw,327710696,327777999000000,,,-1457982460431821337,0.6561155319213867,30.252684155129828,15.282888147127133,11.434428377190288,1417,13,0.0,15,137424301357345,31,23.6,173.18121337890625,0.578000009059906,0,0.0,0.0,1.56109798E9,,,,0,,5,1.47,1.56109798E9
Raw,327710696,327777999000000,,,-1457982460431821337,0.6561155319213867,30.252684155129828,15.282888147127133,11.434428377190288,1417,13,0.0,7183,137438352625293,21,26.8,-87.53578186035156,0.13520000874996185,0,0.0,0.0,1.57542003E9,,,,0,,6,1.52,1.57542003E9
Raw,327710697,327777999000000,,,-1457982460431821337,0.6561155319213867,30.252684155129828,15.282888147127133,11.434428377190288,1417,15,0.0,7183,137438348120504,21,26.3,362.5655517578125,0.13520000874996185,0,0.0,0.0,1.57542003E9,,,,0,,6,1.52,1.57542003E9
Raw,327710697,327777999000000,,,-1457982460431821337,0.6561155319213867,30.252684155129828,15.282888147127133,11.434428377190288,1417,21,0.0,7183,137438350426485,12,32.9,49.192596435546875,0.05090000107884407,0,0.0,0.0,1.57542003E9,,,,0,,6,1.52,1.57542003E9
Raw,327710697,327777999000000,,,-1457982460431821337,0.6561155319213867,30.252684155129828,15.282888147127133,11.434428377190288,1417,23,0.0,7183,137438342250968,13,31.1,-433.6727600097656,0.05220000073313713,0,0.0,0.0,1.57542003E9,,,,0,,6,1.52,1.57542003E9
Raw,327710699,327777999000000,,,-1457982460431821337,0.6561155319213867,30.252684155129828,15.282888147127133,11.434428377190288,1417,26,0.0,7183,137438342453644,16,29.8,-436.2162780761719,0.053700003772974014,0,0.0,0.0,1.57542003E9,,,,0,,6,1.52,1.57542003E9
Raw,327710699,327777999000000,,,-1457982460431821337,0.6561155319213867,30.252684155129828,15.282888147127133,11.434428377190288,1417,27,0.0,7183,137438345261373,11,33.7,525.317626953125,0.04840000346302986,0,0.0,0.0,1.57542003E9,,,,0,,6,1.52,1.57542003E9
Fix,gps,45.064812,7.657547,295.083862,0.000000,3.216000,1774275021000
Fix,gps,45.064814,7.657548,294.679932,0.000000,3.216000,1774275022000
Raw,327711687,327778999000000,,,-1457982460431821313,0.2595548629760742,31.177194614429027,17.25792004267755,9.88261362572108,1417,2,0.0,207,61821358037054,14,30.3,173.5931854248047,0.25279998779296875,0,0.0,0.0,1.59975002E9,,,,0,,3,-1.15,1.59975002E9
Raw,327711688,327778999000000,,,-1457982460431821313,0.2595548629760742,31.177194614429027,17.25792004267755,9.88261362572108,1417,18,0.0,207,61821364934739,19,27.8,175.88316345214844,0.24730001389980316,0,0.0,0.0,1.60031245E9,,,,0,,3,-1.15,1.60031245E9
Raw,327711688,327778999000000,,,-1457982460431821313,0.2595548629760742,31.177194614429027,17.25792004267755,9.88261362572108,1417,9,0.0,207,61821360830719,21,26.6,-35.08865737915039,0.31119999289512634,0,0.0,0.0,1.60087501E9,,,,0,,3,-1.15,1.60087501E9
Raw,327711688,327778999000000,,,-1457982460431821313,0.2595548629760742,31.177194614429027,17.25792004267755,9.88261362572108,1417,16,0.0,207,61821359196495,27,24.2,673.6561279296875,0.8649999499320984,0,0.0,0.0,1.60143744E9,,,,0,,3,-1.15,1.60143744E9
Raw,327711689,327778999000000,,,-1457982460431821313,0.2595548629760742,31.177194614429027,17.25792004267755,9.88261362572108,1417,19,0.0,207,61821361184876,13,31.1,-395.7807922363281,0.22670000791549683,0,0.0,0.0,1.60368755E9,,,,0,,3,-1.15,1.60368755E9
Raw,327711689,327778999000000,,,-1457982460431821313,0.2595548629760742,31.177194614429027,17.25792004267755,9.88261362572108,1417,3,0.0,207,61821358987839,64,18.6,-557.46435546875,2.053499937057495,0,0.0,0.0,1.60481254E9,,,,0,,3,-1.15,1.60481254E9
Raw,327711689,327778999000000,,,-1457982460431821313,0.2595548629760742,31.177194614429027,17.25792004267755,9.88261362572108,1417,2,0.0,15,137439356843200,6,38.2,-397.4610290527344,0.04410000145435333,0,0.0,0.0,1.57542003E9,,,,0,,1,1.06,1.57542003E9
Raw,327711689,327778999000000,,,-1457982460431821313,0.2595548629760742,31.177194614429027,17.25792004267755,9.88261362572108,1417,8,0.0,15,137439362039187,9,35.4,-299.596435546875,0.02460000105202198,0,0.0,0.0,1.57542003E9,,,,0,,1,1.06,1.57542003E9
Raw,327711690,327778999000000,,,-1457982460431821313,0.2595548629760742,31.177194614429027,17.25792004267755,9.88261362572108,1417,10,0.0,15,137439360394224,35,22.1,-9.286331176757812,0.7864999771118164,0,0.0,0.0,1.57542003E9,,,,0,,1,1.06,1.57542003E9
Raw,327711690,327778999000000,,,-1457982460431821313,0.2595548629760742,31.177194614429027,17.25792004267755,9.88261362572108,1417,16,0.0,15,137439356172794,7,37.1,642.4640502929688,0.044600002467632294,0,0.0,0.0,1.57542003E9,,,,0,,1,1.06,1.57542003E9
Raw,327711690,327778999000000,,,-1457982460431821313,0.2595548629760742,31.177194614429027,17.25792004267755,9.88261362572108,1417,18,0.0,15,137439348097635,27,24.5,599.9769287109375,0.6285000443458557,0,0.0,0.0,1.57542003E9,,,,0,,1,1.06,1.57542003E9
Raw,327711691,327778999000000,,,-1457982460431821313,0.2595548629760742,31.177194614429027,17.25792004267755,9.88261362572108,1417,23,0.0,15,137439356996145,46,20.9,444.9732360839844,0.8704999685287476,0,0.0,0.0,1.57542003E9,,,,0,,1,1.06,1.57542003E9
Raw,327711691,327778999000000,,,-1457982460431821313,0.2595548629760742,31.177194614429027,17.25792004267755,9.88261362572108,1417,27,0.0,15,137439363761910,17,28.5,107.9573745727539,0.03779999911785126,0,0.0,0.0,1.57542003E9,,,,0,,1,1.06,1.57542003E9
Raw,327711691,327778999000000,,,-1457982460431821313,0.2595548629760742,31.177194614429027,17.25792004267755,9.88261362572108,1417,8,0.0,15,137425299007331,21,26.4,232.50718688964844,0.1397000104188919,0,0.0,0.0,1.56109798E9,,,,0,,5,1.21,1.56109798E9
Raw,327711691,327778999000000,,,-1457982460431821313,0.2595548629760742,31.177194614429027,17.25792004267755,9.88261362572108,1417,13,0.0,15,137425301356810,17,28.9,173.01954650878906,0.03480000048875809,0,0.0,0.0,1.56109798E9,,,,0,,5,1.21,1.56109798E9
Raw,327711692,327778999000000,,,-1457982460431821313,0.2595548629760742,31.177194614429027,17.25792004267755,9.88261362572108,1417,13,0.0,7183,137439352625573,24,25.4,-87.45060729980469,0.4058000147342682,0,0.0,0.0,1.57542003E9,,,,0,,6,1.17,1.57542003E9
Raw,327711692,327778999000000,,,-1457982460431821313,0.2595548629760742,31.177194614429027,17.25792004267755,9.88261362572108,1417,15,0.0,7183,137439348119283,17,28.5,362.63946533203125,0.05730000138282776,0,0.0,0.0,1.57542003E9,,,,0,,6,1.17,1.57542003E9
Raw,327711692,327778999000000,,,-1457982460431821313,0.2595548629760742,31.177194614429027,17.25792004267755,9.88261362572108,1417,21,0.0,7183,137439350426322,14,30.8,49.360836029052734,0.052800003439188004,0,0.0,0.0,1.57542003E9,,,,0,,6,1.17,1.57542003E9
Raw,327711693,327778999000000,,,-1457982460431821313,0.2595548629760742,31.177194614429027,17.25792004267755,9.88261362572108,1417,23,0.0,7183,137439342252402,12,32.1,-433.6505126953125,0.05090000107884407,0,0.0,0.0,1.57542003E9,,,,0,,6,1.17,1.57542003E9
Raw,327711693,327778999000000,,,-1457982460431821313,0.2595548629760742,31.177194614429027,17.25792004267755,9.88261362572108,1417,26,0.0,7183,137439342455062,14,30.2,-436.1678771972656,0.052800003439188004,0,0.0,0.0,1.57542003E9,,,,0,,6,1.17,1.57542003E9
Raw,327711693,327778999000000,,,-1457982460431821313,0.2595548629760742,31.177194614429027,17.25792004267755,9.88261362572108,1417,27,0.0,7183,137439345259637,12,32.9,525.433837890625,0.049400001764297485,0,0.0,0.0,1.57542003E9,,,,0,,6,1.17,1.57542003E9
Fix,gps,45.064815,7.657550,294.621582,0.000000,3.216000,1774275023000
Raw,327712689,327779999000000,,,-1457982460431821299,0.6838788986206055,31.999486964195967,17.196155511805518,10.838079043538086,1417,2,0.0,207,61822358036494,24,25.0,172.64056396484375,0.6087999939918518,0,0.0,0.0,1.59975002E9,,,,0,,3,-1.05,1.59975002E9
Raw,327712690,327779999000000,,,-1457982460431821299,0.6838788986206055,31.999486964195967,17.196155511805518,10.838079043538086,1417,18,0.0,207,61822364934137,19,27.3,175.22987365722656,0.24730001389980316,0,0.0,0.0,1.60031245E9,,,,0,,3,-1.05,1.60031245E9
Raw,327712690,327779999000000,,,-1457982460431821299,0.6838788986206055,31.999486964195967,17.196155511805518,10.838079043538086,1417,9,0.0,207,61822360830809,17,28.3,-35.71632385253906,0.23330000042915344,0,0.0,0.0,1.60087501E9,,,,0,,3,-1.05,1.60087501E9
Raw,327712690,327779999000000,,,-1457982460431821299,0.6838788986206055,31.999486964195967,17.196155511805518,10.838079043538086,1417,16,0.0,207,61822359194143,27,24.3,673.1038818359375,0.8649999499320984,0,0.0,0.0,1.60143744E9,,,,0,,3,-1.05,1.60143744E9
Raw,327712691,327779999000000,,,-1457982460431821299,0.6838788986206055,31.999486964195967,17.196155511805518,10.838079043538086,1417,19,0.0,207,61822361186189,12,32.0,-396.4835510253906,0.22540001571178436,0,0.0,0.0,1.60368755E9,,,,0,,3,-1.05,1.60368755E9
Raw,327712691,327779999000000,,,-1457982460431821299,0.6838788986206055,31.999486964195967,17.196155511805518,10.838079043538086,1417,2,0.0,15,137440356844524,9,35.7,-398.18988037109375,0.04560000076889992,0,0.0,0.0,1.57542003E9,,,,0,,1,0.85,1.57542003E9
Raw,327712692,327779999000000,,,-1457982460431821299,0.6838788986206055,31.999486964195967,17.196155511805518,10.838079043538086,1417,8,0.0,15,137440362040182,16,29.5,-300.2215881347656,0.02970000170171261,0,0.0,0.0,1.57542003E9,,,,0,,1,0.85,1.57542003E9
Raw,327712692,327779999000000,,,-1457982460431821299,0.6838788986206055,31.999486964195967,17.196155511805518,10.838079043538086,1417,10,0.0,15,137440360394281,16,29.2,-9.644474029541016,0.02670000120997429,0,0.0,0.0,1.57542003E9,,,,0,,1,0.85,1.57542003E9
Raw,327712696,327779999000000,,,-1457982460431821299,0.6838788986206055,31.999486964195967,17.196155511805518,10.838079043538086,1417,16,0.0,15,137440356170664,10,34.2,641.669189453125,0.04610000178217888,0,0.0,0.0,1.57542003E9,,,,0,,1,0.85,1.57542003E9
Raw,327712697,327779999000000,,,-1457982460431821299,0.6838788986206055,31.999486964195967,17.196155511805518,10.838079043538086,1417,23,0.0,15,137440356994712,24,25.0,444.2113037109375,0.4058000147342682,0,0.0,0.0,1.57542003E9,,,,0,,1,0.85,1.57542003E9
Raw,327712698,327779999000000,,,-1457982460431821299,0.6838788986206055,31.999486964195967,17.196155511805518,10.838079043538086,1417,27,0.0,15,137440363761536,13,31.2,107.2552490234375,0.02970000170171261,0,0.0,0.0,1.57542003E9,,,,0,,1,0.85,1.57542003E9
Raw,327712698,327779999000000,,,-1457982460431821299,0.6838788986206055,31.999486964195967,17.196155511805518,10.838079043538086,1417,8,0.0,15,137426299006529,35,22.3,231.70526123046875,0.6450000405311584,0,0.0,0.0,1.56109798E9,,,,0,,5,0.95,1.56109798E9
Raw,327712698,327779999000000,,,-1457982460431821299,0.6838788986206055,31.999486964195967,17.196155511805518,10.838079043538086,1417,13,0.0,15,137426301356247,40,21.7,173.0467987060547,0.6679999828338623,0,0.0,0.0,1.56109798E9,,,,0,,5,0.95,1.56109798E9
Raw,327712699,327779999000000,,,-1457982460431821299,0.6838788986206055,31.999486964195967,17.196155511805518,10.838079043538086,1417,13,0.0,7183,137440352625857,21,26.5,-88.02361297607422,0.13520000874996185,0,0.0,0.0,1.57542003E9,,,,0,,6,0.91,1.57542003E9
Raw,327712699,327779999000000,,,-1457982460431821299,0.6838788986206055,31.999486964195967,17.196155511805518,10.838079043538086,1417,15,0.0,7183,137440348118080,27,24.6,361.83392333984375,0.5504999756813049,0,0.0,0.0,1.57542003E9,,,,0,,6,0.91,1.57542003E9
Raw,327712699,327779999000000,,,-1457982460431821299,0.6838788986206055,31.999486964195967,17.196155511805518,10.838079043538086,1417,21,0.0,7183,137440350426145,17,28.6,48.74380874633789,0.06030000001192093,0,0.0,0.0,1.57542003E9,,,,0,,6,0.91,1.57542003E9
Raw,327712700,327779999000000,,,-1457982460431821299,0.6838788986206055,31.999486964195967,17.196155511805518,10.838079043538086,1417,23,0.0,7183,137440342253931,40,21.0,-434.19305419921875,0.6934999823570251,0,0.0,0.0,1.57542003E9,,,,0,,6,0.91,1.57542003E9
Raw,327712700,327779999000000,,,-1457982460431821299,0.6838788986206055,31.999486964195967,17.196155511805518,10.838079043538086,1417,26,0.0,7183,137440342456525,11,33.8,-436.8758544921875,0.04990000277757645,0,0.0,0.0,1.57542003E9,,,,0,,6,0.91,1.57542003E9
