# 
# Header Description:
# 
# Version: v3.1.1.2 Platform: 13 Manufacturer: samsung Model: SM-A515F GNSS Hardware Model Name: S.LSI,K102
# 
# Raw,utcTimeMillis,TimeNanos,LeapSecond,TimeUncertaintyNanos,FullBiasNanos,BiasNanos,BiasUncertaintyNanos,DriftNanosPerSecond,DriftUncertaintyNanosPerSecond,HardwareClockDiscontinuityCount,Svid,TimeOffsetNanos,State,ReceivedSvTimeNanos,ReceivedSvTimeUncertaintyNanos,Cn0DbHz,PseudorangeRateMetersPerSecond,PseudorangeRateUncertaintyMetersPerSecond,AccumulatedDeltaRangeState,AccumulatedDeltaRangeMeters,AccumulatedDeltaRangeUncertaintyMeters,CarrierFrequencyHz,CarrierCycles,CarrierPhase,CarrierPhaseUncertainty,MultipathIndicator,SnrInDb,ConstellationType,AgcDb,BasebandCn0DbHz,FullInterSignalBiasNanos,FullInterSignalBiasUncertaintyNanos,SatelliteInterSignalBiasNanos,SatelliteInterSignalBiasUncertaintyNanos,CodeType,ChipsetElapsedRealtimeNanos,IsFullTracking,SvPositionEcefXMeters,SvPositionEcefYMeters,SvPositionEcefZMeters,SvVelocityEcefXMetersPerSecond,SvVelocityEcefYMetersPerSecond,SvVelocityEcefZMetersPerSecond,SvClockBiasMeters,SvClockDriftMetersPerSecond,KlobucharAlpha0,KlobucharAlpha1,KlobucharAlpha2,KlobucharAlpha3,KlobucharBeta0,KlobucharBeta1,KlobucharBeta2,KlobucharBeta3
# 
# UncalAccel,utcTimeMillis,elapsedRealtimeNanos,UncalAccelXMps2,UncalAccelYMps2,UncalAccelZMps2,BiasXMps2,BiasYMps2,BiasZMps2,CalibrationAccuracy
# 
# Accel,utcTimeMillis,elapsedRealtimeNanos,AccelXMps2,AccelYMps2,AccelZMps2,CalibrationAccuracy
# 
# UncalGyro,utcTimeMillis,elapsedRealtimeNanos,UncalGyroXRadPerSec,UncalGyroYRadPerSec,UncalGyroZRadPerSec,DriftXRadPerSec,DriftYRadPerSec,DriftZRadPerSec,CalibrationAccuracy
# 
# Gyro,utcTimeMillis,elapsedRealtimeNanos,GyroXRadPerSec,GyroYRadPerSec,GyroZRadPerSec,CalibrationAccuracy
# 
# UncalMag,utcTimeMillis,elapsedRealtimeNanos,UncalMagXMicroT,UncalMagYMicroT,UncalMagZMicroT,BiasXMicroT,BiasYMicroT,BiasZMicroT,CalibrationAccuracy
# 
# Mag,utcTimeMillis,elapsedRealtimeNanos,MagXMicroT,MagYMicroT,MagZMicroT,CalibrationAccuracy
# 
# Pressure,utcTimeMillis,elapsedRealtimeNanos,PressureHpa,CalibrationAccuracy
# 
# OrientationDeg,utcTimeMillis,elapsedRealtimeNanos,yawDeg,rollDeg,pitchDeg,CalibrationAccuracy
# 
# Fix,Provider,LatitudeDegrees,LongitudeDegrees,AltitudeMeters,SpeedMps,AccuracyMeters,BearingDegrees,UnixTimeMillis,SpeedAccuracyMps,BearingAccuracyDegrees,elapsedRealtimeNanos,VerticalAccuracyMeters,MockLocation,NumberOfUsedSignals,VerticalSpeedAccuracyMps,SolutionType
# 
# Nav,Svid,Type,Status,MessageId,Sub-messageId,Data(Bytes)
# 
# Status,UnixTimeMillis,SignalCount,SignalIndex,ConstellationType,Svid,CarrierFrequencyHz,Cn0DbHz,AzimuthDegrees,ElevationDegrees,UsedInFix,HasAlmanacData,HasEphemerisData,BasebandCn0DbHz
# 
# Agc,utcTimeMillis,TimeNanos,LeapSecond,TimeUncertaintyNanos,FullBiasNanos,BiasNanos,BiasUncertaintyNanos,DriftNanosPerSecond,DriftUncertaintyNanosPerSecond,HardwareClockDiscontinuityCount,AgcDb,CarrierFrequencyHz,ConstellationType
# 
# GameRotationVector,utcTimeMillis,elapsedRealtimeNanos,x,y,z,w
# 
Raw,1774273800000,71679268679,18,0.0,-1458308946320731392,0.0,10.080588340759277,62239.0390625,0.0,0,8,0.0,47,136217929791922,10,49.79999923706055,-49.256813049316406,0.04982461780309677,17,3273.8730041843373,0.035230987248569726,1575420000,,,,0,43.20000076293945,1,3.9000000953674316,44.79999923706055,0.0,0.0,0.0,0.0,C,1050722573977102,,12134406.768453548,-9949231.659177117,21195662.051543653,1344.821956280563,2397.617630074722,399.9351860983059,142037.18312135123,-0.002555570041295141,0.000000016763806343078613,0.000000007450580596923828,-0.00000011920928955078125,-0.000000059604644775390625,110592.0,16384.0,-262144.0,-65536.0
Raw,1774273800000,71679268679,18,0.0,-1458308946320731392,0.0,10.080588340759277,62239.0390625,0.0,0,27,0.0,47,136217933119680,10,43.70000076293945,329.03009033203125,0.06676948815584183,17,-20862.172311852453,0.04721270507499575,1575420000,,,,0,41.900001525878906,1,3.9000000953674316,38.70000076293945,0.0,0.0,0.0,0.0,C,1050722573977102,,16871692.794260796,1789909.0925632045,20174289.55291932,1078.1942795790262,2406.763903279734,-1052.7384033547146,-23530.698226252687,-0.004780948860570788,0.000000016763806343078613,0.000000007450580596923828,-0.00000011920928955078125,-0.000000059604644775390625,110592.0,16384.0,-262144.0,-65536.0
Raw,1774273800000,71679268679,18,0.0,-1458308946320731392,0.0,10.080588340759277,62239.0390625,0.0,0,10,0.0,47,136217929218882,10,42.599998474121094,183.7548828125,0.07073336839675903,17,-11504.863603501348,0.05001556479334831,1575420000,,,,0,35.79999923706055,1,3.9000000953674316,37.599998474121094,0.0,0.0,0.0,0.0,C,1050722573977102,,20019158.58648128,11111497.649340201,14012553.168513456,-1717.71775382743,-57.21484988548991,2516.4676270598434,-176990.39056424188,0.0010918695770669729,0.000000016763806343078613,0.000000007450580596923828,-0.00000011920928955078125,-0.000000059604644775390625,110592.0,16384.0,-262144.0,-65536.0
Raw,1774273800000,71679268679,18,0.0,-1458308946320731392,0.0,10.080588340759277,62239.0390625,0.0,0,18,0.0,47,136217919683196,10,41.400001525878906,928.607666015625,0.07547397166490555,17,-59372.72484377283,0.05336764536425471,1575420000,,,,0,35.599998474121094,1,3.9000000953674316,36.400001525878906,0.0,0.0,0.0,0.0,C,1050722573977102,,-755099.5210550297,20507691.37574218,16760105.458411645,-1390.7964725395627,1618.3036369181686,-2075.011280043827,-118362.43764047153,0.0025870835670502856,0.000000016763806343078613,0.000000007450580596923828,-0.00000011920928955078125,-0.000000059604644775390625,110592.0,16384.0,-262144.0,-65536.0
Raw,1774273800000,71679268679,18,0.0,-1458308946320731392,0.0,10.080588340759277,62239.0390625,0.0,0,16,0.0,47,136217927782941,11,39.5,894.7769775390625,0.08401596546173096,17,-57103.27117277938,0.059407689177989956,1575420000,,,,0,31.600000381469727,1,3.9000000953674316,34.5,0.0,0.0,0.0,0.0,C,1050722573977102,,26178188.411125597,779896.2592034042,5242798.895767698,654.6347196117479,367.7863096470913,-3049.5722044465606,69329.50393966779,0.0027061104774475098,0.000000016763806343078613,0.000000007450580596923828,-0.00000011920928955078125,-0.000000059604644775390625,110592.0,16384.0,-262144.0,-65536.0
Raw,1774273800000,71679268679,18,0.0,-1458308946320731392,0.0,10.080588340759277,62239.0390625,0.0,0,2,0.0,47,136217924254313,10,40.900001525878906,-121.47651672363281,0.0775909498333931,17,7862.388395392569,0.054864560627192256,1575420000,,,,0,37.099998474121094,1,3.9000000953674316,35.900001525878906,0.0,0.0,0.0,0.0,C,1050722573977102,,17541179.210455764,-17297179.393571146,9529610.449341431,-337.2862559564237,1158.0870988117117,2894.7928056926853,19111.869867673464,0.0017995204725593794,0.000000016763806343078613,0.000000007450580596923828,-0.00000011920928955078125,-0.000000059604644775390625,110592.0,16384.0,-262144.0,-65536.0
Raw,1774273800000,71679268679,18,0.0,-1458308946320731392,0.0,10.080588340759277,62239.0390625,0.0,0,23,0.0,47,136217927728548,12,37.599998474121094,662.642578125,0.09409463405609131,17,-42147.88729015994,0.06653431574106215,1575420000,,,,0,32.79999923706055,1,3.9000000953674316,32.599998474121094,0.0,0.0,0.0,0.0,C,1050722573977102,,7453844.534666551,14438329.38273334,21144072.086771004,-2650.8370750685244,-124.03692512004106,996.9593694582749,188121.96938303346,0.0017607526096981019,0.000000016763806343078613,0.000000007450580596923828,-0.00000011920928955078125,-0.000000059604644775390625,110592.0,16384.0,-262144.0,-65536.0
Raw,1774273800000,71679268679,18,0.0,-1458308946320731392,0.0,10.080588340759277,62239.0390625,0.0,0,26,0.0,47,136217918793772,11,40.099998474121094,1044.8834228515625,0.08116818219423294,17,-66849.6424301702,0.05739402162954211,1575420000,,,,0,30.600000381469727,1,3.9000000953674316,35.099998474121094,0.0,0.0,0.0,0.0,C,1050722573977102,,25522569.076387316,4709745.927620858,-6806766.214758486,-823.259616476545,338.29950358891836,-2916.6392740628494,-103218.2564497469,-0.0005256418517092243,0.000000016763806343078613,0.000000007450580596923828,-0.00000011920928955078125,-0.000000059604644775390625,110592.0,16384.0,-262144.0,-65536.0
Raw,1774273800000,71679268679,18,0.0,-1458308946320731392,0.0,10.080588340759277,62239.0390625,0.0,0,7,0.0,47,136217916198958,24,26.5,471.745361328125,0.21633315086364746,20,-5178.620195663476,0.1529691709756851,1575420000,,,,0,19.600000381469727,1,3.9000000953674316,21.5,0.0,0.0,0.0,0.0,C,1050722573977102,,1541444.1585027669,-21696755.751760483,15578014.635928124,1264.2366744611627,-1420.504527130383,-2230.7393275038717,-49230.31073474028,-0.0007026765524642542,0.000000016763806343078613,0.000000007450580596923828,-0.00000011920928955078125,-0.000000059604644775390625,110592.0,16384.0,-262144.0,-65536.0
Raw,1774273800000,71679268679,18,0.0,-1458308946320731392,0.0,10.080588340759277,62239.0390625,0.0,0,15,0.0,47,136217917976984,30,23.899999618530273,597.547607421875,0.2799473702907562,20,-38014.239845069824,0.1979507855325937,1575420000,,,,0,23.399999618530273,1,3.9000000953674316,18.899999618530273,0.0,0.0,0.0,0.0,C,1050722573977102,,-10030075.723722218,12097022.402237425,20864812.688332852,-1646.8835878373493,-2245.7305050937334,502.7597886150593,118934.18193607553,-0.0006979600002523512,0.000000016763806343078613,0.000000007450580596923828,-0.00000011920928955078125,-0.000000059604644775390625,110592.0,16384.0,-262144.0,-65536.0
Raw,1774273800000,71679268679,18,0.0,-1458308946320731392,0.0,10.080588340759277,62239.0390625,0.0,0,9,0.0,239,60599929431513,10,50.599998474121094,99.08364868164062,0.04809172451496124,16,0.0,0.03400565840452909,1600875000,,,,0,47.900001525878906,3,3.9000000953674316,45.599998474121094,0.0,0.0,0.0,0.0,C,1050722573977102,,,,,,,,,,0.000000016763806343078613,0.000000007450580596923828,-0.00000011920928955078125,-0.000000059604644775390625,110592.0,16384.0,-262144.0,-65536.0
Raw,1774273800000,71679268679,18,0.0,-1458308946320731392,0.0,10.080588340759277,62239.0390625,0.0,0,36,0.0,815,136203918463267,10,47.099998474121094,262.3667907714844,0.056420356035232544,16,0.0,0.03989483375251293,1561098000,,,,0,42.0,5,3.9000000953674316,42.099998474121094,0.0,0.0,0.0,0.0,C,1050722573977102,,7203153.598510551,-18523318.485600285,19612911.64621644,2090.3508593065053,-808.7904698509449,-1531.3774792607448,88192.66097666924,-0.0007023112702881917,0.000000016763806343078613,0.000000007450580596923828,-0.00000011920928955078125,-0.000000059604644775390625,110592.0,16384.0,-262144.0,-65536.0
Raw,1774273800000,71679268679,18,0.0,-1458308946320731392,0.0,10.080588340759277,62239.0390625,0.0,0,19,0.0,239,60599928612791,10,49.79999923706055,-117.04354858398438,0.04982461780309677,17,7062.297816022066,0.035230987248569726,1603687600,,,,0,43.20000076293945,3,3.9000000953674316,44.79999923706055,0.0,0.0,0.0,0.0,C,1050722573977102,,,,,,,,,,0.000000016763806343078613,0.000000007450580596923828,-0.00000011920928955078125,-0.000000059604644775390625,110592.0,16384.0,-262144.0,-65536.0
Raw,1774273800000,71679268679,18,0.0,-1458308946320731392,0.0,10.080588340759277,62239.0390625,0.0,0,1,0.0,239,60599920424232,10,44.599998474121094,912.9866943359375,0.06376900523900986,16,0.0,0.045091063604503864,1602562600,,,,0,39.099998474121094,3,3.9000000953674316,39.599998474121094,0.0,0.0,0.0,0.0,C,1050722573977102,,,,,,,,,,0.000000016763806343078613,0.000000007450580596923828,-0.00000011920928955078125,-0.000000059604644775390625,110592.0,16384.0,-262144.0,-65536.0
Raw,1774273800000,71679268679,18,0.0,-1458308946320731392,0.0,10.080588340759277,62239.0390625,0.0,0,17,0.0,239,60599927809538,10,44.400001525878906,852.5184326171875,0.06441804021596909,17,-54465.357635575114,0.045549996236711736,1604250000,,,,0,37.5,3,3.9000000953674316,39.400001525878906,0.0,0.0,0.0,0.0,C,1050722573977102,,,,,,,,,,0.000000016763806343078613,0.000000007450580596923828,-0.00000011920928955078125,-0.000000059604644775390625,110592.0,16384.0,-262144.0,-65536.0
Raw,1774273800000,71679268679,18,0.0,-1458308946320731392,0.0,10.080588340759277,62239.0390625,0.0,0,16,0.0,239,60599930840662,10,43.29999923706055,874.8692626953125,0.0681714415550232,17,-55749.66922417167,0.048204026323556894,1601437400,,,,0,36.5,3,3.9000000953674316,38.29999923706055,0.0,0.0,0.0,0.0,C,1050722573977102,,,,,,,,,,0.000000016763806343078613,0.000000007450580596923828,-0.00000011920928955078125,-0.000000059604644775390625,110592.0,16384.0,-262144.0,-65536.0
Raw,1774273800000,71679268679,18,0.0,-1458308946320731392,0.0,10.080588340759277,62239.0390625,0.0,0,30,0.0,815,136203920521564,10,43.400001525878906,-95.46662902832031,0.0678168386220932,16,0.0,0.0479532865896821,1561098000,,,,0,37.5,5,3.9000000953674316,38.400001525878906,0.0,0.0,0.0,0.0,C,1050722573977102,,13279813.850727055,-18191581.714175574,16446357.287036337,-25.018281787177912,1888.3485777048486,2108.745299808416,123670.6035530154,0.0023147136525949463,0.000000016763806343078613,0.000000007450580596923828,-0.00000011920928955078125,-0.000000059604644775390625,110592.0,16384.0,-262144.0,-65536.0
Raw,1774273800000,71679268679,18,0.0,-1458308946320731392,0.0,10.080588340759277,62239.0390625,0.0,0,33,0.0,815,136203918417146,10,42.599998474121094,417.3845520019531,0.07073336839675903,17,-6022295.088284018,0.05001556479334831,1561098000,,,,0,37.29999923706055,5,3.9000000953674316,37.599998474121094,0.0,0.0,0.0,0.0,C,1050722573977102,,3556712.744888667,19165113.190590046,19959853.71644901,-1838.5042460001796,-1346.7187368766404,1623.6536530729343,-277606.54064060684,0.0010222233249805868,0.000000016763806343078613,0.000000007450580596923828,-0.00000011920928955078125,-0.000000059604644775390625,110592.0,16384.0,-262144.0,-65536.0
Raw,1774273800000,71679268679,18,0.0,-1458308946320731392,0.0,10.080588340759277,62239.0390625,0.0,0,18,0.0,239,60599934653348,10,40.79999923706055,434.03900146484375,0.07802503556013107,17,-27638.49155908334,0.05517150264456868,1600312400,,,,0,34.0,3,3.9000000953674316,35.79999923706055,0.0,0.0,0.0,0.0,C,1050722573977102,,,,,,,,,,0.000000016763806343078613,0.000000007450580596923828,-0.00000011920928955078125,-0.000000059604644775390625,110592.0,16384.0,-262144.0,-65536.0
Raw,1774273800000,71679268679,18,0.0,-1458308946320731392,0.0,10.080588340759277,62239.0390625,0.0,0,27,0.0,815,136203928425437,10,40.900001525878906,373.9434509277344,0.0775909498333931,17,-21963.850292847725,0.054864560627192256,1561098000,,,,0,35.0,5,3.9000000953674316,35.900001525878906,0.0,0.0,0.0,0.0,C,1050722573977102,,15908073.981708068,3510112.5663382765,22633224.871096406,-314.222398350983,2574.4535953826044,-177.68070453835657,183089.6729572012,0.00141036746208556,0.000000016763806343078613,0.000000007450580596923828,-0.00000011920928955078125,-0.000000059604644775390625,110592.0,16384.0,-262144.0,-65536.0
Raw,1774273800000,71679268679,18,0.0,-1458308946320731392,0.0,10.080588340759277,62239.0390625,0.0,0,15,0.0,239,60599920040888,12,37.70000076293945,1195.4547119140625,0.09351999312639236,17,-76519.21327308449,0.06612798713967204,1602000000,,,,0,31.200000762939453,3,3.9000000953674316,32.70000076293945,0.0,0.0,0.0,0.0,C,1050722573977102,,,,,,,,,,0.000000016763806343078613,0.000000007450580596923828,-0.00000011920928955078125,-0.000000059604644775390625,110592.0,16384.0,-262144.0,-65536.0
Raw,1774273800000,71679268679,18,0.0,-1458308946320731392,0.0,10.080588340759277,62239.0390625,0.0,0,28,0.0,815,136203922496109,11,39.400001525878906,734.0637817382812,0.08450513333082199,22,-46869.62190183881,0.05975357977822422,1561098000,,,,0,36.099998474121094,5,3.9000000953674316,34.400001525878906,0.0,0.0,0.0,0.0,C,1050722573977102,,10346160.101509046,19142941.394441124,17474845.144514192,-339.03545761464244,1972.0057334238852,-1959.0342929681922,149314.97626012942,0.0013270759372971952,0.000000016763806343078613,0.000000007450580596923828,-0.00000011920928955078125,-0.000000059604644775390625,110592.0,16384.0,-262144.0,-65536.0
Raw,1774273800000,71679268679,18,0.0,-1458308946320731392,0.0,10.080588340759277,62239.0390625,0.0,0,13,0.0,815,136203871163729,12,37.79999923706055,484.12152099609375,0.09295062720775604,17,-18003486.909332454,0.06572538849860429,1561098000,,,,0,29.0,5,3.9000000953674316,32.79999923706055,0.0,0.0,0.0,0.0,C,1050722573977102,,-220275.26138671255,21334730.44464744,36604159.06053029,-1466.9036451967895,-406.1876182690101,217.015551515874,-113820.03612903239,-0.005157632040209137,0.000000016763806343078613,0.000000007450580596923828,-0.00000011920928955078125,-0.000000059604644775390625,110592.0,16384.0,-262144.0,-65536.0
Raw,1774273800000,71679268679,18,0.0,-1458308946320731392,0.0,10.080588340759277,62239.0390625,0.0,0,3,0.0,239,60599925630254,25,26.200000762939453,-332.69512939453125,0.2224990874528885,20,21413.03877745685,0.15732910473793743,1604812500,,,,0,21.5,3,3.9000000953674316,21.200000762939453,0.0,0.0,0.0,0.0,C,1050722573977102,,,,,,,,,,0.000000016763806343078613,0.000000007450580596923828,-0.00000011920928955078125,-0.000000059604644775390625,110592.0,16384.0,-262144.0,-65536.0
Raw,1774273801000,72679269839,18,0.0,-1458308946320730112,0.0,10.080588340759277,62238.80078125,0.0,0,8,0.0,47,136218929793250,10,49.70000076293945,-49.31163024902344,0.05004779249429703,17,3324.2867230041884,0.035388794072717424,1575420000,,,,0,43.599998474121094,1,3.9000000953674316,44.70000076293945,0.0,0.0,0.0,0.0,C,1050723576256447,,12135751.667466775,-9946834.05480365,21196061.756948676,1344.97249383514,2397.5847384777016,399.4745611808035,142037.18056584612,-0.0025554333988111466,0.000000016763806343078613,0.000000007450580596923828,-0.00000011920928955078125,-0.000000059604644775390625,110592.0,16384.0,-262144.0,-65536.0
Raw,1774273801000,72679269839,18,0.0,-1458308946320730112,0.0,10.080588340759277,62238.80078125,0.0,0,27,0.0,47,136218933119728,10,44.5,329.2828674316406,0.06409229338169098,17,-21190.251168596093,0.04531966065019369,1575420000,,,,0,44.599998474121094,1,3.9000000953674316,39.5,0.0,0.0,0.0,0.0,C,1050723576256447,,16872771.025404274,1792315.763238606,20173236.59495477,1078.267896677997,2406.577208014867,-1053.1774204211267,-23530.70300711031,-0.0047807659102545585,0.000000016763806343078613,0.000000007450580596923828,-0.00000011920928955078125,-0.000000059604644775390625,110592.0,16384.0,-262144.0,-65536.0
Raw,1774273801000,72679269839,18,0.0,-1458308946320730112,0.0,10.080588340759277,62238.80078125,0.0,0,10,0.0,47,136218929219452,10,42.5,184.0970001220703,0.07111111283302307,17,-11687.726361031178,0.05028266788423061,1575420000,,,,0,36.70000076293945,1,3.9000000953674316,37.5,0.0,0.0,0.0,0.0,C,1050723576256447,,20017440.710552458,11111440.474784598,14015069.493168514,-1718.0321390587842,-57.13418829089926,2516.178805891238,-176990.38947235513,0.0010919026972260326,0.000000016763806343078613,0.000000007450580596923828,-0.00000011920928955078125,-0.000000059604644775390625,110592.0,16384.0,-262144.0,-65536.0
Raw,1774273801000,72679269839,18,0.0,-1458308946320730112,0.0,10.080588340759277,62238.80078125,0.0,0,18,0.0,47,136218919681280,10,41.400001525878906,928.804443359375,0.07547397166490555,17,-60300.347480087075,0.05336764536425471,1575420000,,,,0,37.900001525878906,1,3.9000000953674316,36.400001525878906,0.0,0.0,0.0,0.0,C,1050723576256447,,-756490.1907709762,20509309.612504404,16758030.271524126,-1390.5482877621873,1618.1760781027965,-2075.3704398738464,-118362.43505343169,0.002587006034445949,0.000000016763806343078613,0.000000007450580596923828,-0.00000011920928955078125,-0.000000059604644775390625,110592.0,16384.0,-262144.0,-65536.0
Raw,1774273801000,72679269839,18,0.0,-1458308946320730112,0.0,10.080588340759277,62238.80078125,0.0,0,16,0.0,47,136218927781141,11,39.5,895.0509033203125,0.08401596546173096,17,-57997.124078194145,0.059407689177989956,1575420000,,,,0,35.70000076293945,1,3.9000000953674316,34.5,0.0,0.0,0.0,0.0,C,1050723576256447,,26178842.867252097,780263.991038769,5239749.274212688,654.2798856762462,367.67869257155076,-3049.6818735361317,69329.50664587351,0.002706310697249137,0.000000016763806343078613,0.000000007450580596923828,-0.00000011920928955078125,-0.000000059604644775390625,110592.0,16384.0,-262144.0,-65536.0
Raw,1774273801000,72679269839,18,0.0,-1458308946320730112,0.0,10.080588340759277,62238.80078125,0.0,0,2,0.0,47,136218924255860,11,40.400001525878906,-121.46186828613281,0.07979825884103775,17,7984.964539357927,0.05642534882649779,1575420000,,,,0,35.599998474121094,1,3.9000000953674316,35.400001525878906,0.0,0.0,0.0,0.0,C,1050723576256447,,17540841.865070317,-17296021.13900655,9532505.143534036,-337.4034617829601,1158.4184460037575,2894.58661318062,19111.871667315078,0.001799757192202378,0.000000016763806343078613,0.000000007450580596923828,-0.00000011920928955078125,-0.000000059604644775390625,110592.0,16384.0,-262144.0,-65536.0
Raw,1774273801000,72679269839,18,0.0,-1458308946320730112,0.0,10.080588340759277,62238.80078125,0.0,0,23,0.0,47,136218927727485,12,37.599998474121094,662.5178833007812,0.09409463405609131,17,-42809.29803590337,0.06653431574106215,1575420000,,,,0,31.100000381469727,1,3.9000000953674316,32.599998474121094,0.0,0.0,0.0,0.0,C,1050723576256447,,7451193.632869076,14438205.42591327,21145068.82285076,-2650.9721449406625,-123.87697504635982,996.5149054973402,188121.97114375126,0.0017606867768336087,0.000000016763806343078613,0.000000007450580596923828,-0.00000011920928955078125,-0.000000059604644775390625,110592.0,16384.0,-262144.0,-65536.0
Raw,1774273801000,72679269839,18,0.0,-1458308946320730112,0.0,10.080588340759277,62238.80078125,0.0,0,26,0.0,47,136218918791427,11,39.5,1044.9219970703125,0.08401596546173096,17,-67893.45075434679,0.059407689177989956,1575420000,,,,0,36.900001525878906,1,3.9000000953674316,34.5,0.0,0.0,0.0,0.0,C,1050723576256447,,25521745.64788146,4710084.250296757,-6809682.776933527,-823.6012536916917,338.3474423906787,-2916.498744771424,-103218.25697535761,-0.0005255819851299748,0.000000016763806343078613,0.000000007450580596923828,-0.00000011920928955078125,-0.000000059604644775390625,110592.0,16384.0,-262144.0,-65536.0
Raw,1774273801000,72679269839,18,0.0,-1458308946320730112,0.0,10.080588340759277,62238.80078125,0.0,0,7,0.0,47,136218916198533,24,26.399999618530273,472.7859191894531,0.21835967898368835,20,-5650.043117167923,0.15440212900936603,1575420000,,,,0,19.799999237060547,1,3.9000000953674316,21.399999618530273,0.0,0.0,0.0,0.0,C,1050723576256447,,1542708.2791130096,-21698176.17976793,15575783.735416844,1264.0056209477843,-1420.3526852060959,-2231.063584020674,-49230.31143755424,-0.0007029519765637815,0.000000016763806343078613,0.000000007450580596923828,-0.00000011920928955078125,-0.000000059604644775390625,110592.0,16384.0,-262144.0,-65536.0
Raw,1774273801000,72679269839,18,0.0,-1458308946320730112,0.0,10.080588340759277,62238.80078125,0.0,0,15,0.0,47,136218917976144,29,24.100000381469727,598.3944091796875,0.27411526441574097,20,-38611.223721376155,0.19382690346837042,1575420000,,,,0,19.600000381469727,1,3.9000000953674316,19.100000381469727,0.0,0.0,0.0,0.0,C,1050723576256447,,-10031722.684205342,12094776.690630723,20865315.21436745,-1647.0401397546243,-2245.696470928188,502.293122894172,118934.18123810433,-0.0006979835598031059,0.000000016763806343078613,0.000000007450580596923828,-0.00000011920928955078125,-0.000000059604644775390625,110592.0,16384.0,-262144.0,-65536.0
Raw,1774273801000,72679269839,18,0.0,-1458308946320730112,0.0,10.080588340759277,62238.80078125,0.0,0,9,0.0,239,60600929432339,10,50.599998474121094,99.04837036132812,0.04809172451496124,16,0.0,0.03400565840452909,1600875000,,,,0,46.5,3,3.9000000953674316,45.599998474121094,0.0,0.0,0.0,0.0,C,1050723576256447,,,,,,,,,,0.000000016763806343078613,0.000000007450580596923828,-0.00000011920928955078125,-0.000000059604644775390625,110592.0,16384.0,-262144.0,-65536.0
Raw,1774273801000,72679269839,18,0.0,-1458308946320730112,0.0,10.080588340759277,62238.80078125,0.0,0,19,0.0,239,60600928614346,10,49.099998474121094,-117.1976089477539,0.051418907940387726,17,7181.780102367513,0.03635830980464816,1603687600,,,,0,47.099998474121094,3,3.9000000953674316,44.099998474121094,0.0,0.0,0.0,0.0,C,1050723576256447,,,,,,,,,,0.000000016763806343078613,0.000000007450580596923828,-0.00000011920928955078125,-0.000000059604644775390625,110592.0,16384.0,-262144.0,-65536.0
Raw,1774273801000,72679269839,18,0.0,-1458308946320730112,0.0,10.080588340759277,62238.80078125,0.0,0,36,0.0,815,136204918463556,10,47.099998474121094,262.2509460449219,0.056420356035232544,16,0.0,0.03989483375251293,1561098000,,,,0,41.099998474121094,5,3.9000000953674316,42.099998474121094,0.0,0.0,0.0,0.0,C,1050723576256447,,7205243.844207086,-18524127.308420345,19611380.088738743,2090.1393195542623,-808.8546958570677,-1531.7365862364077,88192.66027435794,-0.0007023109501460567,0.000000016763806343078613,0.000000007450580596923828,-0.00000011920928955078125,-0.000000059604644775390625,110592.0,16384.0,-262144.0,-65536.0
Raw,1774273801000,72679269839,18,0.0,-1458308946320730112,0.0,10.080588340759277,62238.80078125,0.0,0,1,0.0,239,60600920422319,10,44.5,912.7823486328125,0.06409229338169098,16,0.0,0.04531966065019369,1602562600,,,,0,36.79999923706055,3,3.9000000953674316,39.5,0.0,0.0,0.0,0.0,C,1050723576256447,,,,,,,,,,0.000000016763806343078613,0.000000007450580596923828,-0.00000011920928955078125,-0.000000059604644775390625,110592.0,16384.0,-262144.0,-65536.0
Raw,1774273801000,72679269839,18,0.0,-1458308946320730112,0.0,10.080588340759277,62238.80078125,0.0,0,30,0.0,815,136204920523062,10,43.400001525878906,-95.55106353759766,0.0678168386220932,16,0.0,0.0479532865896821,1561098000,,,,0,40.5,5,3.9000000953674316,38.400001525878906,0.0,0.0,0.0,0.0,C,1050723576256447,,13279788.883413346,-18189693.24217849,16448465.884358453,-24.916264909835746,1888.5897520649537,2108.4430206486563,123670.60586773249,0.0023147135943872854,0.000000016763806343078613,0.000000007450580596923828,-0.00000011920928955078125,-0.000000059604644775390625,110592.0,16384.0,-262144.0,-65536.0
Raw,1774273801000,72679269839,18,0.0,-1458308946320730112,0.0,10.080588340759277,62238.80078125,0.0,0,16,0.0,239,60600930838901,10,43.29999923706055,874.9251708984375,0.0681714415550232,17,-56624.18462599674,0.048204026323556894,1601437400,,,,0,37.20000076293945,3,3.9000000953674316,38.29999923706055,0.0,0.0,0.0,0.0,C,1050723576256447,,,,,,,,,,0.000000016763806343078613,0.000000007450580596923828,-0.00000011920928955078125,-0.000000059604644775390625,110592.0,16384.0,-262144.0,-65536.0
Raw,1774273801000,72679269839,18,0.0,-1458308946320730112,0.0,10.080588340759277,62238.80078125,0.0,0,33,0.0,815,136204918416903,10,42.599998474121094,417.6221008300781,0.07073336839675903,17,-6022711.494904732,0.05001556479334831,1561098000,,,,0,32.29999923706055,5,3.9000000953674316,37.599998474121094,0.0,0.0,0.0,0.0,C,1050723576256447,,3554874.1197090345,19163766.48133685,19961477.186505023,-1838.7470023922692,-1346.7004151813203,1623.287243016934,-277606.5396183801,0.0010222306591458619,0.000000016763806343078613,0.000000007450580596923828,-0.00000011920928955078125,-0.000000059604644775390625,110592.0,16384.0,-262144.0,-65536.0
Raw,1774273801000,72679269839,18,0.0,-1458308946320730112,0.0,10.080588340759277,62238.80078125,0.0,0,17,0.0,239,60600927807826,10,44.20000076293945,852.5039672851562,0.0650770515203476,17,-55325.564794170205,0.04601598313003778,1604250000,,,,0,32.400001525878906,3,3.9000000953674316,39.20000076293945,0.0,0.0,0.0,0.0,C,1050723576256447,,,,,,,,,,0.000000016763806343078613,0.000000007450580596923828,-0.00000011920928955078125,-0.000000059604644775390625,110592.0,16384.0,-262144.0,-65536.0
Raw,1774273801000,72679269839,18,0.0,-1458308946320730112,0.0,10.080588340759277,62238.80078125,0.0,0,18,0.0,239,60600934653078,10,40.900001525878906,434.1745300292969,0.0775909498333931,17,-28066.159807196353,0.054864560627192256,1600312400,,,,0,36.79999923706055,3,3.9000000953674316,35.900001525878906,0.0,0.0,0.0,0.0,C,1050723576256447,,,,,,,,,,0.000000016763806343078613,0.000000007450580596923828,-0.00000011920928955078125,-0.000000059604644775390625,110592.0,16384.0,-262144.0,-65536.0
Raw,1774273801000,72679269839,18,0.0,-1458308946320730112,0.0,10.080588340759277,62238.80078125,0.0,0,27,0.0,815,136204928425355,10,40.599998474121094,374.2886962890625,0.07890418916940689,17,-22336.91921125073,0.055793152161687606,1561098000,,,,0,38.5,5,3.9000000953674316,35.599998474121094,0.0,0.0,0.0,0.0,C,1050723576256447,,15907759.84319426,3512687.0197072704,22633046.982405197,-314.0546800972925,2574.453555206727,-178.09670650074585,183089.67436756956,0.0014103694702498615,0.000000016763806343078613,0.000000007450580596923828,-0.00000011920928955078125,-0.000000059604644775390625,110592.0,16384.0,-262144.0,-65536.0
Raw,1774273801000,72679269839,18,0.0,-1458308946320730112,0.0,10.080588340759277,62238.80078125,0.0,0,28,0.0,815,136204922494833,11,38.900001525878906,734.0526733398438,0.08701629191637039,17,-47602.557848087046,0.0615292200140655,1561098000,,,,0,36.900001525878906,5,3.9000000953674316,33.900001525878906,0.0,0.0,0.0,0.0,C,1050723576256447,,10345821.142936148,19144913.2977659,17472885.95248989,-338.882557302337,1971.805940440846,-1959.3547495288547,149314.97758720402,0.0013270766357891262,0.000000016763806343078613,0.000000007450580596923828,-0.00000011920928955078125,-0.000000059604644775390625,110592.0,16384.0,-262144.0,-65536.0
Raw,1774273801000,72679269839,18,0.0,-1458308946320730112,0.0,10.080588340759277,62238.80078125,0.0,0,15,0.0,239,60600920038099,12,37.70000076293945,1195.8009033203125,0.09351999312639236,17,-77702.21419966081,0.06612798713967204,1602000000,,,,0,29.600000381469727,3,3.9000000953674316,32.70000076293945,0.0,0.0,0.0,0.0,C,1050723576256447,,,,,,,,,,0.000000016763806343078613,0.000000007450580596923828,-0.00000011920928955078125,-0.000000059604644775390625,110592.0,16384.0,-262144.0,-65536.0
Raw,1774273801000,72679269839,18,0.0,-1458308946320730112,0.0,10.080588340759277,62238.80078125,0.0,0,13,0.0,815,136204871163269,12,37.099998474121094,484.2129211425781,0.09704875946044922,17,-18003969.969936118,0.06862317781448364,1561098000,,,,0,30.299999237060547,5,3.9000000953674316,32.099998474121094,0.0,0.0,0.0,0.0,C,1050723576256447,,-221742.1939774556,21334324.365008365,36604375.9800632,-1466.9628805501227,-405.9720320201317,216.82371365248738,-113820.0412866691,-0.005157646126463078,0.000000016763806343078613,0.000000007450580596923828,-0.00000011920928955078125,-0.000000059604644775390625,110592.0,16384.0,-262144.0,-65536.0
Raw,1774273801000,72679269839,18,0.0,-1458308946320730112,0.0,10.080588340759277,62238.80078125,0.0,0,3,0.0,239,60600925632656,25,26.100000381469727,-333.2266845703125,0.22461310029029846,20,21786.20788486814,0.15882392321527003,1604812500,,,,0,21.0,3,3.9000000953674316,21.100000381469727,0.0,0.0,0.0,0.0,C,1050723576256447,,,,,,,,,,0.000000016763806343078613,0.000000007450580596923828,-0.00000011920928955078125,-0.000000059604644775390625,110592.0,16384.0,-262144.0,-65536.0
Raw,1774273802000,73679271000,18,0.0,-1458308946320729088,0.0,10.080588340759277,62238.6484375,0.0,0,8,0.0,47,136219929794577,10,49.5,-49.37270736694336,0.05049867555499077,17,3374.751538088545,0.03570761348493397,1575420000,,,,0,43.70000076293945,1,3.9000000953674316,44.5,0.0,0.0,0.0,0.0,C,1050724584221446,,12137096.717003526,-9944436.483355278,21196461.001724362,1345.1230055906456,2397.5517847034826,399.0139294576645,142037.17801047768,-0.002555296727223322,0.000000016763806343078613,0.000000007450580596923828,-0.00000011920928955078125,-0.000000059604644775390625,110592.0,16384.0,-262144.0,-65536.0
Raw,1774273802000,73679271000,18,0.0,-1458308946320729088,0.0,10.080588340759277,62238.6484375,0.0,0,27,0.0,47,136219933119785,10,44.5,329.0415954589844,0.06409229338169098,17,-21518.13188908063,0.04531966065019369,1575420000,,,,0,37.099998474121094,1,3.9000000953674316,39.5,0.0,0.0,0.0,0.0,C,1050724584221446,,16873849.330153085,1794722.2472152896,20172183.197976295,1078.3414708063613,2406.3904626611247,-1053.6164121957872,-23530.70778778502,-0.00478058295630035,0.000000016763806343078613,0.000000007450580596923828,-0.00000011920928955078125,-0.000000059604644775390625,110592.0,16384.0,-262144.0,-65536.0
Raw,1774273802000,73679271000,18,0.0,-1458308946320729088,0.0,10.080588340759277,62238.6484375,0.0,0,10,0.0,47,136219929220001,10,42.5,183.8782501220703,0.07111111283302307,17,-11870.521191334352,0.05028266788423061,1575420000,,,,0,32.29999923706055,1,3.9000000953674316,37.5,0.0,0.0,0.0,0.0,C,1050724584221446,,20015722.52029351,11111383.38091535,14017585.528923646,-1718.3464858209493,-57.053479739006576,2515.8899331704756,-176990.38838043527,0.0010919357591774315,0.000000016763806343078613,0.000000007450580596923828,-0.00000011920928955078125,-0.000000059604644775390625,110592.0,16384.0,-262144.0,-65536.0
Raw,1774273802000,73679271000,18,0.0,-1458308946320729088,0.0,10.080588340759277,62238.6484375,0.0,0,18,0.0,47,136219919679359,10,41.400001525878906,928.783447265625,0.07547397166490555,22,-61227.99965927191,0.05336764536425471,1575420000,,,,0,31.0,1,3.9000000953674316,36.400001525878906,0.0,0.0,0.0,0.0,C,1050724584221446,,-757880.6122937314,20510927.721668314,16755954.725509673,-1390.3000991560225,1618.0484559903148,-2075.729556070027,-118362.43246646937,0.002586928545497358,0.000000016763806343078613,0.000000007450580596923828,-0.00000011920928955078125,-0.000000059604644775390625,110592.0,16384.0,-262144.0,-65536.0
Raw,1774273802000,73679271000,18,0.0,-1458308946320729088,0.0,10.080588340759277,62238.6484375,0.0,0,16,0.0,47,136219927779333,11,39.5,894.8648071289062,0.08401596546173096,17,-58890.90719761513,0.059407689177989956,1575420000,,,,0,36.599998474121094,1,3.9000000953674316,34.5,0.0,0.0,0.0,0.0,C,1050724584221446,,26179496.968528762,780631.6152773411,5236699.543045427,653.9250291381518,367.5711216089208,-3049.791478151628,69329.50935227942,0.0027065109024988487,0.000000016763806343078613,0.000000007450580596923828,-0.00000011920928955078125,-0.000000059604644775390625,110592.0,16384.0,-262144.0,-65536.0
Raw,1774273802000,73679271000,18,0.0,-1458308946320729088,0.0,10.080588340759277,62238.6484375,0.0,0,2,0.0,47,136219924257444,11,40.099998474121094,-121.62960815429688,0.08116818219423294,17,8107.654817009345,0.05739402162954211,1575420000,,,,0,36.5,1,3.9000000953674316,35.099998474121094,0.0,0.0,0.0,0.0,C,1050724584221446,,17540504.40249462,-17294862.553053625,9535399.631610319,-337.52061109842646,1158.7497887521872,2894.380359500883,19111.87346719349,0.0017999939300352708,0.000000016763806343078613,0.000000007450580596923828,-0.00000011920928955078125,-0.000000059604644775390625,110592.0,16384.0,-262144.0,-65536.0
Raw,1774273802000,73679271000,18,0.0,-1458308946320729088,0.0,10.080588340759277,62238.6484375,0.0,0,23,0.0,47,136219927726450,12,37.5,662.5156860351562,0.09467455744743347,17,-43470.70084654726,0.06694437957108021,1575420000,,,,0,33.79999923706055,1,3.9000000953674316,32.5,0.0,0.0,0.0,0.0,C,1050724584221446,,7448542.595959962,14438081.62905017,21146065.114484023,-2651.107150176954,-123.71700392308733,996.070419707397,188121.9729044033,0.0017606208566576242,0.000000016763806343078613,0.000000007450580596923828,-0.00000011920928955078125,-0.000000059604644775390625,110592.0,16384.0,-262144.0,-65536.0
Raw,1774273802000,73679271000,18,0.0,-1458308946320729088,0.0,10.080588340759277,62238.6484375,0.0,0,26,0.0,47,136219918789113,11,39.099998474121094,1044.735595703125,0.08599857985973358,17,-68937.13300572522,0.06080959581881761,1575420000,,,,0,33.20000076293945,1,3.9000000953674316,34.099998474121094,0.0,0.0,0.0,0.0,C,1050724584221446,,25520921.877723943,4710422.620944205,-6812599.198640069,-823.9428703393285,338.39542601199724,-2916.3581555353576,-103218.25750090844,-0.0005255221476545557,0.000000016763806343078613,0.000000007450580596923828,-0.00000011920928955078125,-0.000000059604644775390625,110592.0,16384.0,-262144.0,-65536.0
Raw,1774273802000,73679271000,18,0.0,-1458308946320729088,0.0,10.080588340759277,62238.6484375,0.0,0,7,0.0,47,136219916198125,24,26.299999237060547,472.6474914550781,0.22041483223438263,20,-6121.537728803349,0.15585532787293194,1575420000,,,,0,25.899999618530273,1,3.9000000953674316,21.299999237060547,0.0,0.0,0.0,0.0,C,1050724584221446,,1543972.168692464,-21699596.455927916,15573552.510633122,1263.7745697259684,-1420.200783803516,-2231.38779680692,-49230.31214064364,-0.0007032274006633088,0.000000016763806343078613,0.000000007450580596923828,-0.00000011920928955078125,-0.000000059604644775390625,110592.0,16384.0,-262144.0,-65536.0
Raw,1774273802000,73679271000,18,0.0,-1458308946320729088,0.0,10.080588340759277,62238.6484375,0.0,0,15,0.0,47,136219917975349,29,24.100000381469727,597.4852294921875,0.27411526441574097,20,-39207.79724516161,0.19382690346837042,1575420000,,,,0,20.5,1,3.9000000953674316,19.100000381469727,0.0,0.0,0.0,0.0,C,1050724584221446,,-10033369.801297773,12092531.012987573,20865817.273753516,-1647.1966584868824,-2245.662375839957,501.8264456002707,118934.18054010958,-0.0006980070465942845,0.000000016763806343078613,0.000000007450580596923828,-0.00000011920928955078125,-0.000000059604644775390625,110592.0,16384.0,-262144.0,-65536.0
Raw,1774273802000,73679271000,18,0.0,-1458308946320729088,0.0,10.080588340759277,62238.6484375,0.0,0,9,0.0,239,60601929433169,10,50.5,99.09868621826172,0.04830334335565567,16,0.0,0.034155294086784124,1600875000,,,,0,43.5,3,3.9000000953674316,45.5,0.0,0.0,0.0,0.0,C,1050724584221446,,,,,,,,,,0.000000016763806343078613,0.000000007450580596923828,-0.00000011920928955078125,-0.000000059604644775390625,110592.0,16384.0,-262144.0,-65536.0
Raw,1774273802000,73679271000,18,0.0,-1458308946320729088,0.0,10.080588340759277,62238.6484375,0.0,0,19,0.0,239,60601928615897,10,48.79999923706055,-117.22608184814453,0.05212568864226341,17,7299.688092011493,0.036858074438944455,1603687600,,,,0,44.29999923706055,3,3.9000000953674316,43.79999923706055,0.0,0.0,0.0,0.0,C,1050724584221446,,,,,,,,,,0.000000016763806343078613,0.000000007450580596923828,-0.00000011920928955078125,-0.000000059604644775390625,110592.0,16384.0,-262144.0,-65536.0
Raw,1774273802000,73679271000,18,0.0,-1458308946320729088,0.0,10.080588340759277,62238.6484375,0.0,0,36,0.0,815,136205918463843,10,47.20000076293945,262.2083435058594,0.056153275072574615,16,0.0,0.03970598080381751,1561098000,,,,0,42.400001525878906,5,3.9000000953674316,42.20000076293945,0.0,0.0,0.0,0.0,C,1050724584221446,,7207333.87834139,-18524936.19544411,19609848.172171038,2089.927743286337,-808.918880496054,-1532.0956651707852,88192.65957204695,-0.0007023106300039217,0.000000016763806343078613,0.000000007450580596923828,-0.00000011920928955078125,-0.000000059604644775390625,110592.0,16384.0,-262144.0,-65536.0
Raw,1774273802000,73679271000,18,0.0,-1458308946320729088,0.0,10.080588340759277,62238.6484375,0.0,0,30,0.0,815,136205920524548,10,43.900001525878906,-95.73026275634766,0.06608467549085617,16,0.0,0.0467284740395844,1561098000,,,,0,41.5,5,3.9000000953674316,38.900001525878906,0.0,0.0,0.0,0.0,C,1050724584221446,,13279764.018134715,-18187804.529049113,16450574.179356286,-24.81421253081959,1888.830886871619,2108.140702750427,123670.60818244948,0.002314713507075794,0.000000016763806343078613,0.000000007450580596923828,-0.00000011920928955078125,-0.000000059604644775390625,110592.0,16384.0,-262144.0,-65536.0
Raw,1774273802000,73679271000,18,0.0,-1458308946320729088,0.0,10.080588340759277,62238.6484375,0.0,0,17,0.0,239,60601927806155,10,44.099998474121094,852.40234375,0.06541035324335098,17,-56173.60951389931,0.04625166077837348,1604250000,,,,0,40.0,3,3.9000000953674316,39.099998474121094,0.0,0.0,0.0,0.0,C,1050724584221446,,,,,,,,,,0.000000016763806343078613,0.000000007450580596923828,-0.00000011920928955078125,-0.000000059604644775390625,110592.0,16384.0,-262144.0,-65536.0
Raw,1774273802000,73679271000,18,0.0,-1458308946320729088,0.0,10.080588340759277,62238.6484375,0.0,0,1,0.0,239,60601920420554,10,44.400001525878906,913.2234497070312,0.06441804021596909,16,0.0,0.045549996236711736,1602562600,,,,0,35.20000076293945,3,3.9000000953674316,39.400001525878906,0.0,0.0,0.0,0.0,C,1050724584221446,,,,,,,,,,0.000000016763806343078613,0.000000007450580596923828,-0.00000011920928955078125,-0.000000059604644775390625,110592.0,16384.0,-262144.0,-65536.0
Raw,1774273802000,73679271000,18,0.0,-1458308946320729088,0.0,10.080588340759277,62238.6484375,0.0,0,16,0.0,239,60601930837122,10,43.20000076293945,874.912841796875,0.06852881610393524,17,-57504.709562504664,0.048456725867092605,1601437400,,,,0,37.20000076293945,3,3.9000000953674316,38.20000076293945,0.0,0.0,0.0,0.0,C,1050724584221446,,,,,,,,,,0.000000016763806343078613,0.000000007450580596923828,-0.00000011920928955078125,-0.000000059604644775390625,110592.0,16384.0,-262144.0,-65536.0
Raw,1774273802000,73679271000,18,0.0,-1458308946320729088,0.0,10.080588340759277,62238.6484375,0.0,0,33,0.0,815,136205918416676,10,42.400001525878906,417.6479187011719,0.07149188965559006,17,-6023127.984320777,0.050551915175467727,1561098000,,,,0,32.900001525878906,5,3.9000000953674316,37.400001525878906,0.0,0.0,0.0,0.0,C,1050724584221446,,3553035.2517570127,19162419.79041032,19963100.29016218,-1838.9897321257465,-1346.6820404360892,1622.9208032524218,-277606.538596146,0.001022237993311137,0.000000016763806343078613,0.000000007450580596923828,-0.00000011920928955078125,-0.000000059604644775390625,110592.0,16384.0,-262144.0,-65536.0
Raw,1774273802000,73679271000,18,0.0,-1458308946320729088,0.0,10.080588340759277,62238.6484375,0.0,0,18,0.0,239,60601934652791,10,41.0,433.9383850097656,0.07716049253940582,17,-28499.40771674551,0.05456018427461385,1600312400,,,,0,39.5,3,3.9000000953674316,36.0,0.0,0.0,0.0,0.0,C,1050724584221446,,,,,,,,,,0.000000016763806343078613,0.000000007450580596923828,-0.00000011920928955078125,-0.000000059604644775390625,110592.0,16384.0,-262144.0,-65536.0
Raw,1774273802000,73679271000,18,0.0,-1458308946320729088,0.0,10.080588340759277,62238.6484375,0.0,0,27,0.0,815,136205928425280,11,40.5,374.1183166503906,0.0793493390083313,17,-22709.942952160258,0.056107917612791054,1561098000,,,,0,35.0,5,3.9000000953674316,35.5,0.0,0.0,0.0,0.0,C,1050724584221446,,15907445.872398552,3515261.473025112,22632868.677712463,-313.8869577335105,2574.453456951997,-178.51270516774474,183089.67577793996,0.0014103715075179935,0.000000016763806343078613,0.000000007450580596923828,-0.00000011920928955078125,-0.000000059604644775390625,110592.0,16384.0,-262144.0,-65536.0
Raw,1774273802000,73679271000,18,0.0,-1458308946320729088,0.0,10.080588340759277,62238.6484375,0.0,0,28,0.0,815,136205922493544,11,39.0,733.984619140625,0.08650518953800201,17,-48335.44842645712,0.06116781952232122,1561098000,,,,0,35.400001525878906,5,3.9000000953674316,34.0,0.0,0.0,0.0,0.0,C,1050724584221446,,10345482.337255422,19146885.001248326,17470926.44005288,-338.7296817231562,1971.6060994902787,-1959.6751701535823,149314.97891427935,0.001327077392488718,0.000000016763806343078613,0.000000007450580596923828,-0.00000011920928955078125,-0.000000059604644775390625,110592.0,16384.0,-262144.0,-65536.0
Raw,1774273802000,73679271000,18,0.0,-1458308946320729088,0.0,10.080588340759277,62238.6484375,0.0,0,15,0.0,239,60601920035202,12,37.599998474121094,1195.0174560546875,0.09409463405609131,20,-78917.98098899238,0.06653431574106215,1602000000,,,,0,26.600000381469727,3,3.9000000953674316,32.599998474121094,0.0,0.0,0.0,0.0,C,1050724584221446,,,,,,,,,,0.000000016763806343078613,0.000000007450580596923828,-0.00000011920928955078125,-0.000000059604644775390625,110592.0,16384.0,-262144.0,-65536.0
Raw,1774273802000,73679271000,18,0.0,-1458308946320729088,0.0,10.080588340759277,62238.6484375,0.0,0,13,0.0,815,136205871162819,13,36.70000076293945,483.9750671386719,0.09951337426900864,17,-18004452.895491965,0.07036590694561601,1561098000,,,,0,32.0,5,3.9000000953674316,31.700000762939453,0.0,0.0,0.0,0.0,C,1050724584221446,,-223209.1858024886,21333918.50095566,36604592.70775988,-1467.0220845746408,-405.7564372386138,216.63187452283108,-113820.04644431999,-0.0051576602418208495,0.000000016763806343078613,0.000000007450580596923828,-0.00000011920928955078125,-0.000000059604644775390625,110592.0,16384.0,-262144.0,-65536.0
Raw,1774273802000,73679271000,18,0.0,-1458308946320729088,0.0,10.080588340759277,62238.6484375,0.0,0,3,0.0,239,60601925635009,25,26.100000381469727,-333.0976867675781,0.22461310029029846,20,22144.639329472557,0.15882392321527003,1604812500,,,,0,22.799999237060547,3,3.9000000953674316,21.100000381469727,0.0,0.0,0.0,0.0,C,1050724584221446,,,,,,,,,,0.000000016763806343078613,0.000000007450580596923828,-0.00000011920928955078125,-0.000000059604644775390625,110592.0,16384.0,-262144.0,-65536.0
Raw,1774273803000,74679272100,18,0.0,-1458308946320727808,0.0,10.080588340759277,62238.328125,0.0,0,8,0.0,47,136220929795844,10,49.400001525878906,-49.16053009033203,0.05072639882564545,17,3425.0901664928533,0.03586863660961389,1575420000,,,,0,43.599998474121094,1,3.9000000953674316,44.400001525878906,0.0,0.0,0.0,0.0,C,1050725560653600,,12138441.916958623,-9942038.945035664,21196859.7858404,1345.273491527016,2397.518768758654,398.55329096634557,142037.17545524603,-0.0025551600265316665,0.000000016763806343078613,0.000000007450580596923828,-0.00000011920928955078125,-0.000000059604644775390625,110592.0,16384.0,-262144.0,-65536.0
Raw,1774273803000,74679272100,18,0.0,-1458308946320727808,0.0,10.080588340759277,62238.328125,0.0,0,27,0.0,47,136220933119790,10,44.5,329.21258544921875,0.06409229338169098,17,-21846.18917329004,0.04531966065019369,1575420000,,,,0,36.5,1,3.9000000953674316,39.5,0.0,0.0,0.0,0.0,C,1050725560653600,,16874927.708398446,1797128.5442965347,20171129.362073474,1078.415001951511,2406.2036672398394,-1054.0553786424216,-23530.712568276515,-0.004780399980518268,0.000000016763806343078613,0.000000007450580596923828,-0.00000011920928955078125,-0.000000059604644775390625,110592.0,16384.0,-262144.0,-65536.0
Raw,1774273803000,74679272100,18,0.0,-1458308946320727808,0.0,10.080588340759277,62238.328125,0.0,0,16,0.0,47,136220927777443,11,39.599998474121094,894.9998168945312,0.08353102952241898,17,-59784.75879817968,0.059064790975302456,1575420000,,,,0,37.29999923706055,1,3.9000000953674316,34.599998474121094,0.0,0.0,0.0,0.0,C,1050725560653600,,26180150.714884643,780999.1319380486,5233649.702556077,653.5701500359327,367.4635967722136,-3049.9010182834645,69329.5120588853,0.002706711122300476,0.000000016763806343078613,0.000000007450580596923828,-0.00000011920928955078125,-0.000000059604644775390625,110592.0,16384.0,-262144.0,-65536.0
Raw,1774273803000,74679272100,18,0.0,-1458308946320727808,0.0,10.080588340759277,62238.328125,0.0,0,2,0.0,47,136220924258987,11,39.79999923706055,-121.27893829345703,0.08257365971803665,17,8230.147590877954,0.05838783478662371,1575420000,,,,0,32.20000076293945,1,3.9000000953674316,34.79999923706055,0.0,0.0,0.0,0.0,C,1050725560653600,,17540166.822811544,-17293703.635807157,9538293.913283357,-337.63770389242586,1159.0811270177574,2894.17404467497,19111.875267308566,0.0018002306715061422,0.000000016763806343078613,0.000000007450580596923828,-0.00000011920928955078125,-0.000000059604644775390625,110592.0,16384.0,-262144.0,-65536.0
Raw,1774273803000,74679272100,18,0.0,-1458308946320727808,0.0,10.080588340759277,62238.328125,0.0,0,23,0.0,47,136220927725350,12,37.599998474121094,662.603759765625,0.09409463405609131,17,-44132.161467400845,0.06653431574106215,1575420000,,,,0,35.599998474121094,1,3.9000000953674316,32.599998474121094,0.0,0.0,0.0,0.0,C,1050725560653600,,7445891.4242504565,14437957.992176555,21147060.96155632,-2651.242090759486,-123.55701177711,995.6259121389338,188121.97466498922,0.0017605549364816397,0.000000016763806343078613,0.000000007450580596923828,-0.00000011920928955078125,-0.000000059604644775390625,110592.0,16384.0,-262144.0,-65536.0
Raw,1774273803000,74679272100,18,0.0,-1458308946320727808,0.0,10.080588340759277,62238.328125,0.0,0,26,0.0,47,136220918786729,11,38.79999923706055,1044.8033447265625,0.08753195405006409,17,-69980.8200879111,0.061893844708800314,1575420000,,,,0,32.70000076293945,1,3.9000000953674316,33.79999923706055,0.0,0.0,0.0,0.0,C,1050725560653600,,25520097.766018555,4710761.039573894,-6815515.4795236075,-824.2844663735755,338.44345444425244,-2916.2175063718905,-103218.2580263994,-0.0005254623101791367,0.000000016763806343078613,0.000000007450580596923828,-0.00000011920928955078125,-0.000000059604644775390625,110592.0,16384.0,-262144.0,-65536.0
Raw,1774273803000,74679272100,18,0.0,-1458308946320727808,0.0,10.080588340759277,62238.328125,0.0,0,10,0.0,47,136220929220462,10,41.900001525878906,184.04052734375,0.07344246655702591,20,-12053.403313694056,0.051931168102473016,1575420000,,,,0,28.5,1,3.9000000953674316,36.900001525878906,0.0,0.0,0.0,0.0,C,1050725560653600,,20014004.01585814,11111326.367783152,14020101.275558732,-1718.6607940815588,-56.97272424221852,2515.601008922794,-176990.38728848248,0.0010919688502326608,0.000000016763806343078613,0.000000007450580596923828,-0.00000011920928955078125,-0.000000059604644775390625,110592.0,16384.0,-262144.0,-65536.0
Raw,1774273803000,74679272100,18,0.0,-1458308946320727808,0.0,10.080588340759277,62238.328125,0.0,0,18,0.0,47,136220919677380,10,40.79999923706055,927.8048706054688,0.07802503556013107,20,-62155.010994577315,0.05517150264456868,1575420000,,,,0,26.299999237060547,1,3.9000000953674316,35.79999923706055,0.0,0.0,0.0,0.0,C,1050725560653600,,-759270.7855458371,20512545.70308487,16753878.820521941,-1390.051906747315,1617.9207705888903,-2076.0886286053833,-118362.42987958471,0.002586851012893021,0.000000016763806343078613,0.000000007450580596923828,-0.00000011920928955078125,-0.000000059604644775390625,110592.0,16384.0,-262144.0,-65536.0
Raw,1774273803000,74679272100,18,0.0,-1458308946320727808,0.0,10.080588340759277,62238.328125,0.0,0,7,0.0,47,136220916197601,25,26.200000762939453,473.02239990234375,0.2224990874528885,20,-6593.307903276291,0.15732910473793743,1575420000,,,,0,22.399999618530273,1,3.9000000953674316,21.200000762939453,0.0,0.0,0.0,0.0,C,1050725560653600,,1545235.8270754311,-21701016.5799921,15571320.961917501,1263.543520838247,-1420.0488229447874,-2231.711965812162,-49230.3128440084,-0.0007035028465907089,0.000000016763806343078613,0.000000007450580596923828,-0.00000011920928955078125,-0.000000059604644775390625,110592.0,16384.0,-262144.0,-65536.0
Raw,1774273803000,74679272100,18,0.0,-1458308946320727808,0.0,10.080588340759277,62238.328125,0.0,0,15,0.0,47,136220917974429,29,24.100000381469727,597.8422241210938,0.27411526441574097,20,-39804.473675189074,0.19382690346837042,1575420000,,,,0,18.5,1,3.9000000953674316,19.100000381469727,0.0,0.0,0.0,0.0,C,1050725560653600,,-10035017.07468629,12090285.36975065,20866318.866394233,-1647.3531439961603,-2245.6282198399003,501.35975682362823,118934.17984209144,-0.0006980305188335478,0.000000016763806343078613,0.000000007450580596923828,-0.00000011920928955078125,-0.000000059604644775390625,110592.0,16384.0,-262144.0,-65536.0
Raw,1774273803000,74679272100,18,0.0,-1458308946320727808,0.0,10.080588340759277,62238.328125,0.0,0,9,0.0,239,60602929433937,10,50.400001525878906,99.48168182373047,0.04851636663079262,16,0.0,0.034305922844633456,1600875000,,,,0,44.29999923706055,3,3.9000000953674316,45.400001525878906,0.0,0.0,0.0,0.0,C,1050725560653600,,,,,,,,,,0.000000016763806343078613,0.000000007450580596923828,-0.00000011920928955078125,-0.000000059604644775390625,110592.0,16384.0,-262144.0,-65536.0
Raw,1774273803000,74679272100,18,0.0,-1458308946320727808,0.0,10.080588340759277,62238.328125,0.0,0,36,0.0,815,136206918464061,10,47.400001525878906,262.60455322265625,0.05562477186322212,16,0.0,0.03933227618448436,1561098000,,,,0,42.099998474121094,5,3.9000000953674316,42.400001525878906,0.0,0.0,0.0,0.0,C,1050725560653600,,7209423.700736955,-18525745.146576032,19608315.896644056,2089.7161305256777,-808.9830237574386,-1532.4547160332588,88192.65886973635,-0.0007023102953098714,0.000000016763806343078613,0.000000007450580596923828,-0.00000011920928955078125,-0.000000059604644775390625,110592.0,16384.0,-262144.0,-65536.0
Raw,1774273803000,74679272100,18,0.0,-1458308946320727808,0.0,10.080588340759277,62238.328125,0.0,0,19,0.0,239,60602928617399,10,48.599998474121094,-117.00055694580078,0.052605003118515015,17,7421.600923333317,0.037196997705101965,1603687600,,,,0,42.900001525878906,3,3.9000000953674316,43.599998474121094,0.0,0.0,0.0,0.0,C,1050725560653600,,,,,,,,,,0.000000016763806343078613,0.000000007450580596923828,-0.00000011920928955078125,-0.000000059604644775390625,110592.0,16384.0,-262144.0,-65536.0
Raw,1774273803000,74679272100,18,0.0,-1458308946320727808,0.0,10.080588340759277,62238.328125,0.0,0,30,0.0,815,136206920525968,10,44.5,-95.41959381103516,0.06409229338169098,16,0.0,0.04531966065019369,1561098000,,,,0,41.900001525878906,5,3.9000000953674316,39.5,0.0,0.0,0.0,0.0,C,1050725560653600,,13279739.25492801,-18185915.57492903,16452682.171877287,-24.712124662739157,1889.0719821034916,2107.838346135626,123670.61049716624,0.002314713434316218,0.000000016763806343078613,0.000000007450580596923828,-0.00000011920928955078125,-0.000000059604644775390625,110592.0,16384.0,-262144.0,-65536.0
Raw,1774273803000,74679272100,18,0.0,-1458308946320727808,0.0,10.080588340759277,62238.328125,0.0,0,17,0.0,239,60602927804421,10,44.29999923706055,852.2166748046875,0.06474629044532776,17,-57021.79948524153,0.04578210197389126,1604250000,,,,0,39.400001525878906,3,3.9000000953674316,39.29999923706055,0.0,0.0,0.0,0.0,C,1050725560653600,,,,,,,,,,0.000000016763806343078613,0.000000007450580596923828,-0.00000011920928955078125,-0.000000059604644775390625,110592.0,16384.0,-262144.0,-65536.0
Raw,1774273803000,74679272100,18,0.0,-1458308946320727808,0.0,10.080588340759277,62238.328125,0.0,0,1,0.0,239,60602920418652,10,44.29999923706055,913.09033203125,0.06474629044532776,16,0.0,0.04578210197389126,1602562600,,,,0,36.79999923706055,3,3.9000000953674316,39.29999923706055,0.0,0.0,0.0,0.0,C,1050725560653600,,,,,,,,,,0.000000016763806343078613,0.000000007450580596923828,-0.00000011920928955078125,-0.000000059604644775390625,110592.0,16384.0,-262144.0,-65536.0
Raw,1774273803000,74679272100,18,0.0,-1458308946320727808,0.0,10.080588340759277,62238.328125,0.0,0,16,0.0,239,60602930835315,10,43.099998474121094,875.2366333007812,0.06888903677463531,17,-58374.79128851136,0.048711437903344625,1601437400,,,,0,35.29999923706055,3,3.9000000953674316,38.099998474121094,0.0,0.0,0.0,0.0,C,1050725560653600,,,,,,,,,,0.000000016763806343078613,0.000000007450580596923828,-0.00000011920928955078125,-0.000000059604644775390625,110592.0,16384.0,-262144.0,-65536.0
Raw,1774273803000,74679272100,18,0.0,-1458308946320727808,0.0,10.080588340759277,62238.328125,0.0,0,18,0.0,239,60602934652445,10,41.400001525878906,434.06939697265625,0.07547397166490555,17,-28931.513183539268,0.05336764536425471,1600312400,,,,0,39.5,3,3.9000000953674316,36.400001525878906,0.0,0.0,0.0,0.0,C,1050725560653600,,,,,,,,,,0.000000016763806343078613,0.000000007450580596923828,-0.00000011920928955078125,-0.000000059604644775390625,110592.0,16384.0,-262144.0,-65536.0
Raw,1774273803000,74679272100,18,0.0,-1458308946320727808,0.0,10.080588340759277,62238.328125,0.0,0,28,0.0,815,136206922492202,11,40.29999923706055,733.6861572265625,0.08025103062391281,17,-49068.12659892952,0.056745503754168744,1561098000,,,,0,40.599998474121094,5,3.9000000953674316,35.29999923706055,0.0,0.0,0.0,0.0,C,1050725560653600,,10345143.684455657,19148856.50476159,17468966.607317496,-338.5768308921987,1971.4062105863868,-1959.9955548236883,149314.9802413553,0.00132707814918831,0.000000016763806343078613,0.000000007450580596923828,-0.00000011920928955078125,-0.000000059604644775390625,110592.0,16384.0,-262144.0,-65536.0
Raw,1774273803000,74679272100,18,0.0,-1458308946320727808,0.0,10.080588340759277,62238.328125,0.0,0,27,0.0,815,136206928425147,11,40.400001525878906,374.0594787597656,0.07979825884103775,22,-23082.914158552885,0.05642534882649779,1561098000,,,,0,29.600000381469727,5,3.9000000953674316,35.400001525878906,0.0,0.0,0.0,0.0,C,1050725560653600,,15907132.06934544,3517835.9260663125,22632689.95703312,-313.71923128118385,2574.4533006178344,-178.92870050465237,183089.67718831231,0.0014103735447861254,0.000000016763806343078613,0.000000007450580596923828,-0.00000011920928955078125,-0.000000059604644775390625,110592.0,16384.0,-262144.0,-65536.0
Raw,1774273803000,74679272100,18,0.0,-1458308946320727808,0.0,10.080588340759277,62238.328125,0.0,0,13,0.0,815,136206871162311,13,36.29999923706055,483.92840576171875,0.10207311064004898,17,-18004935.74665056,0.07217589653357863,1561098000,,,,0,30.100000381469727,5,3.9000000953674316,31.299999237060547,0.0,0.0,0.0,0.0,C,1050725560653600,,-224676.23673084285,21333512.85252541,36604809.24360431,-1467.0812572650634,-405.54083394369314,216.44003414094374,-113820.05160198464,-0.005157674342626706,0.000000016763806343078613,0.000000007450580596923828,-0.00000011920928955078125,-0.000000059604644775390625,110592.0,16384.0,-262144.0,-65536.0
Raw,1774273803000,74679272100,18,0.0,-1458308946320727808,0.0,10.080588340759277,62238.328125,0.0,0,8,0.0,815,136206869061835,15,33.599998474121094,546.923095703125,0.1222553625702858,16,0.0,0.08644676687344909,1561098000,,,,0,27.399999618530273,5,3.9000000953674316,28.600000381469727,0.0,0.0,0.0,0.0,C,1050725560653600,,-7380052.893989865,18386850.334607977,37222150.276570566,-1627.6259396630896,-230.42216296048588,-220.62523597197784,-164275.006390552,0.004346069181337953,0.000000016763806343078613,0.000000007450580596923828,-0.00000011920928955078125,-0.000000059604644775390625,110592.0,16384.0,-262144.0,-65536.0
Raw,1774273803000,74679272100,18,0.0,-1458308946320727808,0.0,10.080588340759277,62238.328125,0.0,0,15,0.0,239,60602920032092,12,37.400001525878906,1195.34912109375,0.09525986015796661,20,-80178.67745510256,0.0673582471176982,1602000000,,,,0,27.700000762939453,3,3.9000000953674316,32.400001525878906,0.0,0.0,0.0,0.0,C,1050725560653600,,,,,,,,,,0.000000016763806343078613,0.000000007450580596923828,-0.00000011920928955078125,-0.000000059604644775390625,110592.0,16384.0,-262144.0,-65536.0
Raw,1774273803000,74679272100,18,0.0,-1458308946320727808,0.0,10.080588340759277,62238.328125,0.0,0,3,0.0,239,60602925637263,25,26.0,-333.3296203613281,0.22675736248493195,20,22491.765470946673,0.16034013101309535,1604812500,,,,0,22.899999618530273,3,3.9000000953674316,21.0,0.0,0.0,0.0,0.0,C,1050725560653600,,,,,,,,,,0.000000016763806343078613,0.000000007450580596923828,-0.00000011920928955078125,-0.000000059604644775390625,110592.0,16384.0,-262144.0,-65536.0
Raw,1774273804000,75679273260,18,0.0,-1458308946320726784,0.0,10.080588340759277,62238.34375,0.0,0,8,0.0,47,136221929797165,10,49.29999923706055,-49.17850112915039,0.050955675542354584,17,3475.401067460887,0.03603075817599893,1575420000,,,,0,41.900001525878906,1,3.9000000953674316,44.29999923706055,0.0,0.0,0.0,0.0,C,1050726541878830,,12139787.26745957,-9939641.43963367,21197258.109335475,1345.4239516502255,2397.485690644084,398.09264566460746,142037.17290015097,-0.0025550233549438417,0.000000016763806343078613,0.000000007450580596923828,-0.00000011920928955078125,-0.000000059604644775390625,110592.0,16384.0,-262144.0,-65536.0
Raw,1774273804000,75679273260,18,0.0,-1458308946320726784,0.0,10.080588340759277,62238.34375,0.0,0,27,0.0,47,136221933119852,10,44.400001525878906,329.24072265625,0.06441804021596909,17,-22174.29003206361,0.045549996236711736,1575420000,,,,0,38.099998474121094,1,3.9000000953674316,39.400001525878906,0.0,0.0,0.0,0.0,C,1050726541878830,,16876006.16021495,1799534.6546943774,20170075.087156765,1078.4884901133873,2406.016821740559,-1054.4943197993816,-23530.717348585295,-0.004780216990184272,0.000000016763806343078613,0.000000007450580596923828,-0.00000011920928955078125,-0.000000059604644775390625,110592.0,16384.0,-262144.0,-65536.0
