# 
# Header Description:
# 
# Version: v2.0.0.1 Platform: 10 Manufacturer: Xiaomi Model: Redmi Note 7
# 
# Raw,ElapsedRealtimeMillis,TimeNanos,LeapSecond,TimeUncertaintyNanos,FullBiasNanos,BiasNanos,BiasUncertaintyNanos,DriftNanosPerSecond,DriftUncertaintyNanosPerSecond,HardwareClockDiscontinuityCount,Svid,TimeOffsetNanos,State,ReceivedSvTimeNanos,ReceivedSvTimeUncertaintyNanos,Cn0DbHz,PseudorangeRateMetersPerSecond,PseudorangeRateUncertaintyMetersPerSecond,AccumulatedDeltaRangeState,AccumulatedDeltaRangeMeters,AccumulatedDeltaRangeUncertaintyMeters,CarrierFrequencyHz,CarrierCycles,CarrierPhase,CarrierPhaseUncertainty,MultipathIndicator,SnrInDb,ConstellationType,AgcDb,CarrierFrequencyHz
# 
# Fix,Provider,Latitude,Longitude,Altitude,Speed,Accuracy,(UTC)TimeInMs
# 
# Nav,Svid,Type,Status,MessageId,Sub-messageId,Data(Bytes)
# 
Fix,gps,45.064841,7.657450,297.714966,0.000000,3.216000,1774274639000
Raw,327328670,327395999000000,,,-1457982460431820644,0.02366924285888672,30.477680411422625,-26.62931017966829,10.161661837980425,1389,2,0.0,207,61438358210316,21,26.1,96.33988189697266,0.33820000290870667,0,0.0,0.0,1.59975002E9,,,,0,,3,-0.16,1.59975002E9
Raw,327328670,327395999000000,,,-1457982460431820644,0.02366924285888672,30.477680411422625,-26.62931017966829,10.161661837980425,1389,18,0.0,207,61438365136625,31,23.8,138.58010864257812,0.9339999556541443,0,0.0,0.0,1.60031245E9,,,,0,,3,-0.16,1.60031245E9
Raw,327328670,327395999000000,,,-1457982460431820644,0.02366924285888672,30.477680411422625,-26.62931017966829,10.161661837980425,1389,9,0.0,207,61438360737026,14,30.5,-113.16472625732422,0.22579999268054962,0,0.0,0.0,1.60087501E9,,,,0,,3,-0.16,1.60087501E9
Raw,327328671,327395999000000,,,-1457982460431820644,0.02366924285888672,30.477680411422625,-26.62931017966829,10.161661837980425,1389,16,0.0,207,61438360026258,8,36.7,622.653076171875,0.22120000422000885,0,0.0,0.0,1.60143744E9,,,,0,,3,-0.16,1.60143744E9
Raw,327328671,327395999000000,,,-1457982460431820644,0.02366924285888672,30.477680411422625,-26.62931017966829,10.161661837980425,1389,19,0.0,207,61438360659720,31,23.8,-427.8389892578125,0.9264999628067017,0,0.0,0.0,1.60368755E9,,,,0,,3,-0.16,1.60368755E9
Raw,327328671,327395999000000,,,-1457982460431820644,0.02366924285888672,30.477680411422625,-26.62931017966829,10.161661837980425,1389,3,0.0,207,61438358241499,40,21.4,-611.7135009765625,1.0734999179840088,0,0.0,0.0,1.60481254E9,,,,0,,3,-0.16,1.60481254E9
Raw,327328672,327395999000000,,,-1457982460431820644,0.02366924285888672,30.477680411422625,-26.62931017966829,10.161661837980425,1389,2,0.0,15,137056356315429,17,28.8,-430.3909912109375,0.05730000138282776,0,0.0,0.0,1.57542003E9,,,,0,,1,2.0,1.57542003E9
Raw,327328672,327395999000000,,,-1457982460431820644,0.02366924285888672,30.477680411422625,-26.62931017966829,10.161661837980425,1389,8,0.0,15,137056361630165,11,33.0,-342.07635498046875,0.024400001391768456,0,0.0,0.0,1.57542003E9,,,,0,,1,2.0,1.57542003E9
Raw,327328672,327395999000000,,,-1457982460431820644,0.02366924285888672,30.477680411422625,-26.62931017966829,10.161661837980425,1389,10,0.0,15,137056360346156,16,29.7,-67.82135772705078,0.02670000120997429,0,0.0,0.0,1.57542003E9,,,,0,,1,2.0,1.57542003E9
Raw,327328673,327395999000000,,,-1457982460431820644,0.02366924285888672,30.477680411422625,-26.62931017966829,10.161661837980425,1389,16,0.0,15,137056356971238,21,26.8,605.4114990234375,0.13520000874996185,0,0.0,0.0,1.57542003E9,,,,0,,1,2.0,1.57542003E9
Raw,327328673,327395999000000,,,-1457982460431820644,0.02366924285888672,30.477680411422625,-26.62931017966829,10.161661837980425,1389,18,0.0,15,137056348855263,16,29.0,584.6792602539062,0.038700003176927567,0,0.0,0.0,1.57542003E9,,,,0,,1,2.0,1.57542003E9
Raw,327328673,327395999000000,,,-1457982460431820644,0.02366924285888672,30.477680411422625,-26.62931017966829,10.161661837980425,1389,23,0.0,15,137056357534763,21,26.4,396.3736267089844,0.13670000433921814,0,0.0,0.0,1.57542003E9,,,,0,,1,2.0,1.57542003E9
Raw,327328673,327395999000000,,,-1457982460431820644,0.02366924285888672,30.477680411422625,-26.62931017966829,10.161661837980425,1389,26,0.0,15,137056347645962,24,25.8,695.7958374023438,0.392300009727478,0,0.0,0.0,1.57542003E9,,,,0,,1,2.0,1.57542003E9
Raw,327328674,327395999000000,,,-1457982460431820644,0.02366924285888672,30.477680411422625,-26.62931017966829,10.161661837980425,1389,27,0.0,15,137056363868597,12,32.9,57.63311767578125,0.0284000001847744,0,0.0,0.0,1.57542003E9,,,,0,,1,2.0,1.57542003E9
Raw,327328674,327395999000000,,,-1457982460431820644,0.02366924285888672,30.477680411422625,-26.62931017966829,10.161661837980425,1389,8,0.0,15,137042299292815,31,23.4,212.77975463867188,0.574999988079071,0,0.0,0.0,1.56109798E9,,,,0,,5,1.4,1.56109798E9
Raw,327328674,327395999000000,,,-1457982460431820644,0.02366924285888672,30.477680411422625,-26.62931017966829,10.161661837980425,1389,13,0.0,15,137042301565484,21,26.5,151.9889373779297,0.11270000040531158,0,0.0,0.0,1.56109798E9,,,,0,,5,1.4,1.56109798E9
Raw,327328675,327395999000000,,,-1457982460431820644,0.02366924285888672,30.477680411422625,-26.62931017966829,10.161661837980425,1389,13,0.0,7183,137056352493804,16,29.7,-120.73214721679688,0.050700001418590546,0,0.0,0.0,1.57542003E9,,,,0,,6,1.95,1.57542003E9
Raw,327328675,327395999000000,,,-1457982460431820644,0.02366924285888672,30.477680411422625,-26.62931017966829,10.161661837980425,1389,15,0.0,7183,137056348568892,14,30.3,339.3413391113281,0.049800001084804535,0,0.0,0.0,1.57542003E9,,,,0,,6,1.95,1.57542003E9
Raw,327328675,327395999000000,,,-1457982460431820644,0.02366924285888672,30.477680411422625,-26.62931017966829,10.161661837980425,1389,21,0.0,7183,137056350460154,12,32.5,1.9256751537322998,0.05090000107884407,0,0.0,0.0,1.57542003E9,,,,0,,6,1.95,1.57542003E9
Raw,327328676,327395999000000,,,-1457982460431820644,0.02366924285888672,30.477680411422625,-26.62931017966829,10.161661837980425,1389,23,0.0,7183,137056341678724,24,25.8,-465.9255065917969,0.4072999954223633,0,0.0,0.0,1.57542003E9,,,,0,,6,1.95,1.57542003E9
Raw,327328676,327395999000000,,,-1457982460431820644,0.02366924285888672,30.477680411422625,-26.62931017966829,10.161661837980425,1389,26,0.0,7183,137056341883591,14,30.5,-460.1934509277344,0.05130000039935112,0,0.0,0.0,1.57542003E9,,,,0,,6,1.95,1.57542003E9
Raw,327328677,327395999000000,,,-1457982460431820644,0.02366924285888672,30.477680411422625,-26.62931017966829,10.161661837980425,1389,27,0.0,7183,137056345912143,35,22.0,494.3829650878906,0.6420000195503235,0,0.0,0.0,1.57542003E9,,,,0,,6,1.95,1.57542003E9
Fix,gps,45.064841,7.657450,297.711548,0.000000,3.216000,1774274640000
Raw,327329675,327396999000000,,,-1457982460431820675,0.32727718353271484,31.529099942417815,-26.567801728562184,9.912081885493075,1389,2,0.0,207,61439358210089,21,26.8,96.28644561767578,0.33820000290870667,0,0.0,0.0,1.59975002E9,,,,0,,3,-0.1,1.59975002E9
Raw,327329676,327396999000000,,,-1457982460431820675,0.32727718353271484,31.529099942417815,-26.567801728562184,9.912081885493075,1389,18,0.0,207,61439365136097,53,19.1,137.79330444335938,1.2040001153945923,0,0.0,0.0,1.60031245E9,,,,0,,3,-0.1,1.60031245E9
Raw,327329676,327396999000000,,,-1457982460431820675,0.32727718353271484,31.529099942417815,-26.567801728562184,9.912081885493075,1389,9,0.0,207,61439360737303,14,30.3,-113.18375396728516,0.22579999268054962,0,0.0,0.0,1.60087501E9,,,,0,,3,-0.1,1.60087501E9
Raw,327329676,327396999000000,,,-1457982460431820675,0.32727718353271484,31.529099942417815,-26.567801728562184,9.912081885493075,1389,16,0.0,207,61439360024146,7,37.6,622.607177734375,0.22059999406337738,0,0.0,0.0,1.60143744E9,,,,0,,3,-0.1,1.60143744E9
Raw,327329677,327396999000000,,,-1457982460431820675,0.32727718353271484,31.529099942417815,-26.567801728562184,9.912081885493075,1389,19,0.0,207,61439360661114,35,22.5,-428.0726623535156,0.9864999651908875,0,0.0,0.0,1.60368755E9,,,,0,,3,-0.1,1.60368755E9
Raw,327329677,327396999000000,,,-1457982460431820675,0.32727718353271484,31.529099942417815,-26.567801728562184,9.912081885493075,1389,3,0.0,207,61439358243525,40,21.2,-611.881591796875,1.0734999179840088,0,0.0,0.0,1.60481254E9,,,,0,,3,-0.1,1.60481254E9
Raw,327329677,327396999000000,,,-1457982460431820675,0.32727718353271484,31.529099942417815,-26.567801728562184,9.912081885493075,1389,2,0.0,15,137057356316908,16,29.7,-430.4922790527344,0.050700001418590546,0,0.0,0.0,1.57542003E9,,,,0,,1,1.97,1.57542003E9
Raw,327329678,327396999000000,,,-1457982460431820675,0.32727718353271484,31.529099942417815,-26.567801728562184,9.912081885493075,1389,8,0.0,15,137057361631301,10,34.1,-342.1499328613281,0.023600000888109207,0,0.0,0.0,1.57542003E9,,,,0,,1,1.97,1.57542003E9
Raw,327329678,327396999000000,,,-1457982460431820675,0.32727718353271484,31.529099942417815,-26.567801728562184,9.912081885493075,1389,10,0.0,15,137057360346352,14,30.4,-67.87345123291016,0.025800000876188278,0,0.0,0.0,1.57542003E9,,,,0,,1,1.97,1.57542003E9
Raw,327329679,327396999000000,,,-1457982460431820675,0.32727718353271484,31.529099942417815,-26.567801728562184,9.912081885493075,1389,16,0.0,15,137057356969225,21,26.9,605.2596435546875,0.13520000874996185,0,0.0,0.0,1.57542003E9,,,,0,,1,1.97,1.57542003E9
Raw,327329679,327396999000000,,,-1457982460431820675,0.32727718353271484,31.529099942417815,-26.567801728562184,9.912081885493075,1389,18,0.0,15,137057348853318,16,29.2,584.5042724609375,0.038700003176927567,0,0.0,0.0,1.57542003E9,,,,0,,1,1.97,1.57542003E9
Raw,327329679,327396999000000,,,-1457982460431820675,0.32727718353271484,31.529099942417815,-26.567801728562184,9.912081885493075,1389,23,0.0,15,137057357533529,19,27.1,396.1211853027344,0.06680000573396683,0,0.0,0.0,1.57542003E9,,,,0,,1,1.97,1.57542003E9
Raw,327329679,327396999000000,,,-1457982460431820675,0.32727718353271484,31.529099942417815,-26.567801728562184,9.912081885493075,1389,26,0.0,15,137057347643593,27,24.9,695.6185302734375,0.6270000338554382,0,0.0,0.0,1.57542003E9,,,,0,,1,1.97,1.57542003E9
Raw,327329680,327396999000000,,,-1457982460431820675,0.32727718353271484,31.529099942417815,-26.567801728562184,9.912081885493075,1389,27,0.0,15,137057363868418,13,31.4,57.54237747192383,0.02970000170171261,0,0.0,0.0,1.57542003E9,,,,0,,1,1.97,1.57542003E9
Raw,327329680,327396999000000,,,-1457982460431820675,0.32727718353271484,31.529099942417815,-26.567801728562184,9.912081885493075,1389,8,0.0,15,137043299292072,40,21.8,212.4148712158203,0.6649999618530273,0,0.0,0.0,1.56109798E9,,,,0,,5,1.38,1.56109798E9
Raw,327329680,327396999000000,,,-1457982460431820675,0.32727718353271484,31.529099942417815,-26.567801728562184,9.912081885493075,1389,13,0.0,15,137043301564959,21,26.5,151.88385009765625,0.11270000040531158,0,0.0,0.0,1.56109798E9,,,,0,,5,1.38,1.56109798E9
Raw,327329680,327396999000000,,,-1457982460431820675,0.32727718353271484,31.529099942417815,-26.567801728562184,9.912081885493075,1389,13,0.0,7183,137057352494204,16,29.6,-120.8056411743164,0.050700001418590546,0,0.0,0.0,1.57542003E9,,,,0,,6,2.03,1.57542003E9
Raw,327329681,327396999000000,,,-1457982460431820675,0.32727718353271484,31.529099942417815,-26.567801728562184,9.912081885493075,1389,15,0.0,7183,137057348567769,13,31.7,339.1420593261719,0.04920000210404396,0,0.0,0.0,1.57542003E9,,,,0,,6,2.03,1.57542003E9
Raw,327329681,327396999000000,,,-1457982460431820675,0.32727718353271484,31.529099942417815,-26.567801728562184,9.912081885493075,1389,21,0.0,7183,137057350460147,12,32.3,1.8933310508728027,0.05090000107884407,0,0.0,0.0,1.57542003E9,,,,0,,6,2.03,1.57542003E9
Raw,327329681,327396999000000,,,-1457982460431820675,0.32727718353271484,31.529099942417815,-26.567801728562184,9.912081885493075,1389,23,0.0,7183,137057341680327,27,24.6,-466.5620422363281,0.5519999861717224,0,0.0,0.0,1.57542003E9,,,,0,,6,2.03,1.57542003E9
Raw,327329682,327396999000000,,,-1457982460431820675,0.32727718353271484,31.529099942417815,-26.567801728562184,9.912081885493075,1389,26,0.0,7183,137057341885117,14,30.0,-460.2499694824219,0.05130000039935112,0,0.0,0.0,1.57542003E9,,,,0,,6,2.03,1.57542003E9
Raw,327329682,327396999000000,,,-1457982460431820675,0.32727718353271484,31.529099942417815,-26.567801728562184,9.912081885493075,1389,27,0.0,7183,137057345910494,40,21.6,494.36395263671875,0.6919999718666077,0,0.0,0.0,1.57542003E9,,,,0,,6,2.03,1.57542003E9
Fix,gps,45.064841,7.657450,297.711060,0.000000,3.216000,1774274641000
Raw,327330644,327397999000000,,,-1457982460431820697,0.4374713897705078,32.21707447664812,-27.105467441321213,9.910417367014563,1389,2,0.0,207,61440358209686,19,27.1,95.6820068359375,0.26829999685287476,0,0.0,0.0,1.59975002E9,,,,0,,3,-0.37,1.59975002E9
Raw,327330645,327397999000000,,,-1457982460431820697,0.4374713897705078,32.21707447664812,-27.105467441321213,9.910417367014563,1389,18,0.0,207,61440365135646,27,24.0,137.77456665039062,0.8739999532699585,0,0.0,0.0,1.60031245E9,,,,0,,3,-0.37,1.60031245E9
Raw,327330645,327397999000000,,,-1457982460431820697,0.4374713897705078,32.21707447664812,-27.105467441321213,9.910417367014563,1389,9,0.0,207,61440360737738,14,30.0,-114.01394653320312,0.22579999268054962,0,0.0,0.0,1.60087501E9,,,,0,,3,-0.37,1.60087501E9
Raw,327330645,327397999000000,,,-1457982460431820697,0.4374713897705078,32.21707447664812,-27.105467441321213,9.910417367014563,1389,16,0.0,207,61440360022069,6,38.1,621.7078857421875,0.22010000050067902,0,0.0,0.0,1.60143744E9,,,,0,,3,-0.37,1.60143744E9
Raw,327330645,327397999000000,,,-1457982460431820697,0.4374713897705078,32.21707447664812,-27.105467441321213,9.910417367014563,1389,19,0.0,207,61440360662423,27,24.3,-428.9139099121094,0.8664999604225159,0,0.0,0.0,1.60368755E9,,,,0,,3,-0.37,1.60368755E9
Raw,327330645,327397999000000,,,-1457982460431820697,0.4374713897705078,32.21707447664812,-27.105467441321213,9.910417367014563,1389,3,0.0,207,61440358245168,81,16.7,-612.05908203125,1.4835000038146973,0,0.0,0.0,1.60481254E9,,,,0,,3,-0.37,1.60481254E9
Raw,327330645,327397999000000,,,-1457982460431820697,0.4374713897705078,32.21707447664812,-27.105467441321213,9.910417367014563,1389,2,0.0,15,137058356318348,16,29.1,-431.2585144042969,0.050700001418590546,0,0.0,0.0,1.57542003E9,,,,0,,1,1.56,1.57542003E9
Raw,327330646,327397999000000,,,-1457982460431820697,0.4374713897705078,32.21707447664812,-27.105467441321213,9.910417367014563,1389,8,0.0,15,137058361632462,10,34.1,-343.0493469238281,0.023600000888109207,0,0.0,0.0,1.57542003E9,,,,0,,1,1.56,1.57542003E9
Raw,327330646,327397999000000,,,-1457982460431820697,0.4374713897705078,32.21707447664812,-27.105467441321213,9.910417367014563,1389,10,0.0,15,137058360346623,17,28.3,-68.66048431396484,0.0333000011742115,0,0.0,0.0,1.57542003E9,,,,0,,1,1.56,1.57542003E9
Raw,327330646,327397999000000,,,-1457982460431820697,0.4374713897705078,32.21707447664812,-27.105467441321213,9.910417367014563,1389,16,0.0,15,137058356967174,14,30.3,604.56298828125,0.44050002098083496,0,0.0,0.0,1.57542003E9,,,,0,,1,1.56,1.57542003E9
Raw,327330646,327397999000000,,,-1457982460431820697,0.4374713897705078,32.21707447664812,-27.105467441321213,9.910417367014563,1389,18,0.0,15,137058348851341,16,29.5,583.53857421875,0.038700003176927567,0,0.0,0.0,1.57542003E9,,,,0,,1,1.56,1.57542003E9
Raw,327330646,327397999000000,,,-1457982460431820697,0.4374713897705078,32.21707447664812,-27.105467441321213,9.910417367014563,1389,23,0.0,15,137058357532107,27,24.5,395.42071533203125,0.6420000195503235,0,0.0,0.0,1.57542003E9,,,,0,,1,1.56,1.57542003E9
Raw,327330646,327397999000000,,,-1457982460431820697,0.4374713897705078,32.21707447664812,-27.105467441321213,9.910417367014563,1389,26,0.0,15,137058347641220,61,18.0,694.2864379882812,1.0869998931884766,0,0.0,0.0,1.57542003E9,,,,0,,1,1.56,1.57542003E9
Raw,327330646,327397999000000,,,-1457982460431820697,0.4374713897705078,32.21707447664812,-27.105467441321213,9.910417367014563,1389,27,0.0,15,137058363868240,14,30.4,56.75716018676758,0.030300000682473183,0,0.0,0.0,1.57542003E9,,,,0,,1,1.56,1.57542003E9
Raw,327330646,327397999000000,,,-1457982460431820697,0.4374713897705078,32.21707447664812,-27.105467441321213,9.910417367014563,1389,8,0.0,15,137044299291349,40,21.0,211.6371307373047,0.6649999618530273,0,0.0,0.0,1.56109798E9,,,,0,,5,0.96,1.56109798E9
Raw,327330647,327397999000000,,,-1457982460431820697,0.4374713897705078,32.21707447664812,-27.105467441321213,9.910417367014563,1389,13,0.0,15,137044301564449,27,24.4,150.70298767089844,0.527999997138977,0,0.0,0.0,1.56109798E9,,,,0,,5,0.96,1.56109798E9
Raw,327330647,327397999000000,,,-1457982460431820697,0.4374713897705078,32.21707447664812,-27.105467441321213,9.910417367014563,1389,13,0.0,7183,137058352494605,13,31.6,-121.71022033691406,0.04920000210404396,0,0.0,0.0,1.57542003E9,,,,0,,6,1.52,1.57542003E9
Raw,327330647,327397999000000,,,-1457982460431820697,0.4374713897705078,32.21707447664812,-27.105467441321213,9.910417367014563,1389,15,0.0,7183,137058348566621,13,31.0,338.3335266113281,0.04920000210404396,0,0.0,0.0,1.57542003E9,,,,0,,6,1.52,1.57542003E9
Raw,327330647,327397999000000,,,-1457982460431820697,0.4374713897705078,32.21707447664812,-27.105467441321213,9.910417367014563,1389,21,0.0,7183,137058350460148,12,32.6,0.9964532256126404,0.05090000107884407,0,0.0,0.0,1.57542003E9,,,,0,,6,1.52,1.57542003E9
Raw,327330648,327397999000000,,,-1457982460431820697,0.4374713897705078,32.21707447664812,-27.105467441321213,9.910417367014563,1389,23,0.0,7183,137058341681920,46,20.5,-466.3907775878906,0.7519999742507935,0,0.0,0.0,1.57542003E9,,,,0,,6,1.52,1.57542003E9
Raw,327330648,327397999000000,,,-1457982460431820697,0.4374713897705078,32.21707447664812,-27.105467441321213,9.910417367014563,1389,26,0.0,7183,137058341886645,27,24.6,-461.2908935546875,0.5519999861717224,0,0.0,0.0,1.57542003E9,,,,0,,6,1.52,1.57542003E9
Raw,327330648,327397999000000,,,-1457982460431820697,0.4374713897705078,32.21707447664812,-27.105467441321213,9.910417367014563,1389,27,0.0,7183,137058345908810,27,24.8,492.85107421875,0.5519999861717224,0,0.0,0.0,1.57542003E9,,,,0,,6,1.52,1.57542003E9
Fix,gps,45.064841,7.657450,297.710571,0.000000,3.216000,1774274642000
Raw,327331640,327398999000000,,,-1457982460431820729,0.2807655334472656,30.652598070446402,-30.157165240176095,10.797413258597695,1389,2,0.0,207,61441358209454,16,29.7,94.96668243408203,0.25369998812675476,0,0.0,0.0,1.59975002E9,,,,0,,3,-0.37,1.59975002E9
Raw,327331640,327398999000000,,,-1457982460431820729,0.2807655334472656,30.652598070446402,-30.157165240176095,10.797413258597695,1389,18,0.0,207,61441365135002,24,25.9,136.67832946777344,0.5892999768257141,0,0.0,0.0,1.60031245E9,,,,0,,3,-0.37,1.60031245E9
Raw,327331640,327398999000000,,,-1457982460431820729,0.2807655334472656,30.652598070446402,-30.157165240176095,10.797413258597695,1389,9,0.0,207,61441360738151,13,31.5,-114.43406677246094,0.22519999742507935,0,0.0,0.0,1.60087501E9,,,,0,,3,-0.37,1.60087501E9
Raw,327331641,327398999000000,,,-1457982460431820729,0.2807655334472656,30.652598070446402,-30.157165240176095,10.797413258597695,1389,16,0.0,207,61441360019986,6,38.5,621.1646118164062,0.22010000050067902,0,0.0,0.0,1.60143744E9,,,,0,,3,-0.37,1.60143744E9
Raw,327331641,327398999000000,,,-1457982460431820729,0.2807655334472656,30.652598070446402,-30.157165240176095,10.797413258597695,1389,19,0.0,207,61441360663900,17,28.4,-429.6062927246094,0.23330000042915344,0,0.0,0.0,1.60368755E9,,,,0,,3,-0.37,1.60368755E9
Raw,327331641,327398999000000,,,-1457982460431820729,0.2807655334472656,30.652598070446402,-30.157165240176095,10.797413258597695,1389,3,0.0,207,61441358247507,106,14.9,-611.4052734375,1.7035000324249268,0,0.0,0.0,1.60481254E9,,,,0,,3,-0.37,1.60481254E9
Raw,327331641,327398999000000,,,-1457982460431820729,0.2807655334472656,30.652598070446402,-30.157165240176095,10.797413258597695,1389,2,0.0,15,137059356319808,17,28.0,-432.00555419921875,0.05730000138282776,0,0.0,0.0,1.57542003E9,,,,0,,1,1.67,1.57542003E9
Raw,327331641,327398999000000,,,-1457982460431820729,0.2807655334472656,30.652598070446402,-30.157165240176095,10.797413258597695,1389,8,0.0,15,137059361633613,9,35.1,-343.6335754394531,0.023100001737475395,0,0.0,0.0,1.57542003E9,,,,0,,1,1.67,1.57542003E9
Raw,327331641,327398999000000,,,-1457982460431820729,0.2807655334472656,30.652598070446402,-30.157165240176095,10.797413258597695,1389,10,0.0,15,137059360346863,24,25.3,-69.29070281982422,0.38179999589920044,0,0.0,0.0,1.57542003E9,,,,0,,1,1.67,1.57542003E9
Raw,327331641,327398999000000,,,-1457982460431820729,0.2807655334472656,30.652598070446402,-30.157165240176095,10.797413258597695,1389,16,0.0,15,137059356965143,12,32.5,603.8098754882812,0.0479000024497509,0,0.0,0.0,1.57542003E9,,,,0,,1,1.67,1.57542003E9
Raw,327331642,327398999000000,,,-1457982460431820729,0.2807655334472656,30.652598070446402,-30.157165240176095,10.797413258597695,1389,18,0.0,15,137059348849374,19,27.1,582.8565673828125,0.053300000727176666,0,0.0,0.0,1.57542003E9,,,,0,,1,1.67,1.57542003E9
Raw,327331642,327398999000000,,,-1457982460431820729,0.2807655334472656,30.652598070446402,-30.157165240176095,10.797413258597695,1389,23,0.0,15,137059357530763,17,28.1,394.8025817871094,0.058800000697374344,0,0.0,0.0,1.57542003E9,,,,0,,1,1.67,1.57542003E9
Raw,327331642,327398999000000,,,-1457982460431820729,0.2807655334472656,30.652598070446402,-30.157165240176095,10.797413258597695,1389,26,0.0,15,137059347639017,80,16.6,693.8107299804688,1.1769999265670776,0,0.0,0.0,1.57542003E9,,,,0,,1,1.67,1.57542003E9
Raw,327331642,327398999000000,,,-1457982460431820729,0.2807655334472656,30.652598070446402,-30.157165240176095,10.797413258597695,1389,27,0.0,15,137059363868047,13,31.5,56.17476272583008,0.02970000170171261,0,0.0,0.0,1.57542003E9,,,,0,,1,1.67,1.57542003E9
Raw,327331642,327398999000000,,,-1457982460431820729,0.2807655334472656,30.652598070446402,-30.157165240176095,10.797413258597695,1389,8,0.0,15,137045299290696,40,21.5,210.48489379882812,0.6649999618530273,0,0.0,0.0,1.56109798E9,,,,0,,5,1.0,1.56109798E9
Raw,327331642,327398999000000,,,-1457982460431820729,0.2807655334472656,30.652598070446402,-30.157165240176095,10.797413258597695,1389,13,0.0,15,137045301563928,35,22.6,150.76060485839844,0.6180000305175781,0,0.0,0.0,1.56109798E9,,,,0,,5,1.0,1.56109798E9
Raw,327331642,327398999000000,,,-1457982460431820729,0.2807655334472656,30.652598070446402,-30.157165240176095,10.797413258597695,1389,13,0.0,7183,137059352495004,13,31.3,-122.27896881103516,0.04920000210404396,0,0.0,0.0,1.57542003E9,,,,0,,6,1.7,1.57542003E9
Raw,327331643,327398999000000,,,-1457982460431820729,0.2807655334472656,30.652598070446402,-30.157165240176095,10.797413258597695,1389,15,0.0,7183,137059348565497,14,30.6,337.71051025390625,0.049800001084804535,0,0.0,0.0,1.57542003E9,,,,0,,6,1.7,1.57542003E9
Raw,327331643,327398999000000,,,-1457982460431820729,0.2807655334472656,30.652598070446402,-30.157165240176095,10.797413258597695,1389,21,0.0,7183,137059350460149,13,31.4,0.47418540716171265,0.05220000073313713,0,0.0,0.0,1.57542003E9,,,,0,,6,1.7,1.57542003E9
Raw,327331643,327398999000000,,,-1457982460431820729,0.2807655334472656,30.652598070446402,-30.157165240176095,10.797413258597695,1389,23,0.0,7183,137059341683497,35,22.1,-467.9892272949219,0.6420000195503235,0,0.0,0.0,1.57542003E9,,,,0,,6,1.7,1.57542003E9
Raw,327331643,327398999000000,,,-1457982460431820729,0.2807655334472656,30.652598070446402,-30.157165240176095,10.797413258597695,1389,26,0.0,7183,137059341888188,40,21.7,-461.70001220703125,0.6919999718666077,0,0.0,0.0,1.57542003E9,,,,0,,6,1.7,1.57542003E9
Raw,327331643,327398999000000,,,-1457982460431820729,0.2807655334472656,30.652598070446402,-30.157165240176095,10.797413258597695,1389,27,0.0,7183,137059345907166,27,24.5,492.4134521484375,0.5519999861717224,0,0.0,0.0,1.57542003E9,,,,0,,6,1.7,1.57542003E9
Fix,gps,45.064839,7.657452,297.697754,0.270000,3.216000,1774274643000
Raw,327332647,327399999000000,,,-1457982460431820763,0.3955249786376953,29.15597360697575,-32.576129701369254,10.291330451876481,1389,2,0.0,207,61442358209103,11,33.5,94.90337371826172,0.24990001320838928,0,0.0,0.0,1.59975002E9,,,,0,,3,-0.27,1.59975002E9
Raw,327332647,327399999000000,,,-1457982460431820763,0.3955249786376953,29.15597360697575,-32.576129701369254,10.291330451876481,1389,18,0.0,207,61442365134662,21,26.3,136.64501953125,0.31869998574256897,0,0.0,0.0,1.60031245E9,,,,0,,3,-0.27,1.60031245E9
Raw,327332647,327399999000000,,,-1457982460431820763,0.3955249786376953,29.15597360697575,-32.576129701369254,10.291330451876481,1389,9,0.0,207,61442360738512,11,33.2,-114.40025329589844,0.22290000319480896,0,0.0,0.0,1.60087501E9,,,,0,,3,-0.27,1.60087501E9
Raw,327332647,327399999000000,,,-1457982460431820763,0.3955249786376953,29.15597360697575,-32.576129701369254,10.291330451876481,1389,16,0.0,207,61442360017899,10,34.8,620.91455078125,0.22210000455379486,0,0.0,0.0,1.60143744E9,,,,0,,3,-0.27,1.60143744E9
Raw,327332648,327399999000000,,,-1457982460431820763,0.3955249786376953,29.15597360697575,-32.576129701369254,10.291330451876481,1389,19,0.0,207,61442360665343,11,33.0,-429.557373046875,0.22290000319480896,0,0.0,0.0,1.60368755E9,,,,0,,3,-0.27,1.60368755E9
Raw,327332648,327399999000000,,,-1457982460431820763,0.3955249786376953,29.15597360697575,-32.576129701369254,10.291330451876481,1389,3,0.0,207,61442358249726,31,23.0,-613.2733764648438,0.953499972820282,0,0.0,0.0,1.60481254E9,,,,0,,3,-0.27,1.60481254E9
Raw,327332648,327399999000000,,,-1457982460431820763,0.3955249786376953,29.15597360697575,-32.576129701369254,10.291330451876481,1389,2,0.0,15,137060356321203,10,34.5,-432.1424255371094,0.04610000178217888,0,0.0,0.0,1.57542003E9,,,,0,,1,1.76,1.57542003E9
Raw,327332648,327399999000000,,,-1457982460431820763,0.3955249786376953,29.15597360697575,-32.576129701369254,10.291330451876481,1389,8,0.0,15,137060361634755,10,34.5,-343.6571960449219,0.023600000888109207,0,0.0,0.0,1.57542003E9,,,,0,,1,1.76,1.57542003E9
Raw,327332648,327399999000000,,,-1457982460431820763,0.3955249786376953,29.15597360697575,-32.576129701369254,10.291330451876481,1389,10,0.0,15,137060360347082,17,28.5,-69.50077056884766,0.0333000011742115,0,0.0,0.0,1.57542003E9,,,,0,,1,1.76,1.57542003E9
Raw,327332649,327399999000000,,,-1457982460431820763,0.3955249786376953,29.15597360697575,-32.576129701369254,10.291330451876481,1389,16,0.0,15,137060356963103,19,27.2,603.3788452148438,0.06530000269412994,0,0.0,0.0,1.57542003E9,,,,0,,1,1.76,1.57542003E9
Raw,327332649,327399999000000,,,-1457982460431820763,0.3955249786376953,29.15597360697575,-32.576129701369254,10.291330451876481,1389,18,0.0,15,137060348847547,40,21.6,582.003662109375,0.7985000014305115,0,0.0,0.0,1.57542003E9,,,,0,,1,1.76,1.57542003E9
Raw,327332649,327399999000000,,,-1457982460431820763,0.3955249786376953,29.15597360697575,-32.576129701369254,10.291330451876481,1389,23,0.0,15,137060357529421,24,25.7,394.5230407714844,0.4072999954223633,0,0.0,0.0,1.57542003E9,,,,0,,1,1.76,1.57542003E9
Raw,327332649,327399999000000,,,-1457982460431820763,0.3955249786376953,29.15597360697575,-32.576129701369254,10.291330451876481,1389,26,0.0,15,137060347636674,70,17.9,694.8573608398438,1.0869998931884766,0,0.0,0.0,1.57542003E9,,,,0,,1,1.76,1.57542003E9
Raw,327332649,327399999000000,,,-1457982460431820763,0.3955249786376953,29.15597360697575,-32.576129701369254,10.291330451876481,1389,27,0.0,15,137060363867878,9,35.3,55.851318359375,0.026100000366568565,0,0.0,0.0,1.57542003E9,,,,0,,1,1.76,1.57542003E9
Raw,327332649,327399999000000,,,-1457982460431820763,0.3955249786376953,29.15597360697575,-32.576129701369254,10.291330451876481,1389,8,0.0,15,137046299289983,27,24.8,210.99380493164062,0.5249999761581421,0,0.0,0.0,1.56109798E9,,,,0,,5,1.18,1.56109798E9
Raw,327332649,327399999000000,,,-1457982460431820763,0.3955249786376953,29.15597360697575,-32.576129701369254,10.291330451876481,1389,13,0.0,15,137046301563455,12,32.5,149.94442749023438,0.2880000174045563,0,0.0,0.0,1.56109798E9,,,,0,,5,1.18,1.56109798E9
Raw,327332649,327399999000000,,,-1457982460431820763,0.3955249786376953,29.15597360697575,-32.576129701369254,10.291330451876481,1389,13,0.0,7183,137060352495419,11,33.5,-122.39937591552734,0.04690000042319298,0,0.0,0.0,1.57542003E9,,,,0,,6,1.73,1.57542003E9
Raw,327332649,327399999000000,,,-1457982460431820763,0.3955249786376953,29.15597360697575,-32.576129701369254,10.291330451876481,1389,15,0.0,7183,137060348564347,24,25.7,337.3697204589844,0.4058000147342682,0,0.0,0.0,1.57542003E9,,,,0,,6,1.73,1.57542003E9
Raw,327332650,327399999000000,,,-1457982460431820763,0.3955249786376953,29.15597360697575,-32.576129701369254,10.291330451876481,1389,21,0.0,7183,137060350460138,10,34.0,0.41591745615005493,0.04910000041127205,0,0.0,0.0,1.57542003E9,,,,0,,6,1.73,1.57542003E9
Raw,327332650,327399999000000,,,-1457982460431820763,0.3955249786376953,29.15597360697575,-32.576129701369254,10.291330451876481,1389,23,0.0,7183,137060341684997,16,29.3,-467.5042419433594,0.05220000073313713,0,0.0,0.0,1.57542003E9,,,,0,,6,1.73,1.57542003E9
Raw,327332650,327399999000000,,,-1457982460431820763,0.3955249786376953,29.15597360697575,-32.576129701369254,10.291330451876481,1389,26,0.0,7183,137060341889742,12,32.7,-462.0467834472656,0.049400001764297485,0,0.0,0.0,1.57542003E9,,,,0,,6,1.73,1.57542003E9
Raw,327332650,327399999000000,,,-1457982460431820763,0.3955249786376953,29.15597360697575,-32.576129701369254,10.291330451876481,1389,27,0.0,7183,137060345905476,31,23.4,492.3848571777344,0.6019999980926514,0,0.0,0.0,1.57542003E9,,,,0,,6,1.73,1.57542003E9
Fix,gps,45.064836,7.657455,298.516724,0.220000,3.216000,1774274644000
Raw,327333666,327400999000000,,,-1457982460431820798,0.8546333312988281,29.5680329145398,-33.71057896999227,12.82440548826759,1389,2,0.0,207,61443358208782,11,33.4,95.33154296875,0.24990001320838928,0,0.0,0.0,1.59975002E9,,,,0,,3,-0.13,1.59975002E9
Raw,327333667,327400999000000,,,-1457982460431820798,0.8546333312988281,29.5680329145398,-33.71057896999227,12.82440548826759,1389,18,0.0,207,61443365134207,17,28.1,136.7406005859375,0.24080000817775726,0,0.0,0.0,1.60031245E9,,,,0,,3,-0.13,1.60031245E9
Raw,327333667,327400999000000,,,-1457982460431820798,0.8546333312988281,29.5680329145398,-33.71057896999227,12.82440548826759,1389,9,0.0,207,61443360738896,11,33.5,-114.08840942382812,0.22290000319480896,0,0.0,0.0,1.60087501E9,,,,0,,3,-0.13,1.60087501E9
Raw,327333667,327400999000000,,,-1457982460431820798,0.8546333312988281,29.5680329145398,-33.71057896999227,12.82440548826759,1389,16,0.0,207,61443360015837,11,33.9,621.2715454101562,0.22290000319480896,0,0.0,0.0,1.60143744E9,,,,0,,3,-0.13,1.60143744E9
Raw,327333668,327400999000000,,,-1457982460431820798,0.8546333312988281,29.5680329145398,-33.71057896999227,12.82440548826759,1389,19,0.0,207,61443360666866,16,29.4,-429.52349853515625,0.22669999301433563,0,0.0,0.0,1.60368755E9,,,,0,,3,-0.13,1.60368755E9
Raw,327333668,327400999000000,,,-1457982460431820798,0.8546333312988281,29.5680329145398,-33.71057896999227,12.82440548826759,1389,3,0.0,207,61443358251953,24,25.4,-613.0581665039062,0.6087999939918518,0,0.0,0.0,1.60481254E9,,,,0,,3,-0.13,1.60481254E9
Raw,327333668,327400999000000,,,-1457982460431820798,0.8546333312988281,29.5680329145398,-33.71057896999227,12.82440548826759,1389,2,0.0,15,137061356322627,6,38.2,-431.95501708984375,0.04410000145435333,0,0.0,0.0,1.57542003E9,,,,0,,1,1.82,1.57542003E9
Raw,327333669,327400999000000,,,-1457982460431820798,0.8546333312988281,29.5680329145398,-33.71057896999227,12.82440548826759,1389,8,0.0,15,137061361635884,10,34.1,-343.5163269042969,0.023600000888109207,0,0.0,0.0,1.57542003E9,,,,0,,1,1.82,1.57542003E9
Raw,327333669,327400999000000,,,-1457982460431820798,0.8546333312988281,29.5680329145398,-33.71057896999227,12.82440548826759,1389,10,0.0,15,137061360347355,14,30.9,-69.22970581054688,0.025800000876188278,0,0.0,0.0,1.57542003E9,,,,0,,1,1.82,1.57542003E9
Raw,327333669,327400999000000,,,-1457982460431820798,0.8546333312988281,29.5680329145398,-33.71057896999227,12.82440548826759,1389,16,0.0,15,137061356961035,35,22.1,603.4878540039062,0.8104999661445618,0,0.0,0.0,1.57542003E9,,,,0,,1,1.82,1.57542003E9
Raw,327333669,327400999000000,,,-1457982460431820798,0.8546333312988281,29.5680329145398,-33.71057896999227,12.82440548826759,1389,18,0.0,15,137061348845696,27,24.0,582.4984741210938,0.6784999966621399,0,0.0,0.0,1.57542003E9,,,,0,,1,1.82,1.57542003E9
Raw,327333670,327400999000000,,,-1457982460431820798,0.8546333312988281,29.5680329145398,-33.71057896999227,12.82440548826759,1389,23,0.0,15,137061357528139,14,30.6,395.00518798828125,0.05130000039935112,0,0.0,0.0,1.57542003E9,,,,0,,1,1.82,1.57542003E9
Raw,327333670,327400999000000,,,-1457982460431820798,0.8546333312988281,29.5680329145398,-33.71057896999227,12.82440548826759,1389,27,0.0,15,137061363867696,10,34.6,56.244937896728516,0.026600001379847527,0,0.0,0.0,1.57542003E9,,,,0,,1,1.82,1.57542003E9
Raw,327333670,327400999000000,,,-1457982460431820798,0.8546333312988281,29.5680329145398,-33.71057896999227,12.82440548826759,1389,8,0.0,15,137047299289293,24,25.8,210.9208221435547,0.38030001521110535,0,0.0,0.0,1.56109798E9,,,,0,,5,1.06,1.56109798E9
Raw,327333671,327400999000000,,,-1457982460431820798,0.8546333312988281,29.5680329145398,-33.71057896999227,12.82440548826759,1389,13,0.0,15,137047301562951,17,28.0,150.26254272460938,0.03480000048875809,0,0.0,0.0,1.56109798E9,,,,0,,5,1.06,1.56109798E9
Raw,327333672,327400999000000,,,-1457982460431820798,0.8546333312988281,29.5680329145398,-33.71057896999227,12.82440548826759,1389,13,0.0,7183,137061352495839,12,32.6,-122.36380004882812,0.0479000024497509,0,0.0,0.0,1.57542003E9,,,,0,,6,1.84,1.57542003E9
Raw,327333672,327400999000000,,,-1457982460431820798,0.8546333312988281,29.5680329145398,-33.71057896999227,12.82440548826759,1389,15,0.0,7183,137061348563234,21,26.3,337.4471740722656,0.13520000874996185,0,0.0,0.0,1.57542003E9,,,,0,,6,1.84,1.57542003E9
Raw,327333672,327400999000000,,,-1457982460431820798,0.8546333312988281,29.5680329145398,-33.71057896999227,12.82440548826759,1389,21,0.0,7183,137061350460142,9,35.7,0.4593222439289093,0.048600003123283386,0,0.0,0.0,1.57542003E9,,,,0,,6,1.84,1.57542003E9
Raw,327333673,327400999000000,,,-1457982460431820798,0.8546333312988281,29.5680329145398,-33.71057896999227,12.82440548826759,1389,23,0.0,7183,137061341686556,17,28.9,-467.4673767089844,0.058800000697374344,0,0.0,0.0,1.57542003E9,,,,0,,6,1.84,1.57542003E9
Raw,327333673,327400999000000,,,-1457982460431820798,0.8546333312988281,29.5680329145398,-33.71057896999227,12.82440548826759,1389,26,0.0,7183,137061341891267,11,33.3,-461.8569641113281,0.04840000346302986,0,0.0,0.0,1.57542003E9,,,,0,,6,1.84,1.57542003E9
Raw,327333673,327400999000000,,,-1457982460431820798,0.8546333312988281,29.5680329145398,-33.71057896999227,12.82440548826759,1389,27,0.0,7183,137061345903806,40,21.6,492.5846862792969,0.6919999718666077,0,0.0,0.0,1.57542003E9,,,,0,,6,1.84,1.57542003E9
Raw,327334695,327401999000000,,,-1457982460431820829,0.9198226928710938,26.06600901344791,-32.33792144010228,9.763739330653902,1389,2,0.0,207,61444358208480,12,32.0,95.6374740600586,0.250900000333786,0,0.0,0.0,1.59975002E9,,,,0,,3,-0.3,1.59975002E9
Raw,327334696,327401999000000,,,-1457982460431820829,0.9198226928710938,26.06600901344791,-32.33792144010228,9.763739330653902,1389,18,0.0,207,61444365133779,16,29.7,136.9887237548828,0.23420000076293945,0,0.0,0.0,1.60031245E9,,,,0,,3,-0.3,1.60031245E9
Raw,327334696,327401999000000,,,-1457982460431820829,0.9198226928710938,26.06600901344791,-32.33792144010228,9.763739330653902,1389,9,0.0,207,61444360739256,14,30.1,-113.96275329589844,0.22579999268054962,0,0.0,0.0,1.60087501E9,,,,0,,3,-0.3,1.60087501E9
Raw,327334696,327401999000000,,,-1457982460431820829,0.9198226928710938,26.06600901344791,-32.33792144010228,9.763739330653902,1389,16,0.0,207,61444360013784,9,35.2,621.4328002929688,0.2215999960899353,0,0.0,0.0,1.60143744E9,,,,0,,3,-0.3,1.60143744E9
Raw,327334697,327401999000000,,,-1457982460431820829,0.9198226928710938,26.06600901344791,-32.33792144010228,9.763739330653902,1389,19,0.0,207,61444360668123,11,33.3,-429.47381591796875,0.22290000319480896,0,0.0,0.0,1.60368755E9,,,,0,,3,-0.3,1.60368755E9
Raw,327334697,327401999000000,,,-1457982460431820829,0.9198226928710938,26.06600901344791,-32.33792144010228,9.763739330653902,1389,3,0.0,207,61444358253835,21,26.1,-612.7232666015625,0.33820000290870667,0,0.0,0.0,1.60481254E9,,,,0,,3,-0.3,1.60481254E9
Raw,327334697,327401999000000,,,-1457982460431820829,0.9198226928710938,26.06600901344791,-32.33792144010228,9.763739330653902,1389,2,0.0,15,137062356324068,8,36.3,-431.8872375488281,0.04520000144839287,0,0.0,0.0,1.57542003E9,,,,0,,1,1.79,1.57542003E9
Raw,327334698,327401999000000,,,-1457982460431820829,0.9198226928710938,26.06600901344791,-32.33792144010228,9.763739330653902,1389,8,0.0,15,137062361637006,12,32.1,-343.43670654296875,0.02540000155568123,0,0.0,0.0,1.57542003E9,,,,0,,1,1.79,1.57542003E9
Raw,327334698,327401999000000,,,-1457982460431820829,0.9198226928710938,26.06600901344791,-32.33792144010228,9.763739330653902,1389,10,0.0,15,137062360347559,12,32.9,-68.87992858886719,0.023900000378489494,0,0.0,0.0,1.57542003E9,,,,0,,1,1.79,1.57542003E9
Raw,327334698,327401999000000,,,-1457982460431820829,0.9198226928710938,26.06600901344791,-32.33792144010228,9.763739330653902,1389,16,0.0,15,137062356959117,61,18.2,603.240478515625,1.1004999876022339,0,0.0,0.0,1.57542003E9,,,,0,,1,1.79,1.57542003E9
Raw,327334698,327401999000000,,,-1457982460431820829,0.9198226928710938,26.06600901344791,-32.33792144010228,9.763739330653902,1389,18,0.0,15,137062348843587,35,22.2,583.1264038085938,0.7985000014305115,0,0.0,0.0,1.57542003E9,,,,0,,1,1.79,1.57542003E9
Raw,327334699,327401999000000,,,-1457982460431820829,0.9198226928710938,26.06600901344791,-32.33792144010228,9.763739330653902,1389,23,0.0,15,137062357526885,17,28.0,395.1829833984375,0.058800000697374344,0,0.0,0.0,1.57542003E9,,,,0,,1,1.79,1.57542003E9
Raw,327334699,327401999000000,,,-1457982460431820829,0.9198226928710938,26.06600901344791,-32.33792144010228,9.763739330653902,1389,27,0.0,15,137062363867484,13,31.7,56.489437103271484,0.02970000170171261,0,0.0,0.0,1.57542003E9,,,,0,,1,1.79,1.57542003E9
Raw,327334700,327401999000000,,,-1457982460431820829,0.9198226928710938,26.06600901344791,-32.33792144010228,9.763739330653902,1389,8,0.0,15,137048299288585,24,25.4,210.76341247558594,0.38030001521110535,0,0.0,0.0,1.56109798E9,,,,0,,5,1.0,1.56109798E9
Raw,327334700,327401999000000,,,-1457982460431820829,0.9198226928710938,26.06600901344791,-32.33792144010228,9.763739330653902,1389,13,0.0,15,137048301562445,21,26.6,150.28724670410156,0.11270000040531158,0,0.0,0.0,1.56109798E9,,,,0,,5,1.0,1.56109798E9
Raw,327334700,327401999000000,,,-1457982460431820829,0.9198226928710938,26.06600901344791,-32.33792144010228,9.763739330653902,1389,13,0.0,7183,137062352496233,16,29.9,-122.09767150878906,0.050700001418590546,0,0.0,0.0,1.57542003E9,,,,0,,6,1.77,1.57542003E9
Raw,327334700,327401999000000,,,-1457982460431820829,0.9198226928710938,26.06600901344791,-32.33792144010228,9.763739330653902,1389,15,0.0,7183,137062348562130,24,25.7,337.7830810546875,0.4058000147342682,0,0.0,0.0,1.57542003E9,,,,0,,6,1.77,1.57542003E9
Raw,327334701,327401999000000,,,-1457982460431820829,0.9198226928710938,26.06600901344791,-32.33792144010228,9.763739330653902,1389,21,0.0,7183,137062350460131,11,33.6,0.7219447493553162,0.04990000277757645,0,0.0,0.0,1.57542003E9,,,,0,,6,1.77,1.57542003E9
Raw,327334701,327401999000000,,,-1457982460431820829,0.9198226928710938,26.06600901344791,-32.33792144010228,9.763739330653902,1389,23,0.0,7183,137062341688138,16,29.7,-467.4171447753906,0.05220000073313713,0,0.0,0.0,1.57542003E9,,,,0,,6,1.77,1.57542003E9
Raw,327334701,327401999000000,,,-1457982460431820829,0.9198226928710938,26.06600901344791,-32.33792144010228,9.763739330653902,1389,26,0.0,7183,137062341892847,17,28.7,-461.8238220214844,0.058800000697374344,0,0.0,0.0,1.57542003E9,,,,0,,6,1.77,1.57542003E9
Raw,327334702,327401999000000,,,-1457982460431820829,0.9198226928710938,26.06600901344791,-32.33792144010228,9.763739330653902,1389,27,0.0,7183,137062345902164,40,21.7,492.8701171875,0.6919999718666077,0,0.0,0.0,1.57542003E9,,,,0,,6,1.77,1.57542003E9
Fix,gps,45.064835,7.657459,298.190430,0.000000,3.216000,1774274645000
Raw,327335681,327402999000000,,,-1457982460431820859,0.7002677917480469,28.0175718216924,-33.0352632255396,10.519365507038762,1389,2,0.0,207,61445358208216,13,31.9,95.7530288696289,0.25220000743865967,0,0.0,0.0,1.59975002E9,,,,0,,3,-0.14,1.59975002E9
Raw,327335682,327402999000000,,,-1457982460431820859,0.7002677917480469,28.0175718216924,-33.0352632255396,10.519365507038762,1389,18,0.0,207,61445365133324,16,29.2,136.98777770996094,0.23420000076293945,0,0.0,0.0,1.60031245E9,,,,0,,3,-0.14,1.60031245E9
Raw,327335683,327402999000000,,,-1457982460431820859,0.7002677917480469,28.0175718216924,-33.0352632255396,10.519365507038762,1389,9,0.0,207,61445360739665,12,32.6,-113.6076431274414,0.22390000522136688,0,0.0,0.0,1.60087501E9,,,,0,,3,-0.14,1.60087501E9
Raw,327335683,327402999000000,,,-1457982460431820859,0.7002677917480469,28.0175718216924,-33.0352632255396,10.519365507038762,1389,16,0.0,207,61445360011713,8,36.1,621.6615600585938,0.22120000422000885,0,0.0,0.0,1.60143744E9,,,,0,,3,-0.14,1.60143744E9
Raw,327335685,327402999000000,,,-1457982460431820859,0.7002677917480469,28.0175718216924,-33.0352632255396,10.519365507038762,1389,19,0.0,207,61445360669605,12,32.9,-429.326904296875,0.22390000522136688,0,0.0,0.0,1.60368755E9,,,,0,,3,-0.14,1.60368755E9
Raw,327335685,327402999000000,,,-1457982460431820859,0.7002677917480469,28.0175718216924,-33.0352632255396,10.519365507038762,1389,3,0.0,207,61445358255943,31,23.5,-613.1239013671875,0.953499972820282,0,0.0,0.0,1.60481254E9,,,,0,,3,-0.14,1.60481254E9
Raw,327335685,327402999000000,,,-1457982460431820859,0.7002677917480469,28.0175718216924,-33.0352632255396,10.519365507038762,1389,2,0.0,15,137063356325504,7,37.6,-431.68096923828125,0.044600002467632294,0,0.0,0.0,1.57542003E9,,,,0,,1,1.88,1.57542003E9
Raw,327335686,327402999000000,,,-1457982460431820859,0.7002677917480469,28.0175718216924,-33.0352632255396,10.519365507038762,1389,8,0.0,15,137063361638191,12,32.9,-343.19573974609375,0.02540000155568123,0,0.0,0.0,1.57542003E9,,,,0,,1,1.88,1.57542003E9
Raw,327335686,327402999000000,,,-1457982460431820859,0.7002677917480469,28.0175718216924,-33.0352632255396,10.519365507038762,1389,10,0.0,15,137063360347829,21,26.6,-68.6629638671875,0.1112000048160553,0,0.0,0.0,1.57542003E9,,,,0,,1,1.88,1.57542003E9
Raw,327335687,327402999000000,,,-1457982460431820859,0.7002677917480469,28.0175718216924,-33.0352632255396,10.519365507038762,1389,16,0.0,15,137063356956885,53,19.7,605.219482421875,0.9404999613761902,0,0.0,0.0,1.57542003E9,,,,0,,1,1.88,1.57542003E9
Raw,327335687,327402999000000,,,-1457982460431820859,0.7002677917480469,28.0175718216924,-33.0352632255396,10.519365507038762,1389,18,0.0,15,137063348841697,21,26.5,582.933837890625,0.12319999933242798,0,0.0,0.0,1.57542003E9,,,,0,,1,1.88,1.57542003E9
Raw,327335687,327402999000000,,,-1457982460431820859,0.7002677917480469,28.0175718216924,-33.0352632255396,10.519365507038762,1389,23,0.0,15,137063357525579,21,26.0,395.19293212890625,0.13670000433921814,0,0.0,0.0,1.57542003E9,,,,0,,1,1.88,1.57542003E9
Raw,327335688,327402999000000,,,-1457982460431820859,0.7002677917480469,28.0175718216924,-33.0352632255396,10.519365507038762,1389,27,0.0,15,137063363867308,14,30.1,56.582576751708984,0.030300000682473183,0,0.0,0.0,1.57542003E9,,,,0,,1,1.88,1.57542003E9
Raw,327335688,327402999000000,,,-1457982460431820859,0.7002677917480469,28.0175718216924,-33.0352632255396,10.519365507038762,1389,8,0.0,15,137049299287884,35,22.0,211.56991577148438,0.6150000095367432,0,0.0,0.0,1.56109798E9,,,,0,,5,1.24,1.56109798E9
Raw,327335688,327402999000000,,,-1457982460431820859,0.7002677917480469,28.0175718216924,-33.0352632255396,10.519365507038762,1389,13,0.0,15,137049301561952,24,25.7,150.30686950683594,0.3833000063896179,0,0.0,0.0,1.56109798E9,,,,0,,5,1.24,1.56109798E9
Raw,327335689,327402999000000,,,-1457982460431820859,0.7002677917480469,28.0175718216924,-33.0352632255396,10.519365507038762,1389,13,0.0,7183,137063352496648,12,32.0,-122.0710220336914,0.0479000024497509,0,0.0,0.0,1.57542003E9,,,,0,,6,1.81,1.57542003E9
Raw,327335689,327402999000000,,,-1457982460431820859,0.7002677917480469,28.0175718216924,-33.0352632255396,10.519365507038762,1389,15,0.0,7183,137063348561024,21,26.5,337.7931823730469,0.13520000874996185,0,0.0,0.0,1.57542003E9,,,,0,,6,1.81,1.57542003E9
Raw,327335689,327402999000000,,,-1457982460431820859,0.7002677917480469,28.0175718216924,-33.0352632255396,10.519365507038762,1389,21,0.0,7183,137063350460142,10,34.9,0.8066622614860535,0.04910000041127205,0,0.0,0.0,1.57542003E9,,,,0,,6,1.81,1.57542003E9
Raw,327335690,327402999000000,,,-1457982460431820859,0.7002677917480469,28.0175718216924,-33.0352632255396,10.519365507038762,1389,23,0.0,7183,137063341689669,19,27.2,-467.28558349609375,0.06680000573396683,0,0.0,0.0,1.57542003E9,,,,0,,6,1.81,1.57542003E9
Raw,327335690,327402999000000,,,-1457982460431820859,0.7002677917480469,28.0175718216924,-33.0352632255396,10.519365507038762,1389,26,0.0,7183,137063341894379,13,31.4,-461.6689758300781,0.050700001418590546,0,0.0,0.0,1.57542003E9,,,,0,,6,1.81,1.57542003E9
Raw,327335691,327402999000000,,,-1457982460431820859,0.7002677917480469,28.0175718216924,-33.0352632255396,10.519365507038762,1389,27,0.0,7183,137063345900523,40,21.6,492.3277587890625,0.6919999718666077,0,0.0,0.0,1.57542003E9,,,,0,,6,1.81,1.57542003E9
Fix,gps,45.064837,7.657466,297.459961,0.000000,3.216000,1774274646000
Raw,327336684,327403999000000,,,-1457982460431820901,0.2915630340576172,29.08098031184636,-32.10669254537492,10.461124061145137,1389,2,0.0,207,61446358207809,14,30.8,95.90394592285156,0.25279998779296875,0,0.0,0.0,1.59975002E9,,,,0,,3,-0.2,1.59975002E9
Raw,327336685,327403999000000,,,-1457982460431820901,0.2915630340576172,29.08098031184636,-32.10669254537492,10.461124061145137,1389,18,0.0,207,61446365132965,17,28.2,137.07508850097656,0.24080000817775726,0,0.0,0.0,1.60031245E9,,,,0,,3,-0.2,1.60031245E9
Raw,327336685,327403999000000,,,-1457982460431820901,0.2915630340576172,29.08098031184636,-32.10669254537492,10.461124061145137,1389,9,0.0,207,61446360740011,11,33.6,-113.5774154663086,0.22290000319480896,0,0.0,0.0,1.60087501E9,,,,0,,3,-0.2,1.60087501E9
Raw,327336686,327403999000000,,,-1457982460431820901,0.2915630340576172,29.08098031184636,-32.10669254537492,10.461124061145137,1389,16,0.0,207,61446360009639,12,32.3,621.7451171875,0.22390000522136688,0,0.0,0.0,1.60143744E9,,,,0,,3,-0.2,1.60143744E9
Raw,327336686,327403999000000,,,-1457982460431820901,0.2915630340576172,29.08098031184636,-32.10669254537492,10.461124061145137,1389,19,0.0,207,61446360670979,10,34.5,-429.35040283203125,0.22210000455379486,0,0.0,0.0,1.60368755E9,,,,0,,3,-0.2,1.60368755E9
Raw,327336686,327403999000000,,,-1457982460431820901,0.2915630340576172,29.08098031184636,-32.10669254537492,10.461124061145137,1389,3,0.0,207,61446358258089,24,25.7,-613.2626953125,0.6087999939918518,0,0.0,0.0,1.60481254E9,,,,0,,3,-0.2,1.60481254E9
Raw,327336687,327403999000000,,,-1457982460431820901,0.2915630340576172,29.08098031184636,-32.10669254537492,10.461124061145137,1389,2,0.0,15,137064356326954,6,39.9,-431.68756103515625,0.04360000044107437,0,0.0,0.0,1.57542003E9,,,,0,,1,1.73,1.57542003E9
Raw,327336687,327403999000000,,,-1457982460431820901,0.2915630340576172,29.08098031184636,-32.10669254537492,10.461124061145137,1389,8,0.0,15,137064361639318,10,34.7,-343.25689697265625,0.023600000888109207,0,0.0,0.0,1.57542003E9,,,,0,,1,1.73,1.57542003E9
Raw,327336687,327403999000000,,,-1457982460431820901,0.2915630340576172,29.08098031184636,-32.10669254537492,10.461124061145137,1389,10,0.0,15,137064360348082,19,27.1,-68.69999694824219,0.04130000248551369,0,0.0,0.0,1.57542003E9,,,,0,,1,1.73,1.57542003E9
Raw,327336688,327403999000000,,,-1457982460431820901,0.2915630340576172,29.08098031184636,-32.10669254537492,10.461124061145137,1389,16,0.0,15,137064356955009,46,20.2,603.7161865234375,0.9404999613761902,0,0.0,0.0,1.57542003E9,,,,0,,1,1.73,1.57542003E9
Raw,327336688,327403999000000,,,-1457982460431820901,0.2915630340576172,29.08098031184636,-32.10669254537492,10.461124061145137,1389,18,0.0,15,137064348839807,31,23.6,582.688720703125,0.6784999966621399,0,0.0,0.0,1.57542003E9,,,,0,,1,1.73,1.57542003E9
Raw,327336688,327403999000000,,,-1457982460431820901,0.2915630340576172,29.08098031184636,-32.10669254537492,10.461124061145137,1389,23,0.0,15,137064357524232,21,26.8,395.3409423828125,0.13670000433921814,0,0.0,0.0,1.57542003E9,,,,0,,1,1.73,1.57542003E9
Raw,327336689,327403999000000,,,-1457982460431820901,0.2915630340576172,29.08098031184636,-32.10669254537492,10.461124061145137,1389,27,0.0,15,137064363867143,16,29.9,56.60679244995117,0.031200001016259193,0,0.0,0.0,1.57542003E9,,,,0,,1,1.73,1.57542003E9
Raw,327336689,327403999000000,,,-1457982460431820901,0.2915630340576172,29.08098031184636,-32.10669254537492,10.461124061145137,1389,8,0.0,15,137050299287191,24,25.8,210.9928436279297,0.38030001521110535,0,0.0,0.0,1.56109798E9,,,,0,,5,1.25,1.56109798E9
Raw,327336690,327403999000000,,,-1457982460431820901,0.2915630340576172,29.08098031184636,-32.10669254537492,10.461124061145137,1389,13,0.0,15,137050301561430,24,25.4,150.58499145507812,0.3833000063896179,0,0.0,0.0,1.56109798E9,,,,0,,5,1.25,1.56109798E9
Raw,327336691,327403999000000,,,-1457982460431820901,0.2915630340576172,29.08098031184636,-32.10669254537492,10.461124061145137,1389,13,0.0,7183,137064352497062,13,31.9,-122.01332092285156,0.04920000210404396,0,0.0,0.0,1.57542003E9,,,,0,,6,1.77,1.57542003E9
Raw,327336691,327403999000000,,,-1457982460431820901,0.2915630340576172,29.08098031184636,-32.10669254537492,10.461124061145137,1389,21,0.0,7183,137064350460125,10,34.3,0.901918888092041,0.04910000041127205,0,0.0,0.0,1.57542003E9,,,,0,,6,1.77,1.57542003E9
Raw,327336691,327403999000000,,,-1457982460431820901,0.2915630340576172,29.08098031184636,-32.10669254537492,10.461124061145137,1389,23,0.0,7183,137064341691305,21,26.5,-467.2937927246094,0.13670000433921814,0,0.0,0.0,1.57542003E9,,,,0,,6,1.77,1.57542003E9
Raw,327336692,327403999000000,,,-1457982460431820901,0.2915630340576172,29.08098031184636,-32.10669254537492,10.461124061145137,1389,26,0.0,7183,137064341895924,12,32.0,-461.67633056640625,0.049400001764297485,0,0.0,0.0,1.57542003E9,,,,0,,6,1.77,1.57542003E9
Raw,327336692,327403999000000,,,-1457982460431820901,0.2915630340576172,29.08098031184636,-32.10669254537492,10.461124061145137,1389,27,0.0,7183,137064345898972,80,16.5,493.59326171875,1.0220000743865967,0,0.0,0.0,1.57542003E9,,,,0,,6,1.77,1.57542003E9
Fix,gps,45.064837,7.657468,297.499451,0.000000,3.216000,1774274647000
Raw,327337651,327404999000000,,,-1457982460431820929,0.3965892791748047,31.132964068092406,-32.44610162146637,10.597615371661908,1389,2,0.0,207,61447358207484,13,31.4,96.64136505126953,0.25220000743865967,0,0.0,0.0,1.59975002E9,,,,0,,3,-0.3,1.59975002E9
Raw,327337652,327404999000000,,,-1457982460431820929,0.3965892791748047,31.132964068092406,-32.44610162146637,10.597615371661908,1389,18,0.0,207,61447365132342,13,31.3,137.64158630371094,0.23270000517368317,0,0.0,0.0,1.60031245E9,,,,0,,3,-0.3,1.60031245E9
Raw,327337652,327404999000000,,,-1457982460431820929,0.3965892791748047,31.132964068092406,-32.44610162146637,10.597615371661908,1389,9,0.0,207,61447360740385,11,33.1,-113.03334045410156,0.22290000319480896,0,0.0,0.0,1.60087501E9,,,,0,,3,-0.3,1.60087501E9
Raw,327337652,327404999000000,,,-1457982460431820929,0.3965892791748047,31.132964068092406,-32.44610162146637,10.597615371661908,1389,16,0.0,207,61447360007583,10,34.0,622.2882690429688,0.22210000455379486,0,0.0,0.0,1.60143744E9,,,,0,,3,-0.3,1.60143744E9
Raw,327337652,327404999000000,,,-1457982460431820929,0.3965892791748047,31.132964068092406,-32.44610162146637,10.597615371661908,1389,19,0.0,207,61447360672467,7,37.0,-428.9610900878906,0.22059999406337738,0,0.0,0.0,1.60368755E9,,,,0,,3,-0.3,1.60368755E9
Raw,327337653,327404999000000,,,-1457982460431820929,0.3965892791748047,31.132964068092406,-32.44610162146637,10.597615371661908,1389,3,0.0,207,61447358260096,19,27.9,-611.7531127929688,0.26829999685287476,0,0.0,0.0,1.60481254E9,,,,0,,3,-0.3,1.60481254E9
Raw,327337653,327404999000000,,,-1457982460431820929,0.3965892791748047,31.132964068092406,-32.44610162146637,10.597615371661908,1389,2,0.0,15,137065356328406,5,40.0,-431.2765808105469,0.04340000078082085,0,0.0,0.0,1.57542003E9,,,,0,,1,1.62,1.57542003E9
Raw,327337654,327404999000000,,,-1457982460431820929,0.3965892791748047,31.132964068092406,-32.44610162146637,10.597615371661908,1389,8,0.0,15,137065361640480,12,32.2,-342.7539367675781,0.02540000155568123,0,0.0,0.0,1.57542003E9,,,,0,,1,1.62,1.57542003E9
Raw,327337654,327404999000000,,,-1457982460431820929,0.3965892791748047,31.132964068092406,-32.44610162146637,10.597615371661908,1389,10,0.0,15,137065360348251,16,29.2,-67.92440032958984,0.02670000120997429,0,0.0,0.0,1.57542003E9,,,,0,,1,1.62,1.57542003E9
Raw,327337654,327404999000000,,,-1457982460431820929,0.3965892791748047,31.132964068092406,-32.44610162146637,10.597615371661908,1389,16,0.0,15,137065356952800,46,20.1,605.1909790039062,0.9404999613761902,0,0.0,0.0,1.57542003E9,,,,0,,1,1.62,1.57542003E9
Raw,327337654,327404999000000,,,-1457982460431820929,0.3965892791748047,31.132964068092406,-32.44610162146637,10.597615371661908,1389,18,0.0,15,137065348837810,17,28.8,583.512939453125,0.04529999941587448,0,0.0,0.0,1.57542003E9,,,,0,,1,1.62,1.57542003E9
Raw,327337654,327404999000000,,,-1457982460431820929,0.3965892791748047,31.132964068092406,-32.44610162146637,10.597615371661908,1389,23,0.0,15,137065357522899,19,27.4,395.986083984375,0.06680000573396683,0,0.0,0.0,1.57542003E9,,,,0,,1,1.62,1.57542003E9
Raw,327337655,327404999000000,,,-1457982460431820929,0.3965892791748047,31.132964068092406,-32.44610162146637,10.597615371661908,1389,26,0.0,15,137065347625195,866,17.3,694.8953857421875,2.421999931335449,0,0.0,0.0,1.57542003E9,,,,0,,1,1.62,1.57542003E9
Raw,327337655,327404999000000,,,-1457982460431820929,0.3965892791748047,31.132964068092406,-32.44610162146637,10.597615371661908,1389,27,0.0,15,137065363866922,13,31.6,57.28203582763672,0.02970000170171261,0,0.0,0.0,1.57542003E9,,,,0,,1,1.62,1.57542003E9
Raw,327337655,327404999000000,,,-1457982460431820929,0.3965892791748047,31.132964068092406,-32.44610162146637,10.597615371661908,1389,8,0.0,15,137051299286471,24,25.8,211.4389190673828,0.38030001521110535,0,0.0,0.0,1.56109798E9,,,,0,,5,0.96,1.56109798E9
Raw,327337655,327404999000000,,,-1457982460431820929,0.3965892791748047,31.132964068092406,-32.44610162146637,10.597615371661908,1389,13,0.0,15,137051301560954,17,28.3,150.93679809570312,0.03480000048875809,0,0.0,0.0,1.56109798E9,,,,0,,5,0.96,1.56109798E9
Raw,327337655,327404999000000,,,-1457982460431820929,0.3965892791748047,31.132964068092406,-32.44610162146637,10.597615371661908,1389,13,0.0,7183,137065352497459,16,29.5,-121.57369232177734,0.050700001418590546,0,0.0,0.0,1.57542003E9,,,,0,,6,1.55,1.57542003E9
Raw,327337656,327404999000000,,,-1457982460431820929,0.3965892791748047,31.132964068092406,-32.44610162146637,10.597615371661908,1389,15,0.0,7183,137065348558730,42,21.8,338.3421325683594,1.440500020980835,0,0.0,0.0,1.57542003E9,,,,0,,6,1.55,1.57542003E9
Raw,327337656,327404999000000,,,-1457982460431820929,0.3965892791748047,31.132964068092406,-32.44610162146637,10.597615371661908,1389,21,0.0,7183,137065350460136,10,34.3,1.3772648572921753,0.04910000041127205,0,0.0,0.0,1.57542003E9,,,,0,,6,1.55,1.57542003E9
Raw,327337656,327404999000000,,,-1457982460431820929,0.3965892791748047,31.132964068092406,-32.44610162146637,10.597615371661908,1389,23,0.0,7183,137065341692802,14,30.5,-466.90972900390625,0.05130000039935112,0,0.0,0.0,1.57542003E9,,,,0,,6,1.55,1.57542003E9
Raw,327337656,327404999000000,,,-1457982460431820929,0.3965892791748047,31.132964068092406,-32.44610162146637,10.597615371661908,1389,26,0.0,7183,137065341897462,16,29.6,-461.29986572265625,0.05220000073313713,0,0.0,0.0,1.57542003E9,,,,0,,6,1.55,1.57542003E9
Raw,327337656,327404999000000,,,-1457982460431820929,0.3965892791748047,31.132964068092406,-32.44610162146637,10.597615371661908,1389,27,0.0,7183,137065345897252,40,21.7,493.2221984863281,0.6919999718666077,0,0.0,0.0,1.57542003E9,,,,0,,6,1.55,1.57542003E9
Fix,gps,45.064837,7.657469,297.498901,0.000000,3.216000,1774274648000
Raw,327338692,327405999000000,,,-1457982460431820959,0.6836738586425781,33.09640669613145,-30.732177244263806,10.374082389651495,1389,2,0.0,207,61448358207161,13,31.7,97.22236633300781,0.25220000743865967,0,0.0,0.0,1.59975002E9,,,,0,,3,-0.13,1.59975002E9
Raw,327338692,327405999000000,,,-1457982460431820959,0.6836738586425781,33.09640669613145,-30.732177244263806,10.374082389651495,1389,18,0.0,207,61448365131922,11,33.8,138.20582580566406,0.23040001094341278,0,0.0,0.0,1.60031245E9,,,,0,,3,-0.13,1.60031245E9
Raw,327338693,327405999000000,,,-1457982460431820959,0.6836738586425781,33.09640669613145,-30.732177244263806,10.374082389651495,1389,9,0.0,207,61448360740777,11,33.9,-112.17081451416016,0.22290000319480896,0,0.0,0.0,1.60087501E9,,,,0,,3,-0.13,1.60087501E9
Raw,327338694,327405999000000,,,-1457982460431820959,0.6836738586425781,33.09640669613145,-30.732177244263806,10.374082389651495,1389,16,0.0,207,61448360005458,13,31.1,622.953125,0.22519999742507935,0,0.0,0.0,1.60143744E9,,,,0,,3,-0.13,1.60143744E9
Raw,327338695,327405999000000,,,-1457982460431820959,0.6836738586425781,33.09640669613145,-30.732177244263806,10.374082389651495,1389,19,0.0,207,61448360673872,8,36.4,-428.19891357421875,0.22120000422000885,0,0.0,0.0,1.60368755E9,,,,0,,3,-0.13,1.60368755E9
Raw,327338695,327405999000000,,,-1457982460431820959,0.6836738586425781,33.09640669613145,-30.732177244263806,10.374082389651495,1389,3,0.0,207,61448358262119,14,30.9,-611.4276733398438,0.25279998779296875,0,0.0,0.0,1.60481254E9,,,,0,,3,-0.13,1.60481254E9
Raw,327338695,327405999000000,,,-1457982460431820959,0.6836738586425781,33.09640669613145,-30.732177244263806,10.374082389651495,1389,2,0.0,15,137066356329841,6,38.7,-430.62176513671875,0.04410000145435333,0,0.0,0.0,1.57542003E9,,,,0,,1,1.82,1.57542003E9
Raw,327338696,327405999000000,,,-1457982460431820959,0.6836738586425781,33.09640669613145,-30.732177244263806,10.374082389651495,1389,8,0.0,15,137066361641590,9,35.0,-342.0606384277344,0.023100001737475395,0,0.0,0.0,1.57542003E9,,,,0,,1,1.82,1.57542003E9
Raw,327338696,327405999000000,,,-1457982460431820959,0.6836738586425781,33.09640669613145,-30.732177244263806,10.374082389651495,1389,10,0.0,15,137066360348466,17,28.7,-67.44172668457031,0.0333000011742115,0,0.0,0.0,1.57542003E9,,,,0,,1,1.82,1.57542003E9
Raw,327338696,327405999000000,,,-1457982460431820959,0.6836738586425781,33.09640669613145,-30.732177244263806,10.374082389651495,1389,16,0.0,15,137066356951025,24,25.0,605.254638671875,0.4058000147342682,0,0.0,0.0,1.57542003E9,,,,0,,1,1.82,1.57542003E9
Raw,327338697,327405999000000,,,-1457982460431820959,0.6836738586425781,33.09640669613145,-30.732177244263806,10.374082389651495,1389,18,0.0,15,137066348835831,12,32.0,583.8516235351562,0.03590000048279762,0,0.0,0.0,1.57542003E9,,,,0,,1,1.82,1.57542003E9
Raw,327338697,327405999000000,,,-1457982460431820959,0.6836738586425781,33.09640669613145,-30.732177244263806,10.374082389651495,1389,23,0.0,15,137066357521560,14,30.9,396.39410400390625,0.05130000039935112,0,0.0,0.0,1.57542003E9,,,,0,,1,1.82,1.57542003E9
Raw,327338697,327405999000000,,,-1457982460431820959,0.6836738586425781,33.09640669613145,-30.732177244263806,10.374082389651495,1389,26,0.0,15,137066347622854,1005,15.6,694.9810791015625,3.26200008392334,0,0.0,0.0,1.57542003E9,,,,0,,1,1.82,1.57542003E9
Raw,327338698,327405999000000,,,-1457982460431820959,0.6836738586425781,33.09640669613145,-30.732177244263806,10.374082389651495,1389,27,0.0,15,137066363866732,12,32.2,57.831825256347656,0.0284000001847744,0,0.0,0.0,1.57542003E9,,,,0,,1,1.82,1.57542003E9
