# 
# Header Description:
# 
# Version: v2.0.0.1 Platform: 10 Manufacturer: Xiaomi Model: Redmi Note 7
# 
# Raw,ElapsedRealtimeMillis,TimeNanos,LeapSecond,TimeUncertaintyNanos,FullBiasNanos,BiasNanos,BiasUncertaintyNanos,DriftNanosPerSecond,DriftUncertaintyNanosPerSecond,HardwareClockDiscontinuityCount,Svid,TimeOffsetNanos,State,ReceivedSvTimeNanos,ReceivedSvTimeUncertaintyNanos,Cn0DbHz,PseudorangeRateMetersPerSecond,PseudorangeRateUncertaintyMetersPerSecond,AccumulatedDeltaRangeState,AccumulatedDeltaRangeMeters,AccumulatedDeltaRangeUncertaintyMeters,CarrierFrequencyHz,CarrierCycles,CarrierPhase,CarrierPhaseUncertainty,MultipathIndicator,SnrInDb,ConstellationType,AgcDb,CarrierFrequencyHz
# 
# Fix,Provider,Latitude,Longitude,Altitude,Speed,Accuracy,(UTC)TimeInMs
# 
# Nav,Svid,Type,Status,MessageId,Sub-messageId,Data(Bytes)
# 
Fix,gps,45.064861,7.657457,297.538940,0.000000,3.216000,1774274173000
Raw,326862663,326929999000000,,,-1457982460431820406,0.39754486083984375,27.004005460185,-5.853011220740323,9.560858147902927,1374,18,0.0,207,60972365340259,27,24.7,114.84492492675781,0.8739999532699585,0,0.0,0.0,1.60031245E9,,,,0,,3,-0.04,1.60031245E9
Raw,326862663,326929999000000,,,-1457982460431820406,0.39754486083984375,27.004005460185,-5.853011220740323,9.560858147902927,1374,9,0.0,207,60972360512356,17,28.4,-184.17991638183594,0.23330000042915344,0,0.0,0.0,1.60087501E9,,,,0,,3,-0.04,1.60087501E9
Raw,326862664,326929999000000,,,-1457982460431820406,0.39754486083984375,27.004005460185,-5.853011220740323,9.560858147902927,1374,16,0.0,207,60972360966294,13,31.3,577.1256713867188,0.22519999742507935,0,0.0,0.0,1.60143744E9,,,,0,,3,-0.04,1.60143744E9
Raw,326862664,326929999000000,,,-1457982460431820406,0.39754486083984375,27.004005460185,-5.853011220740323,9.560858147902927,1374,19,0.0,207,60972359989022,24,25.7,-443.52606201171875,0.580299973487854,0,0.0,0.0,1.60368755E9,,,,0,,3,-0.04,1.60368755E9
Raw,326862664,326929999000000,,,-1457982460431820406,0.39754486083984375,27.004005460185,-5.853011220740323,9.560858147902927,1374,2,0.0,15,136590355640301,19,27.8,-447.0252380371094,0.06379999965429306,0,0.0,0.0,1.57542003E9,,,,0,,1,1.82,1.57542003E9
Raw,326862665,326929999000000,,,-1457982460431820406,0.39754486083984375,27.004005460185,-5.853011220740323,9.560858147902927,1374,8,0.0,15,136590361084359,9,35.1,-368.5159912109375,0.023100001737475395,0,0.0,0.0,1.57542003E9,,,,0,,1,1.82,1.57542003E9
Raw,326862665,326929999000000,,,-1457982460431820406,0.39754486083984375,27.004005460185,-5.853011220740323,9.560858147902927,1374,10,0.0,15,136590360209855,14,30.6,-116.37035369873047,0.025800000876188278,0,0.0,0.0,1.57542003E9,,,,0,,1,1.82,1.57542003E9
Raw,326862665,326929999000000,,,-1457982460431820406,0.39754486083984375,27.004005460185,-5.853011220740323,9.560858147902927,1374,16,0.0,15,136590357899564,11,33.0,579.6825561523438,0.04840000346302986,0,0.0,0.0,1.57542003E9,,,,0,,1,1.82,1.57542003E9
Raw,326862666,326929999000000,,,-1457982460431820406,0.39754486083984375,27.004005460185,-5.853011220740323,9.560858147902927,1374,18,0.0,15,136590349773754,12,32.3,588.171875,0.03739999979734421,0,0.0,0.0,1.57542003E9,,,,0,,1,1.82,1.57542003E9
Raw,326862666,326929999000000,,,-1457982460431820406,0.39754486083984375,27.004005460185,-5.853011220740323,9.560858147902927,1374,23,0.0,15,136590358127775,12,32.5,357.2868957519531,0.05090000107884407,0,0.0,0.0,1.57542003E9,,,,0,,1,1.82,1.57542003E9
Raw,326862667,326929999000000,,,-1457982460431820406,0.39754486083984375,27.004005460185,-5.853011220740323,9.560858147902927,1374,26,0.0,15,136590348740535,10,34.3,703.0867919921875,0.0340999998152256,0,0.0,0.0,1.57542003E9,,,,0,,1,1.82,1.57542003E9
Raw,326862667,326929999000000,,,-1457982460431820406,0.39754486083984375,27.004005460185,-5.853011220740323,9.560858147902927,1374,27,0.0,15,136590363935675,11,33.3,19.993253707885742,0.027400000020861626,0,0.0,0.0,1.57542003E9,,,,0,,1,1.82,1.57542003E9
Raw,326862667,326929999000000,,,-1457982460431820406,0.39754486083984375,27.004005460185,-5.853011220740323,9.560858147902927,1374,8,0.0,15,136576299628702,21,26.1,210.6510467529297,0.10970000177621841,0,0.0,0.0,1.56109798E9,,,,0,,5,1.54,1.56109798E9
Raw,326862668,326929999000000,,,-1457982460431820406,0.39754486083984375,27.004005460185,-5.853011220740323,9.560858147902927,1374,13,0.0,15,136576301806099,80,16.4,148.61936950683594,0.9980000257492065,0,0.0,0.0,1.56109798E9,,,,0,,5,1.54,1.56109798E9
Raw,326862668,326929999000000,,,-1457982460431820406,0.39754486083984375,27.004005460185,-5.853011220740323,9.560858147902927,1374,14,0.0,15,136576344886305,21,26.4,364.331298828125,0.11720000207424164,0,0.0,0.0,1.56109798E9,,,,0,,5,1.54,1.56109798E9
Raw,326862668,326929999000000,,,-1457982460431820406,0.39754486083984375,27.004005460185,-5.853011220740323,9.560858147902927,1374,13,0.0,7183,136590352298805,16,29.0,-139.04025268554688,0.050700001418590546,0,0.0,0.0,1.57542003E9,,,,0,,6,1.84,1.57542003E9
Raw,326862669,326929999000000,,,-1457982460431820406,0.39754486083984375,27.004005460185,-5.853011220740323,9.560858147902927,1374,15,0.0,7183,136590349098006,13,31.4,332.45611572265625,0.050700001418590546,0,0.0,0.0,1.57542003E9,,,,0,,6,1.84,1.57542003E9
Raw,326862669,326929999000000,,,-1457982460431820406,0.39754486083984375,27.004005460185,-5.853011220740323,9.560858147902927,1374,21,0.0,7183,136590350443131,17,28.4,-32.4742431640625,0.06030000001192093,0,0.0,0.0,1.57542003E9,,,,0,,6,1.84,1.57542003E9
Raw,326862669,326929999000000,,,-1457982460431820406,0.39754486083984375,27.004005460185,-5.853011220740323,9.560858147902927,1374,23,0.0,7183,136590340949985,21,26.7,-480.08441162109375,0.13520000874996185,0,0.0,0.0,1.57542003E9,,,,0,,6,1.84,1.57542003E9
Raw,326862670,326929999000000,,,-1457982460431820406,0.39754486083984375,27.004005460185,-5.853011220740323,9.560858147902927,1374,26,0.0,7183,136590341170414,31,23.4,-466.2480773925781,0.6019999980926514,0,0.0,0.0,1.57542003E9,,,,0,,6,1.84,1.57542003E9
Raw,326862670,326929999000000,,,-1457982460431820406,0.39754486083984375,27.004005460185,-5.853011220740323,9.560858147902927,1374,27,0.0,7183,136590346673750,17,28.5,476.8121337890625,0.06030000001192093,0,0.0,0.0,1.57542003E9,,,,0,,6,1.84,1.57542003E9
Fix,gps,45.064861,7.657457,297.546021,0.000000,3.216000,1774274174000
Raw,326863693,326930999000000,,,-1457982460431820405,0.0978994369506836,29.660488507943228,-3.62054400659099,9.670358492035453,1374,2,0.0,207,60973358311536,56,19.4,25.07406234741211,1.97350013256073,0,0.0,0.0,1.59975002E9,,,,0,,3,-0.04,1.59975002E9
Raw,326863694,326930999000000,,,-1457982460431820405,0.0978994369506836,29.660488507943228,-3.62054400659099,9.670358492035453,1374,18,0.0,207,60973365340001,31,23.3,114.89175415039062,0.9339999556541443,0,0.0,0.0,1.60031245E9,,,,0,,3,-0.04,1.60031245E9
Raw,326863694,326930999000000,,,-1457982460431820405,0.0978994369506836,29.660488507943228,-3.62054400659099,9.670358492035453,1374,9,0.0,207,60973360512952,13,31.0,-183.91131591796875,0.22519999742507935,0,0.0,0.0,1.60087501E9,,,,0,,3,-0.04,1.60087501E9
Raw,326863695,326930999000000,,,-1457982460431820405,0.0978994369506836,29.660488507943228,-3.62054400659099,9.670358492035453,1374,16,0.0,207,60973360964369,11,33.5,577.3530883789062,0.22290000319480896,0,0.0,0.0,1.60143744E9,,,,0,,3,-0.04,1.60143744E9
Raw,326863695,326930999000000,,,-1457982460431820405,0.0978994369506836,29.660488507943228,-3.62054400659099,9.670358492035453,1374,19,0.0,207,60973359990423,16,29.3,-443.40899658203125,0.22519999742507935,0,0.0,0.0,1.60368755E9,,,,0,,3,-0.04,1.60368755E9
Raw,326863696,326930999000000,,,-1457982460431820405,0.0978994369506836,29.660488507943228,-3.62054400659099,9.670358492035453,1374,3,0.0,207,60973357270732,99,16.2,-648.9163818359375,3.7320001125335693,0,0.0,0.0,1.60481254E9,,,,0,,3,-0.04,1.60481254E9
Raw,326863696,326930999000000,,,-1457982460431820405,0.0978994369506836,29.660488507943228,-3.62054400659099,9.670358492035453,1374,2,0.0,15,136591355641753,16,29.8,-446.93756103515625,0.04920000210404396,0,0.0,0.0,1.57542003E9,,,,0,,1,1.7,1.57542003E9
Raw,326863696,326930999000000,,,-1457982460431820405,0.0978994369506836,29.660488507943228,-3.62054400659099,9.670358492035453,1374,8,0.0,15,136591361085578,10,34.0,-368.3526306152344,0.023600000888109207,0,0.0,0.0,1.57542003E9,,,,0,,1,1.7,1.57542003E9
Raw,326863697,326930999000000,,,-1457982460431820405,0.0978994369506836,29.660488507943228,-3.62054400659099,9.670358492035453,1374,10,0.0,15,136591360210243,13,31.6,-116.12932586669922,0.025200000032782555,0,0.0,0.0,1.57542003E9,,,,0,,1,1.7,1.57542003E9
Raw,326863698,326930999000000,,,-1457982460431820405,0.0978994369506836,29.660488507943228,-3.62054400659099,9.670358492035453,1374,16,0.0,15,136591357897639,12,32.3,579.8530883789062,0.049400001764297485,0,0.0,0.0,1.57542003E9,,,,0,,1,1.7,1.57542003E9
Raw,326863698,326930999000000,,,-1457982460431820405,0.0978994369506836,29.660488507943228,-3.62054400659099,9.670358492035453,1374,18,0.0,15,136591349771739,11,33.3,588.2824096679688,0.036400001496076584,0,0.0,0.0,1.57542003E9,,,,0,,1,1.7,1.57542003E9
Raw,326863699,326930999000000,,,-1457982460431820405,0.0978994369506836,29.660488507943228,-3.62054400659099,9.670358492035453,1374,23,0.0,15,136591358126568,10,34.0,357.47357177734375,0.04910000041127205,0,0.0,0.0,1.57542003E9,,,,0,,1,1.7,1.57542003E9
Raw,326863699,326930999000000,,,-1457982460431820405,0.0978994369506836,29.660488507943228,-3.62054400659099,9.670358492035453,1374,26,0.0,15,136591348738166,9,35.0,703.1857299804688,0.03360000252723694,0,0.0,0.0,1.57542003E9,,,,0,,1,1.7,1.57542003E9
Raw,326863699,326930999000000,,,-1457982460431820405,0.0978994369506836,29.660488507943228,-3.62054400659099,9.670358492035453,1374,27,0.0,15,136591363935575,14,30.6,20.180925369262695,0.030300000682473183,0,0.0,0.0,1.57542003E9,,,,0,,1,1.7,1.57542003E9
Raw,326863700,326930999000000,,,-1457982460431820405,0.0978994369506836,29.660488507943228,-3.62054400659099,9.670358492035453,1374,8,0.0,15,136577299628006,21,26.7,210.69259643554688,0.10970000177621841,0,0.0,0.0,1.56109798E9,,,,0,,5,1.51,1.56109798E9
Raw,326863700,326930999000000,,,-1457982460431820405,0.0978994369506836,29.660488507943228,-3.62054400659099,9.670358492035453,1374,14,0.0,15,136577344885089,19,27.4,364.5160827636719,0.047300003468990326,0,0.0,0.0,1.56109798E9,,,,0,,5,1.51,1.56109798E9
Raw,326863701,326930999000000,,,-1457982460431820405,0.0978994369506836,29.660488507943228,-3.62054400659099,9.670358492035453,1374,13,0.0,7183,136591352299271,16,29.5,-138.88113403320312,0.050700001418590546,0,0.0,0.0,1.57542003E9,,,,0,,6,1.7,1.57542003E9
Raw,326863701,326930999000000,,,-1457982460431820405,0.0978994369506836,29.660488507943228,-3.62054400659099,9.670358492035453,1374,15,0.0,7183,136591349096900,14,30.3,332.5870056152344,0.05130000039935112,0,0.0,0.0,1.57542003E9,,,,0,,6,1.7,1.57542003E9
Raw,326863701,326930999000000,,,-1457982460431820405,0.0978994369506836,29.660488507943228,-3.62054400659099,9.670358492035453,1374,21,0.0,7183,136591350443250,19,27.6,-32.24974060058594,0.06830000132322311,0,0.0,0.0,1.57542003E9,,,,0,,6,1.7,1.57542003E9
Raw,326863702,326930999000000,,,-1457982460431820405,0.0978994369506836,29.660488507943228,-3.62054400659099,9.670358492035453,1374,23,0.0,7183,136591340951596,21,26.7,-479.9543762207031,0.13520000874996185,0,0.0,0.0,1.57542003E9,,,,0,,6,1.7,1.57542003E9
Raw,326863702,326930999000000,,,-1457982460431820405,0.0978994369506836,29.660488507943228,-3.62054400659099,9.670358492035453,1374,26,0.0,7183,136591341171939,35,22.8,-466.0482482910156,0.6420000195503235,0,0.0,0.0,1.57542003E9,,,,0,,6,1.7,1.57542003E9
Raw,326863703,326930999000000,,,-1457982460431820405,0.0978994369506836,29.660488507943228,-3.62054400659099,9.670358492035453,1374,27,0.0,7183,136591346672160,17,28.6,476.9842224121094,0.06030000001192093,0,0.0,0.0,1.57542003E9,,,,0,,6,1.7,1.57542003E9
Fix,gps,45.064861,7.657457,297.550659,0.000000,3.216000,1774274175000
Raw,326864668,326931999000000,,,-1457982460431820406,0.1740274429321289,30.64301927224733,-3.394915067365995,9.496221865370163,1374,2,0.0,207,60974358311350,19,27.2,25.13279914855957,0.26829999685287476,0,0.0,0.0,1.59975002E9,,,,0,,3,-0.05,1.59975002E9
Raw,326864669,326931999000000,,,-1457982460431820406,0.1740274429321289,30.64301927224733,-3.394915067365995,9.496221865370163,1374,18,0.0,207,60974365339560,17,28.5,114.87406921386719,0.24080000817775726,0,0.0,0.0,1.60031245E9,,,,0,,3,-0.05,1.60031245E9
Raw,326864669,326931999000000,,,-1457982460431820406,0.1740274429321289,30.64301927224733,-3.394915067365995,9.496221865370163,1374,9,0.0,207,60974360513651,12,32.5,-183.85369873046875,0.22390000522136688,0,0.0,0.0,1.60087501E9,,,,0,,3,-0.05,1.60087501E9
Raw,326864669,326931999000000,,,-1457982460431820406,0.1740274429321289,30.64301927224733,-3.394915067365995,9.496221865370163,1374,16,0.0,207,60974360962427,9,35.2,577.3344116210938,0.2215999960899353,0,0.0,0.0,1.60143744E9,,,,0,,3,-0.05,1.60143744E9
Raw,326864670,326931999000000,,,-1457982460431820406,0.1740274429321289,30.64301927224733,-3.394915067365995,9.496221865370163,1374,19,0.0,207,60974359991934,12,32.3,-443.5909118652344,0.2224000096321106,0,0.0,0.0,1.60368755E9,,,,0,,3,-0.05,1.60368755E9
Raw,326864670,326931999000000,,,-1457982460431820406,0.1740274429321289,30.64301927224733,-3.394915067365995,9.496221865370163,1374,3,0.0,207,60974357272817,46,20.1,-648.7295532226562,1.1420000791549683,0,0.0,0.0,1.60481254E9,,,,0,,3,-0.05,1.60481254E9
Raw,326864670,326931999000000,,,-1457982460431820406,0.1740274429321289,30.64301927224733,-3.394915067365995,9.496221865370163,1374,2,0.0,15,136592355643225,11,33.0,-446.99774169921875,0.04540000110864639,0,0.0,0.0,1.57542003E9,,,,0,,1,1.76,1.57542003E9
Raw,326864671,326931999000000,,,-1457982460431820406,0.1740274429321289,30.64301927224733,-3.394915067365995,9.496221865370163,1374,8,0.0,15,136592361086807,11,33.9,-368.5136413574219,0.024400001391768456,0,0.0,0.0,1.57542003E9,,,,0,,1,1.76,1.57542003E9
Raw,326864671,326931999000000,,,-1457982460431820406,0.1740274429321289,30.64301927224733,-3.394915067365995,9.496221865370163,1374,10,0.0,15,136592360210602,16,29.0,-116.22631072998047,0.02670000120997429,0,0.0,0.0,1.57542003E9,,,,0,,1,1.76,1.57542003E9
Raw,326864671,326931999000000,,,-1457982460431820406,0.1740274429321289,30.64301927224733,-3.394915067365995,9.496221865370163,1374,16,0.0,15,136592357895682,10,34.5,579.708740234375,0.047600001096725464,0,0.0,0.0,1.57542003E9,,,,0,,1,1.76,1.57542003E9
Raw,326864672,326931999000000,,,-1457982460431820406,0.1740274429321289,30.64301927224733,-3.394915067365995,9.496221865370163,1374,18,0.0,15,136592349769776,13,31.9,587.8375244140625,0.038700003176927567,0,0.0,0.0,1.57542003E9,,,,0,,1,1.76,1.57542003E9
Raw,326864672,326931999000000,,,-1457982460431820406,0.1740274429321289,30.64301927224733,-3.394915067365995,9.496221865370163,1374,23,0.0,15,136592358125349,10,34.5,357.2346496582031,0.04910000041127205,0,0.0,0.0,1.57542003E9,,,,0,,1,1.76,1.57542003E9
Raw,326864672,326931999000000,,,-1457982460431820406,0.1740274429321289,30.64301927224733,-3.394915067365995,9.496221865370163,1374,26,0.0,15,136592348735823,10,34.5,702.9754028320312,0.0340999998152256,0,0.0,0.0,1.57542003E9,,,,0,,1,1.76,1.57542003E9
Raw,326864673,326931999000000,,,-1457982460431820406,0.1740274429321289,30.64301927224733,-3.394915067365995,9.496221865370163,1374,27,0.0,15,136592363935520,14,30.4,20.042285919189453,0.030300000682473183,0,0.0,0.0,1.57542003E9,,,,0,,1,1.76,1.57542003E9
Raw,326864673,326931999000000,,,-1457982460431820406,0.1740274429321289,30.64301927224733,-3.394915067365995,9.496221865370163,1374,8,0.0,15,136578299627296,21,26.9,210.3529052734375,0.10970000177621841,0,0.0,0.0,1.56109798E9,,,,0,,5,1.63,1.56109798E9
Raw,326864673,326931999000000,,,-1457982460431820406,0.1740274429321289,30.64301927224733,-3.394915067365995,9.496221865370163,1374,13,0.0,15,136578301805015,37,22.3,148.40811157226562,1.3680000305175781,0,0.0,0.0,1.56109798E9,,,,0,,5,1.63,1.56109798E9
Raw,326864674,326931999000000,,,-1457982460431820406,0.1740274429321289,30.64301927224733,-3.394915067365995,9.496221865370163,1374,14,0.0,15,136578344883876,31,23.9,364.0876770019531,0.5824999809265137,0,0.0,0.0,1.56109798E9,,,,0,,5,1.63,1.56109798E9
Raw,326864674,326931999000000,,,-1457982460431820406,0.1740274429321289,30.64301927224733,-3.394915067365995,9.496221865370163,1374,13,0.0,7183,136592352299744,13,31.5,-139.02694702148438,0.04920000210404396,0,0.0,0.0,1.57542003E9,,,,0,,6,1.73,1.57542003E9
Raw,326864675,326931999000000,,,-1457982460431820406,0.1740274429321289,30.64301927224733,-3.394915067365995,9.496221865370163,1374,15,0.0,7183,136592349095791,12,32.0,332.286865234375,0.049400001764297485,0,0.0,0.0,1.57542003E9,,,,0,,6,1.73,1.57542003E9
Raw,326864675,326931999000000,,,-1457982460431820406,0.1740274429321289,30.64301927224733,-3.394915067365995,9.496221865370163,1374,21,0.0,7183,136592350443339,16,29.2,-32.33567810058594,0.053700003772974014,0,0.0,0.0,1.57542003E9,,,,0,,6,1.73,1.57542003E9
Raw,326864675,326931999000000,,,-1457982460431820406,0.1740274429321289,30.64301927224733,-3.394915067365995,9.496221865370163,1374,23,0.0,7183,136592340953202,13,31.0,-480.05908203125,0.04920000210404396,0,0.0,0.0,1.57542003E9,,,,0,,6,1.73,1.57542003E9
Raw,326864676,326931999000000,,,-1457982460431820406,0.1740274429321289,30.64301927224733,-3.394915067365995,9.496221865370163,1374,26,0.0,7183,136592341173435,40,21.6,-466.50494384765625,0.6919999718666077,0,0.0,0.0,1.57542003E9,,,,0,,6,1.73,1.57542003E9
Raw,326864676,326931999000000,,,-1457982460431820406,0.1740274429321289,30.64301927224733,-3.394915067365995,9.496221865370163,1374,27,0.0,7183,136592346670560,14,30.4,476.7434387207031,0.052800003439188004,0,0.0,0.0,1.57542003E9,,,,0,,6,1.73,1.57542003E9
Fix,gps,45.064857,7.657456,297.333008,0.400000,3.216000,1774274176000
Raw,326865662,326932999000000,,,-1457982460431820401,0.5533466339111328,30.26530430361163,-4.289629934750579,9.500999104978582,1374,2,0.0,207,60975358311320,17,28.4,24.9718074798584,0.26030001044273376,0,0.0,0.0,1.59975002E9,,,,0,,3,0.08,1.59975002E9
Raw,326865662,326932999000000,,,-1457982460431820401,0.5533466339111328,30.26530430361163,-4.289629934750579,9.500999104978582,1374,18,0.0,207,60975365339124,10,34.2,114.80506896972656,0.22960001230239868,0,0.0,0.0,1.60031245E9,,,,0,,3,0.08,1.60031245E9
Raw,326865662,326932999000000,,,-1457982460431820401,0.5533466339111328,30.26530430361163,-4.289629934750579,9.500999104978582,1374,9,0.0,207,60975360514303,9,35.4,-183.8743133544922,0.2215999960899353,0,0.0,0.0,1.60087501E9,,,,0,,3,0.08,1.60087501E9
Raw,326865663,326932999000000,,,-1457982460431820401,0.5533466339111328,30.26530430361163,-4.289629934750579,9.500999104978582,1374,16,0.0,207,60975360960505,7,37.6,576.8987426757812,0.22059999406337738,0,0.0,0.0,1.60143744E9,,,,0,,3,0.08,1.60143744E9
Raw,326865663,326932999000000,,,-1457982460431820401,0.5533466339111328,30.26530430361163,-4.289629934750579,9.500999104978582,1374,19,0.0,207,60975359993473,10,34.2,-443.6994934082031,0.22060000896453857,0,0.0,0.0,1.60368755E9,,,,0,,3,0.08,1.60368755E9
Raw,326865664,326932999000000,,,-1457982460431820401,0.5533466339111328,30.26530430361163,-4.289629934750579,9.500999104978582,1374,3,0.0,207,60975357275154,31,23.5,-648.3092041015625,0.9519999623298645,0,0.0,0.0,1.60481254E9,,,,0,,3,0.08,1.60481254E9
Raw,326865664,326932999000000,,,-1457982460431820401,0.5533466339111328,30.26530430361163,-4.289629934750579,9.500999104978582,1374,2,0.0,15,136593355644724,8,36.9,-447.29345703125,0.04370000213384628,0,0.0,0.0,1.57542003E9,,,,0,,1,1.82,1.57542003E9
Raw,326865664,326932999000000,,,-1457982460431820401,0.5533466339111328,30.26530430361163,-4.289629934750579,9.500999104978582,1374,8,0.0,15,136593361088056,12,32.3,-368.54449462890625,0.02540000155568123,0,0.0,0.0,1.57542003E9,,,,0,,1,1.82,1.57542003E9
Raw,326865664,326932999000000,,,-1457982460431820401,0.5533466339111328,30.26530430361163,-4.289629934750579,9.500999104978582,1374,10,0.0,15,136593360210982,13,31.8,-116.44157409667969,0.025200000032782555,0,0.0,0.0,1.57542003E9,,,,0,,1,1.82,1.57542003E9
Raw,326865665,326932999000000,,,-1457982460431820401,0.5533466339111328,30.26530430361163,-4.289629934750579,9.500999104978582,1374,16,0.0,15,136593357893753,8,36.3,579.1557006835938,0.04670000076293945,0,0.0,0.0,1.57542003E9,,,,0,,1,1.82,1.57542003E9
Raw,326865665,326932999000000,,,-1457982460431820401,0.5533466339111328,30.26530430361163,-4.289629934750579,9.500999104978582,1374,18,0.0,15,136593349767925,16,29.8,588.0288696289062,0.04020000249147415,0,0.0,0.0,1.57542003E9,,,,0,,1,1.82,1.57542003E9
Raw,326865665,326932999000000,,,-1457982460431820401,0.5533466339111328,30.26530430361163,-4.289629934750579,9.500999104978582,1374,23,0.0,15,136593358124131,11,33.6,357.2095947265625,0.04990000277757645,0,0.0,0.0,1.57542003E9,,,,0,,1,1.82,1.57542003E9
Raw,326865666,326932999000000,,,-1457982460431820401,0.5533466339111328,30.26530430361163,-4.289629934750579,9.500999104978582,1374,26,0.0,15,136593348733489,7,37.5,702.2737426757812,0.032600000500679016,0,0.0,0.0,1.57542003E9,,,,0,,1,1.82,1.57542003E9
Raw,326865666,326932999000000,,,-1457982460431820401,0.5533466339111328,30.26530430361163,-4.289629934750579,9.500999104978582,1374,27,0.0,15,136593363935493,8,36.9,19.874086380004883,0.025700001046061516,0,0.0,0.0,1.57542003E9,,,,0,,1,1.82,1.57542003E9
Raw,326865666,326932999000000,,,-1457982460431820401,0.5533466339111328,30.26530430361163,-4.289629934750579,9.500999104978582,1374,8,0.0,15,136579299626587,17,28.1,210.466552734375,0.03180000185966492,0,0.0,0.0,1.56109798E9,,,,0,,5,1.78,1.56109798E9
Raw,326865667,326932999000000,,,-1457982460431820401,0.5533466339111328,30.26530430361163,-4.289629934750579,9.500999104978582,1374,13,0.0,15,136579301804568,19,27.7,148.4448699951172,0.04280000180006027,0,0.0,0.0,1.56109798E9,,,,0,,5,1.78,1.56109798E9
Raw,326865667,326932999000000,,,-1457982460431820401,0.5533466339111328,30.26530430361163,-4.289629934750579,9.500999104978582,1374,14,0.0,15,136579344882650,35,22.7,364.5293884277344,0.6225000023841858,0,0.0,0.0,1.56109798E9,,,,0,,5,1.78,1.56109798E9
Raw,326865668,326932999000000,,,-1457982460431820401,0.5533466339111328,30.26530430361163,-4.289629934750579,9.500999104978582,1374,13,0.0,7183,136593352300186,11,33.0,-139.2139892578125,0.04690000042319298,0,0.0,0.0,1.57542003E9,,,,0,,6,1.99,1.57542003E9
Raw,326865668,326932999000000,,,-1457982460431820401,0.5533466339111328,30.26530430361163,-4.289629934750579,9.500999104978582,1374,15,0.0,7183,136593349094688,12,32.5,332.2293395996094,0.049400001764297485,0,0.0,0.0,1.57542003E9,,,,0,,6,1.99,1.57542003E9
Raw,326865668,326932999000000,,,-1457982460431820401,0.5533466339111328,30.26530430361163,-4.289629934750579,9.500999104978582,1374,21,0.0,7183,136593350443469,19,27.5,-32.51244354248047,0.06830000132322311,0,0.0,0.0,1.57542003E9,,,,0,,6,1.99,1.57542003E9
Raw,326865668,326932999000000,,,-1457982460431820401,0.5533466339111328,30.26530430361163,-4.289629934750579,9.500999104978582,1374,23,0.0,7183,136593340954787,14,30.1,-479.96856689453125,0.049800001084804535,0,0.0,0.0,1.57542003E9,,,,0,,6,1.99,1.57542003E9
Raw,326865669,326932999000000,,,-1457982460431820401,0.5533466339111328,30.26530430361163,-4.289629934750579,9.500999104978582,1374,26,0.0,7183,136593341174999,11,33.5,-466.5615234375,0.04840000346302986,0,0.0,0.0,1.57542003E9,,,,0,,6,1.99,1.57542003E9
Raw,326865669,326932999000000,,,-1457982460431820401,0.5533466339111328,30.26530430361163,-4.289629934750579,9.500999104978582,1374,27,0.0,7183,136593346668962,14,30.2,476.4049072265625,0.052800003439188004,0,0.0,0.0,1.57542003E9,,,,0,,6,1.99,1.57542003E9
Fix,gps,45.064854,7.657458,296.883179,0.380000,3.216000,1774274177000
Raw,326866677,326933999000000,,,-1457982460431820404,0.9903469085693359,26.535226425039582,-5.18830131404658,9.559169771061129,1374,2,0.0,207,60976358311039,21,26.6,25.64476776123047,0.33820000290870667,0,0.0,0.0,1.59975002E9,,,,0,,3,0.07,1.59975002E9
Raw,326866678,326933999000000,,,-1457982460431820404,0.9903469085693359,26.535226425039582,-5.18830131404658,9.559169771061129,1374,18,0.0,207,60976365338654,16,29.8,115.11917877197266,0.23420000076293945,0,0.0,0.0,1.60031245E9,,,,0,,3,0.07,1.60031245E9
Raw,326866678,326933999000000,,,-1457982460431820404,0.9903469085693359,26.535226425039582,-5.18830131404658,9.559169771061129,1374,9,0.0,207,60976360514899,14,30.5,-183.21861267089844,0.22579999268054962,0,0.0,0.0,1.60087501E9,,,,0,,3,0.07,1.60087501E9
Raw,326866678,326933999000000,,,-1457982460431820404,0.9903469085693359,26.535226425039582,-5.18830131404658,9.559169771061129,1374,16,0.0,207,60976360958579,7,37.8,577.6332397460938,0.22059999406337738,0,0.0,0.0,1.60143744E9,,,,0,,3,0.07,1.60143744E9
Raw,326866679,326933999000000,,,-1457982460431820404,0.9903469085693359,26.535226425039582,-5.18830131404658,9.559169771061129,1374,19,0.0,207,60976359994935,10,34.3,-443.1728210449219,0.22060000896453857,0,0.0,0.0,1.60368755E9,,,,0,,3,0.07,1.60368755E9
Raw,326866680,326933999000000,,,-1457982460431820404,0.9903469085693359,26.535226425039582,-5.18830131404658,9.559169771061129,1374,3,0.0,207,60976357277293,12,32.5,-647.9093627929688,0.24940000474452972,0,0.0,0.0,1.60481254E9,,,,0,,3,0.07,1.60481254E9
Raw,326866680,326933999000000,,,-1457982460431820404,0.9903469085693359,26.535226425039582,-5.18830131404658,9.559169771061129,1374,2,0.0,15,136594355646228,14,30.1,-446.640625,0.04830000177025795,0,0.0,0.0,1.57542003E9,,,,0,,1,1.82,1.57542003E9
Raw,326866680,326933999000000,,,-1457982460431820404,0.9903469085693359,26.535226425039582,-5.18830131404658,9.559169771061129,1374,8,0.0,15,136594361089261,10,34.6,-367.9755859375,0.023600000888109207,0,0.0,0.0,1.57542003E9,,,,0,,1,1.82,1.57542003E9
Raw,326866680,326933999000000,,,-1457982460431820404,0.9903469085693359,26.535226425039582,-5.18830131404658,9.559169771061129,1374,10,0.0,15,136594360211381,8,36.2,-116.05274200439453,0.02120000123977661,0,0.0,0.0,1.57542003E9,,,,0,,1,1.82,1.57542003E9
Raw,326866681,326933999000000,,,-1457982460431820404,0.9903469085693359,26.535226425039582,-5.18830131404658,9.559169771061129,1374,16,0.0,15,136594357891816,14,30.5,579.800048828125,0.05130000039935112,0,0.0,0.0,1.57542003E9,,,,0,,1,1.82,1.57542003E9
Raw,326866681,326933999000000,,,-1457982460431820404,0.9903469085693359,26.535226425039582,-5.18830131404658,9.559169771061129,1374,18,0.0,15,136594349765815,35,22.5,588.216796875,0.7400000095367432,0,0.0,0.0,1.57542003E9,,,,0,,1,1.82,1.57542003E9
Raw,326866681,326933999000000,,,-1457982460431820404,0.9903469085693359,26.535226425039582,-5.18830131404658,9.559169771061129,1374,23,0.0,15,136594358122734,46,20.1,357.67596435546875,0.9434999823570251,0,0.0,0.0,1.57542003E9,,,,0,,1,1.82,1.57542003E9
Raw,326866681,326933999000000,,,-1457982460431820404,0.9903469085693359,26.535226425039582,-5.18830131404658,9.559169771061129,1374,26,0.0,15,136594348731139,7,37.8,702.8823852539062,0.032600000500679016,0,0.0,0.0,1.57542003E9,,,,0,,1,1.82,1.57542003E9
Raw,326866682,326933999000000,,,-1457982460431820404,0.9903469085693359,26.535226425039582,-5.18830131404658,9.559169771061129,1374,27,0.0,15,136594363935401,8,36.9,20.362754821777344,0.025700001046061516,0,0.0,0.0,1.57542003E9,,,,0,,1,1.82,1.57542003E9
Raw,326866682,326933999000000,,,-1457982460431820404,0.9903469085693359,26.535226425039582,-5.18830131404658,9.559169771061129,1374,13,0.0,15,136580301804056,27,24.7,149.04185485839844,0.527999997138977,0,0.0,0.0,1.56109798E9,,,,0,,5,1.66,1.56109798E9
Raw,326866682,326933999000000,,,-1457982460431820404,0.9903469085693359,26.535226425039582,-5.18830131404658,9.559169771061129,1374,13,0.0,7183,136594352300652,11,33.6,-138.77890014648438,0.04690000042319298,0,0.0,0.0,1.57542003E9,,,,0,,6,1.81,1.57542003E9
Raw,326866683,326933999000000,,,-1457982460431820404,0.9903469085693359,26.535226425039582,-5.18830131404658,9.559169771061129,1374,15,0.0,7183,136594349093589,40,21.6,333.2137451171875,0.6919999718666077,0,0.0,0.0,1.57542003E9,,,,0,,6,1.81,1.57542003E9
Raw,326866683,326933999000000,,,-1457982460431820404,0.9903469085693359,26.535226425039582,-5.18830131404658,9.559169771061129,1374,21,0.0,7183,136594350443544,14,30.2,-31.937585830688477,0.052800003439188004,0,0.0,0.0,1.57542003E9,,,,0,,6,1.81,1.57542003E9
Raw,326866683,326933999000000,,,-1457982460431820404,0.9903469085693359,26.535226425039582,-5.18830131404658,9.559169771061129,1374,23,0.0,7183,136594340956410,14,30.8,-479.6259460449219,0.049800001084804535,0,0.0,0.0,1.57542003E9,,,,0,,6,1.81,1.57542003E9
Raw,326866684,326933999000000,,,-1457982460431820404,0.9903469085693359,26.535226425039582,-5.18830131404658,9.559169771061129,1374,26,0.0,7183,136594341176509,19,27.0,-466.25201416015625,0.06680000573396683,0,0.0,0.0,1.57542003E9,,,,0,,6,1.81,1.57542003E9
Raw,326866684,326933999000000,,,-1457982460431820404,0.9903469085693359,26.535226425039582,-5.18830131404658,9.559169771061129,1374,27,0.0,7183,136594346667368,11,33.8,476.84918212890625,0.04990000277757645,0,0.0,0.0,1.57542003E9,,,,0,,6,1.81,1.57542003E9
Fix,gps,45.064854,7.657460,296.782227,0.190000,3.216000,1774274178000
Raw,326867668,326934999000000,,,-1457982460431820403,0.2436666488647461,25.2826157520758,-3.8119572693896755,9.660738799958969,1374,2,0.0,207,60977358310819,24,25.4,25.431642532348633,0.6087999939918518,0,0.0,0.0,1.59975002E9,,,,0,,3,0.0,1.59975002E9
Raw,326867668,326934999000000,,,-1457982460431820403,0.2436666488647461,25.2826157520758,-3.8119572693896755,9.660738799958969,1374,18,0.0,207,60977365338379,16,29.3,115.16309356689453,0.23420000076293945,0,0.0,0.0,1.60031245E9,,,,0,,3,0.0,1.60031245E9
Raw,326867669,326934999000000,,,-1457982460431820403,0.2436666488647461,25.2826157520758,-3.8119572693896755,9.660738799958969,1374,9,0.0,207,60977360515524,19,27.8,-183.5506134033203,0.7264999747276306,0,0.0,0.0,1.60087501E9,,,,0,,3,0.0,1.60087501E9
Raw,326867669,326934999000000,,,-1457982460431820403,0.2436666488647461,25.2826157520758,-3.8119572693896755,9.660738799958969,1374,16,0.0,207,60977360956652,7,37.6,577.7855834960938,0.22059999406337738,0,0.0,0.0,1.60143744E9,,,,0,,3,0.0,1.60143744E9
Raw,326867669,326934999000000,,,-1457982460431820403,0.2436666488647461,25.2826157520758,-3.8119572693896755,9.660738799958969,1374,19,0.0,207,60977359996467,12,32.9,-443.4278564453125,0.2224000096321106,0,0.0,0.0,1.60368755E9,,,,0,,3,0.0,1.60368755E9
Raw,326867670,326934999000000,,,-1457982460431820403,0.2436666488647461,25.2826157520758,-3.8119572693896755,9.660738799958969,1374,3,0.0,207,60977357279487,13,31.9,-647.40966796875,0.2506999969482422,0,0.0,0.0,1.60481254E9,,,,0,,3,0.0,1.60481254E9
Raw,326867670,326934999000000,,,-1457982460431820403,0.2436666488647461,25.2826157520758,-3.8119572693896755,9.660738799958969,1374,2,0.0,15,136595355647713,10,34.4,-446.7763977050781,0.044600002467632294,0,0.0,0.0,1.57542003E9,,,,0,,1,1.79,1.57542003E9
Raw,326867670,326934999000000,,,-1457982460431820403,0.2436666488647461,25.2826157520758,-3.8119572693896755,9.660738799958969,1374,8,0.0,15,136595361090504,7,37.2,-368.2029724121094,0.022100001573562622,0,0.0,0.0,1.57542003E9,,,,0,,1,1.79,1.57542003E9
Raw,326867671,326934999000000,,,-1457982460431820403,0.2436666488647461,25.2826157520758,-3.8119572693896755,9.660738799958969,1374,10,0.0,15,136595360211766,10,34.4,-115.66365051269531,0.022099999710917473,0,0.0,0.0,1.57542003E9,,,,0,,1,1.79,1.57542003E9
Raw,326867671,326934999000000,,,-1457982460431820403,0.2436666488647461,25.2826157520758,-3.8119572693896755,9.660738799958969,1374,16,0.0,15,136595357889891,21,26.4,580.2722778320312,0.13670000433921814,0,0.0,0.0,1.57542003E9,,,,0,,1,1.79,1.57542003E9
Raw,326867671,326934999000000,,,-1457982460431820403,0.2436666488647461,25.2826157520758,-3.8119572693896755,9.660738799958969,1374,18,0.0,15,136595349763691,40,21.5,588.9494018554688,0.800000011920929,0,0.0,0.0,1.57542003E9,,,,0,,1,1.79,1.57542003E9
Raw,326867672,326934999000000,,,-1457982460431820403,0.2436666488647461,25.2826157520758,-3.8119572693896755,9.660738799958969,1374,23,0.0,15,136595358121778,31,23.1,358.06610107421875,0.7534999847412109,0,0.0,0.0,1.57542003E9,,,,0,,1,1.79,1.57542003E9
Raw,326867672,326934999000000,,,-1457982460431820403,0.2436666488647461,25.2826157520758,-3.8119572693896755,9.660738799958969,1374,26,0.0,15,136595348728791,8,36.5,703.3516235351562,0.03319999948143959,0,0.0,0.0,1.57542003E9,,,,0,,1,1.79,1.57542003E9
Raw,326867672,326934999000000,,,-1457982460431820403,0.2436666488647461,25.2826157520758,-3.8119572693896755,9.660738799958969,1374,27,0.0,15,136595363935357,8,36.3,20.43699836730957,0.025700001046061516,0,0.0,0.0,1.57542003E9,,,,0,,1,1.79,1.57542003E9
Raw,326867673,326934999000000,,,-1457982460431820403,0.2436666488647461,25.2826157520758,-3.8119572693896755,9.660738799958969,1374,8,0.0,15,136581299625151,73,17.3,210.8977813720703,1.6649999618530273,0,0.0,0.0,1.56109798E9,,,,0,,5,1.68,1.56109798E9
Raw,326867674,326934999000000,,,-1457982460431820403,0.2436666488647461,25.2826157520758,-3.8119572693896755,9.660738799958969,1374,13,0.0,15,136581301803558,24,25.4,148.60067749023438,0.3833000063896179,0,0.0,0.0,1.56109798E9,,,,0,,5,1.68,1.56109798E9
Raw,326867674,326934999000000,,,-1457982460431820403,0.2436666488647461,25.2826157520758,-3.8119572693896755,9.660738799958969,1374,13,0.0,7183,136595352301121,10,34.2,-138.6885986328125,0.04610000178217888,0,0.0,0.0,1.57542003E9,,,,0,,6,1.88,1.57542003E9
Raw,326867674,326934999000000,,,-1457982460431820403,0.2436666488647461,25.2826157520758,-3.8119572693896755,9.660738799958969,1374,15,0.0,7183,136595349092437,40,21.8,332.5762634277344,0.6919999718666077,0,0.0,0.0,1.57542003E9,,,,0,,6,1.88,1.57542003E9
Raw,326867675,326934999000000,,,-1457982460431820403,0.2436666488647461,25.2826157520758,-3.8119572693896755,9.660738799958969,1374,21,0.0,7183,136595350443669,13,31.9,-31.99745750427246,0.05220000073313713,0,0.0,0.0,1.57542003E9,,,,0,,6,1.88,1.57542003E9
Raw,326867675,326934999000000,,,-1457982460431820403,0.2436666488647461,25.2826157520758,-3.8119572693896755,9.660738799958969,1374,23,0.0,7183,136595340957988,16,29.4,-479.9112854003906,0.050700001418590546,0,0.0,0.0,1.57542003E9,,,,0,,6,1.88,1.57542003E9
Raw,326867675,326934999000000,,,-1457982460431820403,0.2436666488647461,25.2826157520758,-3.8119572693896755,9.660738799958969,1374,26,0.0,7183,136595341178110,19,27.6,-465.919921875,0.06680000573396683,0,0.0,0.0,1.57542003E9,,,,0,,6,1.88,1.57542003E9
Raw,326867675,326934999000000,,,-1457982460431820403,0.2436666488647461,25.2826157520758,-3.8119572693896755,9.660738799958969,1374,27,0.0,7183,136595346665783,16,29.4,477.2721862792969,0.053700003772974014,0,0.0,0.0,1.57542003E9,,,,0,,6,1.88,1.57542003E9
Fix,gps,45.064857,7.657458,296.988342,0.310000,3.216000,1774274179000
Raw,326868677,326935999000000,,,-1457982460431820411,0.4801616668701172,26.444489776622504,-3.5276558431743745,10.277641318302363,1374,2,0.0,207,60978358310966,24,25.3,25.820634841918945,0.6087999939918518,0,0.0,0.0,1.59975002E9,,,,0,,3,0.06,1.59975002E9
Raw,326868677,326935999000000,,,-1457982460431820411,0.4801616668701172,26.444489776622504,-3.5276558431743745,10.277641318302363,1374,18,0.0,207,60978365338006,12,32.9,115.24227905273438,0.2314000129699707,0,0.0,0.0,1.60031245E9,,,,0,,3,0.06,1.60031245E9
Raw,326868677,326935999000000,,,-1457982460431820411,0.4801616668701172,26.444489776622504,-3.5276558431743745,10.277641318302363,1374,9,0.0,207,60978360516182,10,34.9,-183.38206481933594,0.5065000057220459,0,0.0,0.0,1.60087501E9,,,,0,,3,0.06,1.60087501E9
Raw,326868678,326935999000000,,,-1457982460431820411,0.4801616668701172,26.444489776622504,-3.5276558431743745,10.277641318302363,1374,16,0.0,207,60978360954732,8,36.6,577.7918701171875,0.22120000422000885,0,0.0,0.0,1.60143744E9,,,,0,,3,0.06,1.60143744E9
Raw,326868678,326935999000000,,,-1457982460431820411,0.4801616668701172,26.444489776622504,-3.5276558431743745,10.277641318302363,1374,19,0.0,207,60978359997889,10,34.8,-443.5486755371094,0.22060000896453857,0,0.0,0.0,1.60368755E9,,,,0,,3,0.06,1.60368755E9
Raw,326868679,326935999000000,,,-1457982460431820411,0.4801616668701172,26.444489776622504,-3.5276558431743745,10.277641318302363,1374,3,0.0,207,60978357281620,24,25.0,-647.2338256835938,0.6072999835014343,0,0.0,0.0,1.60481254E9,,,,0,,3,0.06,1.60481254E9
Raw,326868679,326935999000000,,,-1457982460431820411,0.4801616668701172,26.444489776622504,-3.5276558431743745,10.277641318302363,1374,2,0.0,15,136596355649184,8,36.6,-446.9387512207031,0.04370000213384628,0,0.0,0.0,1.57542003E9,,,,0,,1,1.94,1.57542003E9
Raw,326868679,326935999000000,,,-1457982460431820411,0.4801616668701172,26.444489776622504,-3.5276558431743745,10.277641318302363,1374,8,0.0,15,136596361091739,14,30.4,-368.21844482421875,0.027300000190734863,0,0.0,0.0,1.57542003E9,,,,0,,1,1.94,1.57542003E9
Raw,326868680,326935999000000,,,-1457982460431820411,0.4801616668701172,26.444489776622504,-3.5276558431743745,10.277641318302363,1374,10,0.0,15,136596360212171,10,34.2,-115.43327331542969,0.022099999710917473,0,0.0,0.0,1.57542003E9,,,,0,,1,1.94,1.57542003E9
Raw,326868680,326935999000000,,,-1457982460431820411,0.4801616668701172,26.444489776622504,-3.5276558431743745,10.277641318302363,1374,16,0.0,15,136596357887908,11,33.4,580.2643432617188,0.04840000346302986,0,0.0,0.0,1.57542003E9,,,,0,,1,1.94,1.57542003E9
Raw,326868680,326935999000000,,,-1457982460431820411,0.4801616668701172,26.444489776622504,-3.5276558431743745,10.277641318302363,1374,18,0.0,15,136596349761932,31,23.7,588.3214721679688,0.6800000071525574,0,0.0,0.0,1.57542003E9,,,,0,,1,1.94,1.57542003E9
Raw,326868681,326935999000000,,,-1457982460431820411,0.4801616668701172,26.444489776622504,-3.5276558431743745,10.277641318302363,1374,23,0.0,15,136596358120529,17,28.9,357.8787536621094,0.06030000001192093,0,0.0,0.0,1.57542003E9,,,,0,,1,1.94,1.57542003E9
Raw,326868681,326935999000000,,,-1457982460431820411,0.4801616668701172,26.444489776622504,-3.5276558431743745,10.277641318302363,1374,26,0.0,15,136596348726444,7,37.8,703.2871704101562,0.032600000500679016,0,0.0,0.0,1.57542003E9,,,,0,,1,1.94,1.57542003E9
Raw,326868682,326935999000000,,,-1457982460431820411,0.4801616668701172,26.444489776622504,-3.5276558431743745,10.277641318302363,1374,27,0.0,15,136596363935296,8,36.5,20.56102752685547,0.025700001046061516,0,0.0,0.0,1.57542003E9,,,,0,,1,1.94,1.57542003E9
Raw,326868682,326935999000000,,,-1457982460431820411,0.4801616668701172,26.444489776622504,-3.5276558431743745,10.277641318302363,1374,8,0.0,15,136582299624476,16,29.7,211.03941345214844,0.025200001895427704,0,0.0,0.0,1.56109798E9,,,,0,,5,1.68,1.56109798E9
Raw,326868682,326935999000000,,,-1457982460431820411,0.4801616668701172,26.444489776622504,-3.5276558431743745,10.277641318302363,1374,13,0.0,15,136582301803062,24,25.7,148.8191375732422,0.3833000063896179,0,0.0,0.0,1.56109798E9,,,,0,,5,1.68,1.56109798E9
Raw,326868683,326935999000000,,,-1457982460431820411,0.4801616668701172,26.444489776622504,-3.5276558431743745,10.277641318302363,1374,14,0.0,15,136582344878980,60,19.3,365.2110900878906,2.2925000190734863,0,0.0,0.0,1.56109798E9,,,,0,,5,1.68,1.56109798E9
Raw,326868684,326935999000000,,,-1457982460431820411,0.4801616668701172,26.444489776622504,-3.5276558431743745,10.277641318302363,1374,13,0.0,7183,136596352301591,10,34.4,-138.7308807373047,0.04610000178217888,0,0.0,0.0,1.57542003E9,,,,0,,6,1.88,1.57542003E9
Raw,326868684,326935999000000,,,-1457982460431820411,0.4801616668701172,26.444489776622504,-3.5276558431743745,10.277641318302363,1374,15,0.0,7183,136596349091370,21,26.0,332.6068420410156,0.13670000433921814,0,0.0,0.0,1.57542003E9,,,,0,,6,1.88,1.57542003E9
Raw,326868684,326935999000000,,,-1457982460431820411,0.4801616668701172,26.444489776622504,-3.5276558431743745,10.277641318302363,1374,21,0.0,7183,136596350443781,17,28.0,-32.01219940185547,0.06030000001192093,0,0.0,0.0,1.57542003E9,,,,0,,6,1.88,1.57542003E9
Raw,326868685,326935999000000,,,-1457982460431820411,0.4801616668701172,26.444489776622504,-3.5276558431743745,10.277641318302363,1374,23,0.0,7183,136596340959610,19,27.9,-480.11224365234375,0.06530000269412994,0,0.0,0.0,1.57542003E9,,,,0,,6,1.88,1.57542003E9
Raw,326868685,326935999000000,,,-1457982460431820411,0.4801616668701172,26.444489776622504,-3.5276558431743745,10.277641318302363,1374,26,0.0,7183,136596341179674,10,34.4,-466.1051940917969,0.047600001096725464,0,0.0,0.0,1.57542003E9,,,,0,,6,1.88,1.57542003E9
Raw,326868685,326935999000000,,,-1457982460431820411,0.4801616668701172,26.444489776622504,-3.5276558431743745,10.277641318302363,1374,27,0.0,7183,136596346664205,13,31.3,477.37005615234375,0.05220000073313713,0,0.0,0.0,1.57542003E9,,,,0,,6,1.88,1.57542003E9
Fix,gps,45.064860,7.657459,296.653076,0.190000,3.216000,1774274180000
Raw,326869681,326936999000000,,,-1457982460431820420,0.15203475952148438,26.12408934510313,-3.512528845572951,9.965665383594706,1374,2,0.0,207,60979358310989,13,31.1,25.959680557250977,0.25220000743865967,0,0.0,0.0,1.59975002E9,,,,0,,3,0.09,1.59975002E9
Raw,326869682,326936999000000,,,-1457982460431820420,0.15203475952148438,26.12408934510313,-3.512528845572951,9.965665383594706,1374,18,0.0,207,60979365337588,12,32.8,115.2165756225586,0.2314000129699707,0,0.0,0.0,1.60031245E9,,,,0,,3,0.09,1.60031245E9
Raw,326869682,326936999000000,,,-1457982460431820420,0.15203475952148438,26.12408934510313,-3.512528845572951,9.965665383594706,1374,9,0.0,207,60979360516780,11,33.5,-183.1140899658203,0.22290000319480896,0,0.0,0.0,1.60087501E9,,,,0,,3,0.09,1.60087501E9
Raw,326869682,326936999000000,,,-1457982460431820420,0.15203475952148438,26.12408934510313,-3.512528845572951,9.965665383594706,1374,16,0.0,207,60979360952790,8,36.5,578.0414428710938,0.22120000422000885,0,0.0,0.0,1.60143744E9,,,,0,,3,0.09,1.60143744E9
Raw,326869683,326936999000000,,,-1457982460431820420,0.15203475952148438,26.12408934510313,-3.512528845572951,9.965665383594706,1374,19,0.0,207,60979359999386,11,33.9,-443.2935485839844,0.22140000760555267,0,0.0,0.0,1.60368755E9,,,,0,,3,0.09,1.60368755E9
Raw,326869683,326936999000000,,,-1457982460431820420,0.15203475952148438,26.12408934510313,-3.512528845572951,9.965665383594706,1374,3,0.0,207,60979357283659,27,24.2,-647.4312133789062,0.8919999599456787,0,0.0,0.0,1.60481254E9,,,,0,,3,0.09,1.60481254E9
Raw,326869683,326936999000000,,,-1457982460431820420,0.15203475952148438,26.12408934510313,-3.512528845572951,9.965665383594706,1374,2,0.0,15,136597355650669,8,36.7,-446.61279296875,0.04370000213384628,0,0.0,0.0,1.57542003E9,,,,0,,1,1.85,1.57542003E9
Raw,326869683,326936999000000,,,-1457982460431820420,0.15203475952148438,26.12408934510313,-3.512528845572951,9.965665383594706,1374,8,0.0,15,136597361092967,11,33.6,-368.10369873046875,0.024400001391768456,0,0.0,0.0,1.57542003E9,,,,0,,1,1.85,1.57542003E9
Raw,326869684,326936999000000,,,-1457982460431820420,0.15203475952148438,26.12408934510313,-3.512528845572951,9.965665383594706,1374,10,0.0,15,136597360212558,13,31.3,-115.65457916259766,0.025200000032782555,0,0.0,0.0,1.57542003E9,,,,0,,1,1.85,1.57542003E9
Raw,326869684,326936999000000,,,-1457982460431820420,0.15203475952148438,26.12408934510313,-3.512528845572951,9.965665383594706,1374,16,0.0,15,136597357886031,12,32.2,580.284912109375,0.049400001764297485,0,0.0,0.0,1.57542003E9,,,,0,,1,1.85,1.57542003E9
Raw,326869684,326936999000000,,,-1457982460431820420,0.15203475952148438,26.12408934510313,-3.512528845572951,9.965665383594706,1374,18,0.0,15,136597349760013,19,27.3,588.1197509765625,0.05480000376701355,0,0.0,0.0,1.57542003E9,,,,0,,1,1.85,1.57542003E9
Raw,326869685,326936999000000,,,-1457982460431820420,0.15203475952148438,26.12408934510313,-3.512528845572951,9.965665383594706,1374,23,0.0,15,136597358119377,10,34.6,357.8047180175781,0.04910000041127205,0,0.0,0.0,1.57542003E9,,,,0,,1,1.85,1.57542003E9
Raw,326869685,326936999000000,,,-1457982460431820420,0.15203475952148438,26.12408934510313,-3.512528845572951,9.965665383594706,1374,26,0.0,15,136597348724074,9,35.4,703.2539672851562,0.03360000252723694,0,0.0,0.0,1.57542003E9,,,,0,,1,1.85,1.57542003E9
Raw,326869685,326936999000000,,,-1457982460431820420,0.15203475952148438,26.12408934510313,-3.512528845572951,9.965665383594706,1374,27,0.0,15,136597363935218,8,36.8,20.546659469604492,0.025700001046061516,0,0.0,0.0,1.57542003E9,,,,0,,1,1.85,1.57542003E9
Raw,326869685,326936999000000,,,-1457982460431820420,0.15203475952148438,26.12408934510313,-3.512528845572951,9.965665383594706,1374,8,0.0,15,136583299623783,21,26.4,210.33029174804688,0.10970000177621841,0,0.0,0.0,1.56109798E9,,,,0,,5,1.63,1.56109798E9
Raw,326869686,326936999000000,,,-1457982460431820420,0.15203475952148438,26.12408934510313,-3.512528845572951,9.965665383594706,1374,13,0.0,15,136583301802580,24,25.2,148.61927795410156,0.3833000063896179,0,0.0,0.0,1.56109798E9,,,,0,,5,1.63,1.56109798E9
Raw,326869686,326936999000000,,,-1457982460431820420,0.15203475952148438,26.12408934510313,-3.512528845572951,9.965665383594706,1374,14,0.0,15,136583344877777,31,23.8,364.8366394042969,0.5824999809265137,0,0.0,0.0,1.56109798E9,,,,0,,5,1.63,1.56109798E9
Raw,326869686,326936999000000,,,-1457982460431820420,0.15203475952148438,26.12408934510313,-3.512528845572951,9.965665383594706,1374,13,0.0,7183,136597352302049,10,34.3,-138.64825439453125,0.04610000178217888,0,0.0,0.0,1.57542003E9,,,,0,,6,1.81,1.57542003E9
Raw,326869686,326936999000000,,,-1457982460431820420,0.15203475952148438,26.12408934510313,-3.512528845572951,9.965665383594706,1374,15,0.0,7183,136597349090265,12,32.9,332.5067443847656,0.049400001764297485,0,0.0,0.0,1.57542003E9,,,,0,,6,1.81,1.57542003E9
Raw,326869687,326936999000000,,,-1457982460431820420,0.15203475952148438,26.12408934510313,-3.512528845572951,9.965665383594706,1374,21,0.0,7183,136597350443890,13,31.2,-31.83881378173828,0.05220000073313713,0,0.0,0.0,1.57542003E9,,,,0,,6,1.81,1.57542003E9
Raw,326869687,326936999000000,,,-1457982460431820420,0.15203475952148438,26.12408934510313,-3.512528845572951,9.965665383594706,1374,23,0.0,7183,136597340961195,21,26.5,-479.8323669433594,0.13520000874996185,0,0.0,0.0,1.57542003E9,,,,0,,6,1.81,1.57542003E9
Raw,326869687,326936999000000,,,-1457982460431820420,0.15203475952148438,26.12408934510313,-3.512528845572951,9.965665383594706,1374,26,0.0,7183,136597341181233,10,34.2,-465.988037109375,0.047600001096725464,0,0.0,0.0,1.57542003E9,,,,0,,6,1.81,1.57542003E9
Raw,326869688,326936999000000,,,-1457982460431820420,0.15203475952148438,26.12408934510313,-3.512528845572951,9.965665383594706,1374,27,0.0,7183,136597346662593,16,29.0,477.1731262207031,0.053700003772974014,0,0.0,0.0,1.57542003E9,,,,0,,6,1.81,1.57542003E9
Fix,gps,45.064862,7.657459,296.719604,0.000000,3.216000,1774274181000
Raw,326870678,326937999000000,,,-1457982460431820427,0.05908203125,24.779548766673543,-3.940329181241195,9.646215418948653,1374,2,0.0,207,60980358310920,17,28.0,26.167236328125,0.26030001044273376,0,0.0,0.0,1.59975002E9,,,,0,,3,0.03,1.59975002E9
Raw,326870678,326937999000000,,,-1457982460431820427,0.05908203125,24.779548766673543,-3.940329181241195,9.646215418948653,1374,18,0.0,207,60980365337200,14,30.2,115.23514556884766,0.23330000042915344,0,0.0,0.0,1.60031245E9,,,,0,,3,0.03,1.60031245E9
Raw,326870679,326937999000000,,,-1457982460431820427,0.05908203125,24.779548766673543,-3.940329181241195,9.646215418948653,1374,9,0.0,207,60980360517405,8,36.8,-183.08470153808594,0.22120000422000885,0,0.0,0.0,1.60087501E9,,,,0,,3,0.03,1.60087501E9
Raw,326870679,326937999000000,,,-1457982460431820427,0.05908203125,24.779548766673543,-3.940329181241195,9.646215418948653,1374,16,0.0,207,60980360950852,8,36.1,577.8221435546875,0.22120000422000885,0,0.0,0.0,1.60143744E9,,,,0,,3,0.03,1.60143744E9
Raw,326870679,326937999000000,,,-1457982460431820427,0.05908203125,24.779548766673543,-3.940329181241195,9.646215418948653,1374,19,0.0,207,60980360000784,14,30.2,-443.1941833496094,0.22579999268054962,0,0.0,0.0,1.60368755E9,,,,0,,3,0.03,1.60368755E9
Raw,326870679,326937999000000,,,-1457982460431820427,0.05908203125,24.779548766673543,-3.940329181241195,9.646215418948653,1374,3,0.0,207,60980357286026,31,23.2,-646.9362182617188,0.9519999623298645,0,0.0,0.0,1.60481254E9,,,,0,,3,0.03,1.60481254E9
Raw,326870680,326937999000000,,,-1457982460431820427,0.05908203125,24.779548766673543,-3.940329181241195,9.646215418948653,1374,2,0.0,15,136598355652177,8,36.7,-446.92132568359375,0.04370000213384628,0,0.0,0.0,1.57542003E9,,,,0,,1,1.82,1.57542003E9
Raw,326870680,326937999000000,,,-1457982460431820427,0.05908203125,24.779548766673543,-3.940329181241195,9.646215418948653,1374,8,0.0,15,136598361094186,24,25.1,-367.6459655761719,0.3833000063896179,0,0.0,0.0,1.57542003E9,,,,0,,1,1.82,1.57542003E9
Raw,326870680,326937999000000,,,-1457982460431820427,0.05908203125,24.779548766673543,-3.940329181241195,9.646215418948653,1374,10,0.0,15,136598360212929,17,28.4,-115.43142700195312,0.0333000011742115,0,0.0,0.0,1.57542003E9,,,,0,,1,1.82,1.57542003E9
Raw,326870680,326937999000000,,,-1457982460431820427,0.05908203125,24.779548766673543,-3.940329181241195,9.646215418948653,1374,16,0.0,15,136598357884024,17,28.1,580.0277099609375,0.058800000697374344,0,0.0,0.0,1.57542003E9,,,,0,,1,1.82,1.57542003E9
Raw,326870681,326937999000000,,,-1457982460431820427,0.05908203125,24.779548766673543,-3.940329181241195,9.646215418948653,1374,23,0.0,15,136598358118169,14,30.3,358.0833435058594,0.052800003439188004,0,0.0,0.0,1.57542003E9,,,,0,,1,1.82,1.57542003E9
Raw,326870681,326937999000000,,,-1457982460431820427,0.05908203125,24.779548766673543,-3.940329181241195,9.646215418948653,1374,26,0.0,15,136598348721817,24,25.2,702.9904174804688,0.3937999904155731,0,0.0,0.0,1.57542003E9,,,,0,,1,1.82,1.57542003E9
Raw,326870682,326937999000000,,,-1457982460431820427,0.05908203125,24.779548766673543,-3.940329181241195,9.646215418948653,1374,27,0.0,15,136598363935136,6,38.4,20.617130279541016,0.02460000105202198,0,0.0,0.0,1.57542003E9,,,,0,,1,1.82,1.57542003E9
Raw,326870682,326937999000000,,,-1457982460431820427,0.05908203125,24.779548766673543,-3.940329181241195,9.646215418948653,1374,8,0.0,15,136584299623071,13,31.5,210.69219970703125,0.02370000071823597,0,0.0,0.0,1.56109798E9,,,,0,,5,1.72,1.56109798E9
Raw,326870682,326937999000000,,,-1457982460431820427,0.05908203125,24.779548766673543,-3.940329181241195,9.646215418948653,1374,13,0.0,15,136584301802088,17,28.2,148.7433319091797,0.03480000048875809,0,0.0,0.0,1.56109798E9,,,,0,,5,1.72,1.56109798E9
Raw,326870682,326937999000000,,,-1457982460431820427,0.05908203125,24.779548766673543,-3.940329181241195,9.646215418948653,1374,14,0.0,15,136584344876568,17,28.7,364.9613037109375,0.03930000215768814,0,0.0,0.0,1.56109798E9,,,,0,,5,1.72,1.56109798E9
Raw,326870683,326937999000000,,,-1457982460431820427,0.05908203125,24.779548766673543,-3.940329181241195,9.646215418948653,1374,13,0.0,7183,136598352302514,10,34.8,-138.7692413330078,0.04610000178217888,0,0.0,0.0,1.57542003E9,,,,0,,6,1.73,1.57542003E9
Raw,326870683,326937999000000,,,-1457982460431820427,0.05908203125,24.779548766673543,-3.940329181241195,9.646215418948653,1374,15,0.0,7183,136598349089143,13,31.4,332.5680847167969,0.050700001418590546,0,0.0,0.0,1.57542003E9,,,,0,,6,1.73,1.57542003E9
Raw,326870683,326937999000000,,,-1457982460431820427,0.05908203125,24.779548766673543,-3.940329181241195,9.646215418948653,1374,21,0.0,7183,136598350444000,8,36.0,-31.93341636657715,0.04820000380277634,0,0.0,0.0,1.57542003E9,,,,0,,6,1.73,1.57542003E9
Raw,326870683,326937999000000,,,-1457982460431820427,0.05908203125,24.779548766673543,-3.940329181241195,9.646215418948653,1374,23,0.0,7183,136598340962811,12,32.3,-479.9171142578125,0.0479000024497509,0,0.0,0.0,1.57542003E9,,,,0,,6,1.73,1.57542003E9
Raw,326870684,326937999000000,,,-1457982460431820427,0.05908203125,24.779548766673543,-3.940329181241195,9.646215418948653,1374,26,0.0,7183,136598341182759,11,33.0,-466.0950622558594,0.04840000346302986,0,0.0,0.0,1.57542003E9,,,,0,,6,1.73,1.57542003E9
Raw,326870684,326937999000000,,,-1457982460431820427,0.05908203125,24.779548766673543,-3.940329181241195,9.646215418948653,1374,27,0.0,7183,136598346660994,35,22.3,477.25653076171875,0.643500030040741,0,0.0,0.0,1.57542003E9,,,,0,,6,1.73,1.57542003E9
Fix,gps,45.064863,7.657460,296.722839,0.000000,3.216000,1774274182000
Raw,326871677,326938999000000,,,-1457982460431820426,0.9962329864501953,24.442550056846812,-3.9420374400523963,9.68672691980647,1374,2,0.0,207,60981358310787,14,30.4,25.939207077026367,0.25279998779296875,0,0.0,0.0,1.59975002E9,,,,0,,3,0.13,1.59975002E9
Raw,326871677,326938999000000,,,-1457982460431820426,0.9962329864501953,24.442550056846812,-3.9420374400523963,9.68672691980647,1374,18,0.0,207,60981365336846,10,34.3,114.8978500366211,0.22960001230239868,0,0.0,0.0,1.60031245E9,,,,0,,3,0.13,1.60031245E9
Raw,326871678,326938999000000,,,-1457982460431820426,0.9962329864501953,24.442550056846812,-3.9420374400523963,9.68672691980647,1374,9,0.0,207,60981360517903,11,33.4,-183.30796813964844,0.22290000319480896,0,0.0,0.0,1.60087501E9,,,,0,,3,0.13,1.60087501E9
Raw,326871678,326938999000000,,,-1457982460431820426,0.9962329864501953,24.442550056846812,-3.9420374400523963,9.68672691980647,1374,16,0.0,207,60981360948951,7,37.1,577.5288696289062,0.22059999406337738,0,0.0,0.0,1.60143744E9,,,,0,,3,0.13,1.60143744E9
Raw,326871678,326938999000000,,,-1457982460431820426,0.9962329864501953,24.442550056846812,-3.9420374400523963,9.68672691980647,1374,19,0.0,207,60981360002361,12,32.1,-443.8544006347656,0.22390000522136688,0,0.0,0.0,1.60368755E9,,,,0,,3,0.13,1.60368755E9
Raw,326871678,326938999000000,,,-1457982460431820426,0.9962329864501953,24.442550056846812,-3.9420374400523963,9.68672691980647,1374,3,0.0,207,60981357288066,40,21.2,-647.5713500976562,1.0720000267028809,0,0.0,0.0,1.60481254E9,,,,0,,3,0.13,1.60481254E9
Raw,326871679,326938999000000,,,-1457982460431820426,0.9962329864501953,24.442550056846812,-3.9420374400523963,9.68672691980647,1374,2,0.0,15,136599355653636,7,37.4,-447.2502746582031,0.04310000315308571,0,0.0,0.0,1.57542003E9,,,,0,,1,1.79,1.57542003E9
Raw,326871679,326938999000000,,,-1457982460431820426,0.9962329864501953,24.442550056846812,-3.9420374400523963,9.68672691980647,1374,8,0.0,15,136599361095407,13,31.3,-368.46551513671875,0.02670000120997429,0,0.0,0.0,1.57542003E9,,,,0,,1,1.79,1.57542003E9
Raw,326871679,326938999000000,,,-1457982460431820426,0.9962329864501953,24.442550056846812,-3.9420374400523963,9.68672691980647,1374,10,0.0,15,136599360213388,14,30.6,-115.81391906738281,0.025800000876188278,0,0.0,0.0,1.57542003E9,,,,0,,1,1.79,1.57542003E9
Raw,326871680,326938999000000,,,-1457982460431820426,0.9962329864501953,24.442550056846812,-3.9420374400523963,9.68672691980647,1374,16,0.0,15,136599357882159,13,31.8,579.7052001953125,0.050700001418590546,0,0.0,0.0,1.57542003E9,,,,0,,1,1.79,1.57542003E9
Raw,326871680,326938999000000,,,-1457982460431820426,0.9962329864501953,24.442550056846812,-3.9420374400523963,9.68672691980647,1374,23,0.0,15,136599358116979,10,34.3,357.6725769042969,0.04910000041127205,0,0.0,0.0,1.57542003E9,,,,0,,1,1.79,1.57542003E9
Raw,326871680,326938999000000,,,-1457982460431820426,0.9962329864501953,24.442550056846812,-3.9420374400523963,9.68672691980647,1374,26,0.0,15,136599348719400,7,37.0,702.4481811523438,0.032600000500679016,0,0.0,0.0,1.57542003E9,,,,0,,1,1.79,1.57542003E9
Raw,326871681,326938999000000,,,-1457982460431820426,0.9962329864501953,24.442550056846812,-3.9420374400523963,9.68672691980647,1374,27,0.0,15,136599363935090,7,37.4,20.276248931884766,0.025100000202655792,0,0.0,0.0,1.57542003E9,,,,0,,1,1.79,1.57542003E9
Raw,326871681,326938999000000,,,-1457982460431820426,0.9962329864501953,24.442550056846812,-3.9420374400523963,9.68672691980647,1374,8,0.0,15,136585299622364,16,29.2,210.21485900878906,0.025200001895427704,0,0.0,0.0,1.56109798E9,,,,0,,5,1.72,1.56109798E9
Raw,326871681,326938999000000,,,-1457982460431820426,0.9962329864501953,24.442550056846812,-3.9420374400523963,9.68672691980647,1374,13,0.0,15,136585301801591,17,28.5,148.2782745361328,0.03480000048875809,0,0.0,0.0,1.56109798E9,,,,0,,5,1.72,1.56109798E9
Raw,326871681,326938999000000,,,-1457982460431820426,0.9962329864501953,24.442550056846812,-3.9420374400523963,9.68672691980647,1374,14,0.0,15,136585344875348,27,24.8,364.2989196777344,0.5324999690055847,0,0.0,0.0,1.56109798E9,,,,0,,5,1.72,1.56109798E9
Raw,326871682,326938999000000,,,-1457982460431820426,0.9962329864501953,24.442550056846812,-3.9420374400523963,9.68672691980647,1374,13,0.0,7183,136599352302968,10,34.3,-139.07687377929688,0.04610000178217888,0,0.0,0.0,1.57542003E9,,,,0,,6,1.84,1.57542003E9
Raw,326871682,326938999000000,,,-1457982460431820426,0.9962329864501953,24.442550056846812,-3.9420374400523963,9.68672691980647,1374,15,0.0,7183,136599349088031,11,33.8,332.2854919433594,0.04840000346302986,0,0.0,0.0,1.57542003E9,,,,0,,6,1.84,1.57542003E9
Raw,326871682,326938999000000,,,-1457982460431820426,0.9962329864501953,24.442550056846812,-3.9420374400523963,9.68672691980647,1374,21,0.0,7183,136599350444109,14,30.9,-32.19496536254883,0.052800003439188004,0,0.0,0.0,1.57542003E9,,,,0,,6,1.84,1.57542003E9
Raw,326871683,326938999000000,,,-1457982460431820426,0.9962329864501953,24.442550056846812,-3.9420374400523963,9.68672691980647,1374,23,0.0,7183,136599340964398,24,25.1,-480.199951171875,0.4058000147342682,0,0.0,0.0,1.57542003E9,,,,0,,6,1.84,1.57542003E9
Raw,326871684,326938999000000,,,-1457982460431820426,0.9962329864501953,24.442550056846812,-3.9420374400523963,9.68672691980647,1374,26,0.0,7183,136599341184330,9,35.6,-466.42266845703125,0.0471000038087368,0,0.0,0.0,1.57542003E9,,,,0,,6,1.84,1.57542003E9
Raw,326871684,326938999000000,,,-1457982460431820426,0.9962329864501953,24.442550056846812,-3.9420374400523963,9.68672691980647,1374,27,0.0,7183,136599346659428,12,32.6,476.8804931640625,0.05090000107884407,0,0.0,0.0,1.57542003E9,,,,0,,6,1.84,1.57542003E9
Fix,gps,45.064863,7.657460,296.728027,0.000000,3.216000,1774274183000
Raw,326872675,326939999000000,,,-1457982460431820437,0.2541179656982422,25.16113454475999,-5.646770780438828,9.633982440813693,1374,2,0.0,207,60982358310718,19,27.6,25.956058502197266,0.26829999685287476,0,0.0,0.0,1.59975002E9,,,,0,,3,0.06,1.59975002E9
Raw,326872675,326939999000000,,,-1457982460431820437,0.2541179656982422,25.16113454475999,-5.646770780438828,9.633982440813693,1374,18,0.0,207,60982365336468,9,35.5,114.82035064697266,0.22910000383853912,0,0.0,0.0,1.60031245E9,,,,0,,3,0.06,1.60031245E9
Raw,326872676,326939999000000,,,-1457982460431820437,0.2541179656982422,25.16113454475999,-5.646770780438828,9.633982440813693,1374,9,0.0,207,60982360518676,13,31.9,-183.2173309326172,0.22519999742507935,0,0.0,0.0,1.60087501E9,,,,0,,3,0.06,1.60087501E9
Raw,326872676,326939999000000,,,-1457982460431820437,0.2541179656982422,25.16113454475999,-5.646770780438828,9.633982440813693,1374,16,0.0,207,60982360947005,8,36.2,577.6222534179688,0.22120000422000885,0,0.0,0.0,1.60143744E9,,,,0,,3,0.06,1.60143744E9
Raw,326872676,326939999000000,,,-1457982460431820437,0.2541179656982422,25.16113454475999,-5.646770780438828,9.633982440813693,1374,19,0.0,207,60982360003807,12,32.3,-443.84893798828125,0.22390000522136688,0,0.0,0.0,1.60368755E9,,,,0,,3,0.06,1.60368755E9
Raw,326872677,326939999000000,,,-1457982460431820437,0.2541179656982422,25.16113454475999,-5.646770780438828,9.633982440813693,1374,3,0.0,207,60982357290080,46,20.0,-647.9822998046875,1.1420000791549683,0,0.0,0.0,1.60481254E9,,,,0,,3,0.06,1.60481254E9
Raw,326872677,326939999000000,,,-1457982460431820437,0.2541179656982422,25.16113454475999,-5.646770780438828,9.633982440813693,1374,2,0.0,15,136600355655118,8,36.9,-447.224609375,0.04370000213384628,0,0.0,0.0,1.57542003E9,,,,0,,1,1.94,1.57542003E9
Raw,326872677,326939999000000,,,-1457982460431820437,0.2541179656982422,25.16113454475999,-5.646770780438828,9.633982440813693,1374,8,0.0,15,136600361096641,21,26.8,-368.6268310546875,0.11270000040531158,0,0.0,0.0,1.57542003E9,,,,0,,1,1.94,1.57542003E9
