# 
# Header Description:
# 
# Version: v3.1.1.2 Platform: 16 Manufacturer: Google Model: Pixel 7a GNSS Hardware Model Name: Broadcom, BCM4776, GLL ver. 154.20.24 650028
# 
# Raw,utcTimeMillis,TimeNanos,LeapSecond,TimeUncertaintyNanos,FullBiasNanos,BiasNanos,BiasUncertaintyNanos,DriftNanosPerSecond,DriftUncertaintyNanosPerSecond,HardwareClockDiscontinuityCount,Svid,TimeOffsetNanos,State,ReceivedSvTimeNanos,ReceivedSvTimeUncertaintyNanos,Cn0DbHz,PseudorangeRateMetersPerSecond,PseudorangeRateUncertaintyMetersPerSecond,AccumulatedDeltaRangeState,AccumulatedDeltaRangeMeters,AccumulatedDeltaRangeUncertaintyMeters,CarrierFrequencyHz,CarrierCycles,CarrierPhase,CarrierPhaseUncertainty,MultipathIndicator,SnrInDb,ConstellationType,AgcDb,BasebandCn0DbHz,FullInterSignalBiasNanos,FullInterSignalBiasUncertaintyNanos,SatelliteInterSignalBiasNanos,SatelliteInterSignalBiasUncertaintyNanos,CodeType,ChipsetElapsedRealtimeNanos,IsFullTracking,SvPositionEcefXMeters,SvPositionEcefYMeters,SvPositionEcefZMeters,SvVelocityEcefXMetersPerSecond,SvVelocityEcefYMetersPerSecond,SvVelocityEcefZMetersPerSecond,SvClockBiasMeters,SvClockDriftMetersPerSecond,KlobucharAlpha0,KlobucharAlpha1,KlobucharAlpha2,KlobucharAlpha3,KlobucharBeta0,KlobucharBeta1,KlobucharBeta2,KlobucharBeta3
# 
# UncalAccel,utcTimeMillis,elapsedRealtimeNanos,UncalAccelXMps2,UncalAccelYMps2,UncalAccelZMps2,BiasXMps2,BiasYMps2,BiasZMps2,CalibrationAccuracy
# 
# Accel,utcTimeMillis,elapsedRealtimeNanos,AccelXMps2,AccelYMps2,AccelZMps2,CalibrationAccuracy
# 
# UncalGyro,utcTimeMillis,elapsedRealtimeNanos,UncalGyroXRadPerSec,UncalGyroYRadPerSec,UncalGyroZRadPerSec,DriftXRadPerSec,DriftYRadPerSec,DriftZRadPerSec,CalibrationAccuracy
# 
# Gyro,utcTimeMillis,elapsedRealtimeNanos,GyroXRadPerSec,GyroYRadPerSec,GyroZRadPerSec,CalibrationAccuracy
# 
# UncalMag,utcTimeMillis,elapsedRealtimeNanos,UncalMagXMicroT,UncalMagYMicroT,UncalMagZMicroT,BiasXMicroT,BiasYMicroT,BiasZMicroT,CalibrationAccuracy
# 
# Mag,utcTimeMillis,elapsedRealtimeNanos,MagXMicroT,MagYMicroT,MagZMicroT,CalibrationAccuracy
# 
# Pressure,utcTimeMillis,elapsedRealtimeNanos,PressureHpa,CalibrationAccuracy
# 
# OrientationDeg,utcTimeMillis,elapsedRealtimeNanos,yawDeg,rollDeg,pitchDeg,CalibrationAccuracy
# 
# Fix,Provider,LatitudeDegrees,LongitudeDegrees,AltitudeMeters,SpeedMps,AccuracyMeters,BearingDegrees,UnixTimeMillis,SpeedAccuracyMps,BearingAccuracyDegrees,elapsedRealtimeNanos,VerticalAccuracyMeters,MockLocation,NumberOfUsedSignals,VerticalSpeedAccuracyMps,SolutionType
# 
# Nav,Svid,Type,Status,MessageId,Sub-messageId,Data(Bytes)
# 
# Status,UnixTimeMillis,SignalCount,SignalIndex,ConstellationType,Svid,CarrierFrequencyHz,Cn0DbHz,AzimuthDegrees,ElevationDegrees,UsedInFix,HasAlmanacData,HasEphemerisData,BasebandCn0DbHz
# 
# Agc,utcTimeMillis,TimeNanos,LeapSecond,TimeUncertaintyNanos,FullBiasNanos,BiasNanos,BiasUncertaintyNanos,DriftNanosPerSecond,DriftUncertaintyNanosPerSecond,HardwareClockDiscontinuityCount,AgcDb,CarrierFrequencyHz,ConstellationType
# 
# GameRotationVector,utcTimeMillis,elapsedRealtimeNanos,x,y,z,w
# 
Agc,1773858677869,1105000000,,,-1457893894764999367,0.0,200786591.38461626,,,135,34.27734375,1575420000,1
Agc,1773858677869,1105000000,,,-1457893894764999367,0.0,200786591.38461626,,,135,0.0,1176450000,1
Agc,1773858677869,1105000000,,,-1457893894764999367,0.0,200786591.38461626,,,135,49.58362579345703,1602000000,3
Agc,1773858677869,1105000000,,,-1457893894764999367,0.0,200786591.38461626,,,135,34.27734375,1575420000,6
Agc,1773858677869,1105000000,,,-1457893894764999367,0.0,200786591.38461626,,,135,0.0,1176450000,6
Agc,1773858677869,1105000000,,,-1457893894764999367,0.0,200786591.38461626,,,135,48.34053421020508,1561096000,5
Agc,1773858677869,1105000000,,,-1457893894764999367,0.0,200786591.38461626,,,135,34.27734375,1575420000,5
Agc,1773858677869,1105000000,,,-1457893894764999367,0.0,200786591.38461626,,,135,0.0,1176450000,5
Agc,1773858678869,2105000000,,,-1457893894764998772,0.0,200786888.96461627,,,135,34.27734375,1575420000,1
Agc,1773858678869,2105000000,,,-1457893894764998772,0.0,200786888.96461627,,,135,0.0,1176450000,1
Agc,1773858678869,2105000000,,,-1457893894764998772,0.0,200786888.96461627,,,135,48.256744384765625,1602000000,3
Agc,1773858678869,2105000000,,,-1457893894764998772,0.0,200786888.96461627,,,135,34.27734375,1575420000,6
Agc,1773858678869,2105000000,,,-1457893894764998772,0.0,200786888.96461627,,,135,0.0,1176450000,6
Agc,1773858678869,2105000000,,,-1457893894764998772,0.0,200786888.96461627,,,135,48.34053421020508,1561096000,5
Agc,1773858678869,2105000000,,,-1457893894764998772,0.0,200786888.96461627,,,135,34.27734375,1575420000,5
Agc,1773858678869,2105000000,,,-1457893894764998772,0.0,200786888.96461627,,,135,0.0,1176450000,5
Agc,1773858679869,3105000000,,,-1457893894764998189,0.0,200787190.96461624,,,135,33.93330383300781,1575420000,1
Agc,1773858679869,3105000000,,,-1457893894764998189,0.0,200787190.96461624,,,135,0.0,1176450000,1
Agc,1773858679869,3105000000,,,-1457893894764998189,0.0,200787190.96461624,,,135,49.36371994018555,1602000000,3
Agc,1773858679869,3105000000,,,-1457893894764998189,0.0,200787190.96461624,,,135,33.93330383300781,1575420000,6
Agc,1773858679869,3105000000,,,-1457893894764998189,0.0,200787190.96461624,,,135,0.0,1176450000,6
Agc,1773858679869,3105000000,,,-1457893894764998189,0.0,200787190.96461624,,,135,54.36112976074219,1561096000,5
Agc,1773858679869,3105000000,,,-1457893894764998189,0.0,200787190.96461624,,,135,33.93330383300781,1575420000,5
Agc,1773858679869,3105000000,,,-1457893894764998189,0.0,200787190.96461624,,,135,0.0,1176450000,5
Agc,1773858680869,4105000000,,,-1457893894764997606,0.0,200787492.96461624,,,135,34.27734375,1575420000,1
Agc,1773858680869,4105000000,,,-1457893894764997606,0.0,200787492.96461624,,,135,0.0,1176450000,1
Agc,1773858680869,4105000000,,,-1457893894764997606,0.0,200787492.96461624,,,135,48.827857971191406,1602000000,3
Agc,1773858680869,4105000000,,,-1457893894764997606,0.0,200787492.96461624,,,135,34.27734375,1575420000,6
Agc,1773858680869,4105000000,,,-1457893894764997606,0.0,200787492.96461624,,,135,0.0,1176450000,6
Agc,1773858680869,4105000000,,,-1457893894764997606,0.0,200787492.96461624,,,135,48.4511833190918,1561096000,5
Agc,1773858680869,4105000000,,,-1457893894764997606,0.0,200787492.96461624,,,135,34.27734375,1575420000,5
Agc,1773858680869,4105000000,,,-1457893894764997606,0.0,200787492.96461624,,,135,0.0,1176450000,5
Agc,1773858681869,5105000000,,,-1457893894764997023,0.0,200787794.96461624,,,135,34.107025146484375,1575420000,1
Agc,1773858681869,5105000000,,,-1457893894764997023,0.0,200787794.96461624,,,135,0.0,1176450000,1
Agc,1773858681869,5105000000,,,-1457893894764997023,0.0,200787794.96461624,,,135,49.938201904296875,1602000000,3
Agc,1773858681869,5105000000,,,-1457893894764997023,0.0,200787794.96461624,,,135,34.107025146484375,1575420000,6
Agc,1773858681869,5105000000,,,-1457893894764997023,0.0,200787794.96461624,,,135,0.0,1176450000,6
Agc,1773858681869,5105000000,,,-1457893894764997023,0.0,200787794.96461624,,,135,49.4864387512207,1561096000,5
Agc,1773858681869,5105000000,,,-1457893894764997023,0.0,200787794.96461624,,,135,34.107025146484375,1575420000,5
Agc,1773858681869,5105000000,,,-1457893894764997023,0.0,200787794.96461624,,,135,0.0,1176450000,5
Agc,1773858682869,6105000000,,,-1457893894764996440,0.0,200788096.96461624,,,135,34.68907165527344,1575420000,1
Agc,1773858682869,6105000000,,,-1457893894764996440,0.0,200788096.96461624,,,135,0.0,1176450000,1
Agc,1773858682869,6105000000,,,-1457893894764996440,0.0,200788096.96461624,,,135,49.79810333251953,1602000000,3
Agc,1773858682869,6105000000,,,-1457893894764996440,0.0,200788096.96461624,,,135,34.68907165527344,1575420000,6
Agc,1773858682869,6105000000,,,-1457893894764996440,0.0,200788096.96461624,,,135,0.0,1176450000,6
Agc,1773858682869,6105000000,,,-1457893894764996440,0.0,200788096.96461624,,,135,50.234073638916016,1561096000,5
Agc,1773858682869,6105000000,,,-1457893894764996440,0.0,200788096.96461624,,,135,34.68907165527344,1575420000,5
Agc,1773858682869,6105000000,,,-1457893894764996440,0.0,200788096.96461624,,,135,0.0,1176450000,5
Agc,1773858683869,7105000000,,,-1457893894764995857,0.0,200788398.96461627,,,135,34.68907165527344,1575420000,1
Agc,1773858683869,7105000000,,,-1457893894764995857,0.0,200788398.96461627,,,135,0.0,1176450000,1
Agc,1773858683869,7105000000,,,-1457893894764995857,0.0,200788398.96461627,,,135,48.42378616333008,1602000000,3
Agc,1773858683869,7105000000,,,-1457893894764995857,0.0,200788398.96461627,,,135,34.68907165527344,1575420000,6
Agc,1773858683869,7105000000,,,-1457893894764995857,0.0,200788398.96461627,,,135,0.0,1176450000,6
Agc,1773858683869,7105000000,,,-1457893894764995857,0.0,200788398.96461627,,,135,48.88020324707031,1561096000,5
Agc,1773858683869,7105000000,,,-1457893894764995857,0.0,200788398.96461627,,,135,34.68907165527344,1575420000,5
Agc,1773858683869,7105000000,,,-1457893894764995857,0.0,200788398.96461627,,,135,0.0,1176450000,5
Agc,1773858684869,8105000000,,,-1457893894764995274,0.0,200788700.96461627,,,135,33.575069427490234,1575420000,1
Agc,1773858684869,8105000000,,,-1457893894764995274,0.0,200788700.96461627,,,135,0.0,1176450000,1
Agc,1773858684869,8105000000,,,-1457893894764995274,0.0,200788700.96461627,,,135,48.98435974121094,1602000000,3
Agc,1773858684869,8105000000,,,-1457893894764995274,0.0,200788700.96461627,,,135,33.575069427490234,1575420000,6
Agc,1773858684869,8105000000,,,-1457893894764995274,0.0,200788700.96461627,,,135,0.0,1176450000,6
Agc,1773858684869,8105000000,,,-1457893894764995274,0.0,200788700.96461627,,,135,47.523807525634766,1561096000,5
Agc,1773858684869,8105000000,,,-1457893894764995274,0.0,200788700.96461627,,,135,33.575069427490234,1575420000,5
Agc,1773858684869,8105000000,,,-1457893894764995274,0.0,200788700.96461627,,,135,0.0,1176450000,5
Agc,1773858685869,9105000000,,,-1457893894764994691,0.0,200789002.96461627,,,135,33.575069427490234,1575420000,1
Agc,1773858685869,9105000000,,,-1457893894764994691,0.0,200789002.96461627,,,135,0.0,1176450000,1
Agc,1773858685869,9105000000,,,-1457893894764994691,0.0,200789002.96461627,,,135,49.938201904296875,1602000000,3
Agc,1773858685869,9105000000,,,-1457893894764994691,0.0,200789002.96461627,,,135,33.575069427490234,1575420000,6
Agc,1773858685869,9105000000,,,-1457893894764994691,0.0,200789002.96461627,,,135,0.0,1176450000,6
Agc,1773858685869,9105000000,,,-1457893894764994691,0.0,200789002.96461627,,,135,50.234073638916016,1561096000,5
Agc,1773858685869,9105000000,,,-1457893894764994691,0.0,200789002.96461627,,,135,33.575069427490234,1575420000,5
Agc,1773858685869,9105000000,,,-1457893894764994691,0.0,200789002.96461627,,,135,0.0,1176450000,5
Agc,1773858686869,10105000000,,,-1457893894764994108,0.0,200789304.96461627,,,135,33.75603485107422,1575420000,1
Agc,1773858686869,10105000000,,,-1457893894764994108,0.0,200789304.96461627,,,135,0.0,1176450000,1
Agc,1773858686869,10105000000,,,-1457893894764994108,0.0,200789304.96461627,,,135,49.213958740234375,1602000000,3
Agc,1773858686869,10105000000,,,-1457893894764994108,0.0,200789304.96461627,,,135,33.75603485107422,1575420000,6
Agc,1773858686869,10105000000,,,-1457893894764994108,0.0,200789304.96461627,,,135,0.0,1176450000,6
Agc,1773858686869,10105000000,,,-1457893894764994108,0.0,200789304.96461627,,,135,50.234073638916016,1561096000,5
Agc,1773858686869,10105000000,,,-1457893894764994108,0.0,200789304.96461627,,,135,33.75603485107422,1575420000,5
Agc,1773858686869,10105000000,,,-1457893894764994108,0.0,200789304.96461627,,,135,0.0,1176450000,5
Agc,1773858687869,11105000000,,,-1457893894764993525,0.0,200789606.96461624,,,135,34.27734375,1575420000,1
Agc,1773858687869,11105000000,,,-1457893894764993525,0.0,200789606.96461624,,,135,0.0,1176450000,1
Agc,1773858687869,11105000000,,,-1457893894764993525,0.0,200789606.96461624,,,135,50.67078399658203,1602000000,3
Agc,1773858687869,11105000000,,,-1457893894764993525,0.0,200789606.96461624,,,135,34.27734375,1575420000,6
Agc,1773858687869,11105000000,,,-1457893894764993525,0.0,200789606.96461624,,,135,0.0,1176450000,6
Agc,1773858687869,11105000000,,,-1457893894764993525,0.0,200789606.96461624,,,135,50.234073638916016,1561096000,5
Agc,1773858687869,11105000000,,,-1457893894764993525,0.0,200789606.96461624,,,135,34.27734375,1575420000,5
Agc,1773858687869,11105000000,,,-1457893894764993525,0.0,200789606.96461624,,,135,0.0,1176450000,5
Agc,1773858688869,12105000000,,,-1457893894764992942,0.0,200789908.96461624,,,135,34.107025146484375,1575420000,1
Agc,1773858688869,12105000000,,,-1457893894764992942,0.0,200789908.96461624,,,135,0.0,1176450000,1
Agc,1773858688869,12105000000,,,-1457893894764992942,0.0,200789908.96461624,,,135,48.827857971191406,1602000000,3
Agc,1773858688869,12105000000,,,-1457893894764992942,0.0,200789908.96461624,,,135,34.107025146484375,1575420000,6
Agc,1773858688869,12105000000,,,-1457893894764992942,0.0,200789908.96461624,,,135,0.0,1176450000,6
Agc,1773858688869,12105000000,,,-1457893894764992942,0.0,200789908.96461624,,,135,48.668338775634766,1561096000,5
Agc,1773858688869,12105000000,,,-1457893894764992942,0.0,200789908.96461624,,,135,34.107025146484375,1575420000,5
Agc,1773858688869,12105000000,,,-1457893894764992942,0.0,200789908.96461624,,,135,0.0,1176450000,5
Agc,1773858689869,13105000000,,,-1457893894764992359,0.0,200790210.96461624,,,135,35.234554290771484,1575420000,1
Agc,1773858689869,13105000000,,,-1457893894764992359,0.0,200790210.96461624,,,135,0.0,1176450000,1
Agc,1773858689869,13105000000,,,-1457893894764992359,0.0,200790210.96461624,,,135,49.58362579345703,1602000000,3
Agc,1773858689869,13105000000,,,-1457893894764992359,0.0,200790210.96461624,,,135,35.234554290771484,1575420000,6
Agc,1773858689869,13105000000,,,-1457893894764992359,0.0,200790210.96461624,,,135,0.0,1176450000,6
Agc,1773858689869,13105000000,,,-1457893894764992359,0.0,200790210.96461624,,,135,53.421199798583984,1561096000,5
Agc,1773858689869,13105000000,,,-1457893894764992359,0.0,200790210.96461624,,,135,35.234554290771484,1575420000,5
Agc,1773858689869,13105000000,,,-1457893894764992359,0.0,200790210.96461624,,,135,0.0,1176450000,5
Agc,1773858690869,14105000000,,,-1457893894764991776,0.0,200790512.96461627,,,135,33.93330383300781,1575420000,1
Agc,1773858690869,14105000000,,,-1457893894764991776,0.0,200790512.96461627,,,135,0.0,1176450000,1
Agc,1773858690869,14105000000,,,-1457893894764991776,0.0,200790512.96461627,,,135,47.735435485839844,1602000000,3
Agc,1773858690869,14105000000,,,-1457893894764991776,0.0,200790512.96461627,,,135,33.93330383300781,1575420000,6
Agc,1773858690869,14105000000,,,-1457893894764991776,0.0,200790512.96461627,,,135,0.0,1176450000,6
Agc,1773858690869,14105000000,,,-1457893894764991776,0.0,200790512.96461627,,,135,53.421199798583984,1561096000,5
Agc,1773858690869,14105000000,,,-1457893894764991776,0.0,200790512.96461627,,,135,33.93330383300781,1575420000,5
Agc,1773858690869,14105000000,,,-1457893894764991776,0.0,200790512.96461627,,,135,0.0,1176450000,5
Agc,1773858691869,15105000000,,,-1457893894764991193,0.0,200790814.96461627,,,135,34.68907165527344,1575420000,1
Agc,1773858691869,15105000000,,,-1457893894764991193,0.0,200790814.96461627,,,135,0.0,1176450000,1
Agc,1773858691869,15105000000,,,-1457893894764991193,0.0,200790814.96461627,,,135,49.58362579345703,1602000000,3
Agc,1773858691869,15105000000,,,-1457893894764991193,0.0,200790814.96461627,,,135,34.68907165527344,1575420000,6
Agc,1773858691869,15105000000,,,-1457893894764991193,0.0,200790814.96461627,,,135,0.0,1176450000,6
Agc,1773858691869,15105000000,,,-1457893894764991193,0.0,200790814.96461627,,,135,53.421199798583984,1561096000,5
Agc,1773858691869,15105000000,,,-1457893894764991193,0.0,200790814.96461627,,,135,34.68907165527344,1575420000,5
Agc,1773858691869,15105000000,,,-1457893894764991193,0.0,200790814.96461627,,,135,0.0,1176450000,5
Agc,1773858692869,16105000000,,,-1457893894764990610,0.0,200791116.96461627,,,135,34.848453521728516,1575420000,1
Agc,1773858692869,16105000000,,,-1457893894764990610,0.0,200791116.96461627,,,135,0.0,1176450000,1
Agc,1773858692869,16105000000,,,-1457893894764990610,0.0,200791116.96461627,,,135,49.213958740234375,1602000000,3
Agc,1773858692869,16105000000,,,-1457893894764990610,0.0,200791116.96461627,,,135,34.848453521728516,1575420000,6
Agc,1773858692869,16105000000,,,-1457893894764990610,0.0,200791116.96461627,,,135,0.0,1176450000,6
Agc,1773858692869,16105000000,,,-1457893894764990610,0.0,200791116.96461627,,,135,53.421199798583984,1561096000,5
Agc,1773858692869,16105000000,,,-1457893894764990610,0.0,200791116.96461627,,,135,34.848453521728516,1575420000,5
Agc,1773858692869,16105000000,,,-1457893894764990610,0.0,200791116.96461627,,,135,0.0,1176450000,5
Agc,1773858693869,17105000000,,,-1457893894764990027,0.0,200791418.96461627,,,135,32.40216064453125,1575420000,1
Agc,1773858693869,17105000000,,,-1457893894764990027,0.0,200791418.96461627,,,135,0.0,1176450000,1
Agc,1773858693869,17105000000,,,-1457893894764990027,0.0,200791418.96461627,,,135,49.36371994018555,1602000000,3
Agc,1773858693869,17105000000,,,-1457893894764990027,0.0,200791418.96461627,,,135,32.40216064453125,1575420000,6
Agc,1773858693869,17105000000,,,-1457893894764990027,0.0,200791418.96461627,,,135,0.0,1176450000,6
Agc,1773858693869,17105000000,,,-1457893894764990027,0.0,200791418.96461627,,,135,53.421199798583984,1561096000,5
Agc,1773858693869,17105000000,,,-1457893894764990027,0.0,200791418.96461627,,,135,32.40216064453125,1575420000,5
Agc,1773858693869,17105000000,,,-1457893894764990027,0.0,200791418.96461627,,,135,0.0,1176450000,5
Agc,1773858694869,18105000000,,,-1457893894764989444,0.0,200791720.96461624,,,135,34.107025146484375,1575420000,1
Agc,1773858694869,18105000000,,,-1457893894764989444,0.0,200791720.96461624,,,135,0.0,1176450000,1
Agc,1773858694869,18105000000,,,-1457893894764989444,0.0,200791720.96461624,,,135,49.79810333251953,1602000000,3
Agc,1773858694869,18105000000,,,-1457893894764989444,0.0,200791720.96461624,,,135,34.107025146484375,1575420000,6
Agc,1773858694869,18105000000,,,-1457893894764989444,0.0,200791720.96461624,,,135,0.0,1176450000,6
Agc,1773858694869,18105000000,,,-1457893894764989444,0.0,200791720.96461624,,,135,53.421199798583984,1561096000,5
Agc,1773858694869,18105000000,,,-1457893894764989444,0.0,200791720.96461624,,,135,34.107025146484375,1575420000,5
Agc,1773858694869,18105000000,,,-1457893894764989444,0.0,200791720.96461624,,,135,0.0,1176450000,5
Agc,1773858695869,19105000000,,,-1457893894764988861,0.0,200792022.96461624,,,135,34.27734375,1575420000,1
Agc,1773858695869,19105000000,,,-1457893894764988861,0.0,200792022.96461624,,,135,0.0,1176450000,1
Agc,1773858695869,19105000000,,,-1457893894764988861,0.0,200792022.96461624,,,135,47.91270446777344,1602000000,3
Agc,1773858695869,19105000000,,,-1457893894764988861,0.0,200792022.96461624,,,135,34.27734375,1575420000,6
Agc,1773858695869,19105000000,,,-1457893894764988861,0.0,200792022.96461624,,,135,0.0,1176450000,6
Agc,1773858695869,19105000000,,,-1457893894764988861,0.0,200792022.96461624,,,135,53.421199798583984,1561096000,5
Agc,1773858695869,19105000000,,,-1457893894764988861,0.0,200792022.96461624,,,135,34.27734375,1575420000,5
Agc,1773858695869,19105000000,,,-1457893894764988861,0.0,200792022.96461624,,,135,0.0,1176450000,5
Agc,1773858696869,20105000000,,,-1457893894764988278,0.0,200792324.96461624,,,135,34.107025146484375,1575420000,1
Agc,1773858696869,20105000000,,,-1457893894764988278,0.0,200792324.96461624,,,135,0.0,1176450000,1
Agc,1773858696869,20105000000,,,-1457893894764988278,0.0,200792324.96461624,,,135,47.91270446777344,1602000000,3
Agc,1773858696869,20105000000,,,-1457893894764988278,0.0,200792324.96461624,,,135,34.107025146484375,1575420000,6
Agc,1773858696869,20105000000,,,-1457893894764988278,0.0,200792324.96461624,,,135,0.0,1176450000,6
Agc,1773858696869,20105000000,,,-1457893894764988278,0.0,200792324.96461624,,,135,53.421199798583984,1561096000,5
Agc,1773858696869,20105000000,,,-1457893894764988278,0.0,200792324.96461624,,,135,34.107025146484375,1575420000,5
Agc,1773858696869,20105000000,,,-1457893894764988278,0.0,200792324.96461624,,,135,0.0,1176450000,5
Agc,1773858697869,21105000000,,,-1457893894764987695,0.0,200792626.96461627,,,135,34.44438171386719,1575420000,1
Agc,1773858697869,21105000000,,,-1457893894764987695,0.0,200792626.96461627,,,135,0.0,1176450000,1
Agc,1773858697869,21105000000,,,-1457893894764987695,0.0,200792626.96461627,,,135,50.144203186035156,1602000000,3
Agc,1773858697869,21105000000,,,-1457893894764987695,0.0,200792626.96461627,,,135,34.44438171386719,1575420000,6
Agc,1773858697869,21105000000,,,-1457893894764987695,0.0,200792626.96461627,,,135,0.0,1176450000,6
Agc,1773858697869,21105000000,,,-1457893894764987695,0.0,200792626.96461627,,,135,53.421199798583984,1561096000,5
Agc,1773858697869,21105000000,,,-1457893894764987695,0.0,200792626.96461627,,,135,34.44438171386719,1575420000,5
Agc,1773858697869,21105000000,,,-1457893894764987695,0.0,200792626.96461627,,,135,0.0,1176450000,5
Agc,1773858698869,22105000000,,,-1457893894764987112,0.0,200792928.96461627,,,135,34.107025146484375,1575420000,1
Agc,1773858698869,22105000000,,,-1457893894764987112,0.0,200792928.96461627,,,135,0.0,1176450000,1
Agc,1773858698869,22105000000,,,-1457893894764987112,0.0,200792928.96461627,,,135,49.213958740234375,1602000000,3
Agc,1773858698869,22105000000,,,-1457893894764987112,0.0,200792928.96461627,,,135,34.107025146484375,1575420000,6
Agc,1773858698869,22105000000,,,-1457893894764987112,0.0,200792928.96461627,,,135,0.0,1176450000,6
Agc,1773858698869,22105000000,,,-1457893894764987112,0.0,200792928.96461627,,,135,53.421199798583984,1561096000,5
Agc,1773858698869,22105000000,,,-1457893894764987112,0.0,200792928.96461627,,,135,34.107025146484375,1575420000,5
Agc,1773858698869,22105000000,,,-1457893894764987112,0.0,200792928.96461627,,,135,0.0,1176450000,5
Agc,1773858699869,23105000000,,,-1457893894764986529,0.0,200793230.96461627,,,135,35.384315490722656,1575420000,1
Agc,1773858699869,23105000000,,,-1457893894764986529,0.0,200793230.96461627,,,135,0.0,1176450000,1
Agc,1773858699869,23105000000,,,-1457893894764986529,0.0,200793230.96461627,,,135,49.79810333251953,1602000000,3
Agc,1773858699869,23105000000,,,-1457893894764986529,0.0,200793230.96461627,,,135,35.384315490722656,1575420000,6
Agc,1773858699869,23105000000,,,-1457893894764986529,0.0,200793230.96461627,,,135,0.0,1176450000,6
Agc,1773858699869,23105000000,,,-1457893894764986529,0.0,200793230.96461627,,,135,53.421199798583984,1561096000,5
Agc,1773858699869,23105000000,,,-1457893894764986529,0.0,200793230.96461627,,,135,35.384315490722656,1575420000,5
Agc,1773858699869,23105000000,,,-1457893894764986529,0.0,200793230.96461627,,,135,0.0,1176450000,5
Agc,1773858700869,24105000000,,,-1457893894764985946,0.0,200793532.96461627,,,135,33.75603485107422,1575420000,1
Agc,1773858700869,24105000000,,,-1457893894764985946,0.0,200793532.96461627,,,135,0.0,1176450000,1
Agc,1773858700869,24105000000,,,-1457893894764985946,0.0,200793532.96461627,,,135,48.827857971191406,1602000000,3
Agc,1773858700869,24105000000,,,-1457893894764985946,0.0,200793532.96461627,,,135,33.75603485107422,1575420000,6
Agc,1773858700869,24105000000,,,-1457893894764985946,0.0,200793532.96461627,,,135,0.0,1176450000,6
Agc,1773858700869,24105000000,,,-1457893894764985946,0.0,200793532.96461627,,,135,53.421199798583984,1561096000,5
Agc,1773858700869,24105000000,,,-1457893894764985946,0.0,200793532.96461627,,,135,33.75603485107422,1575420000,5
Agc,1773858700869,24105000000,,,-1457893894764985946,0.0,200793532.96461627,,,135,0.0,1176450000,5
Agc,1773858701869,25105000000,,,-1457893894764985363,0.0,200793834.96461624,,,135,34.27734375,1575420000,1
Agc,1773858701869,25105000000,,,-1457893894764985363,0.0,200793834.96461624,,,135,0.0,1176450000,1
Agc,1773858701869,25105000000,,,-1457893894764985363,0.0,200793834.96461624,,,135,49.938201904296875,1602000000,3
Agc,1773858701869,25105000000,,,-1457893894764985363,0.0,200793834.96461624,,,135,34.27734375,1575420000,6
Agc,1773858701869,25105000000,,,-1457893894764985363,0.0,200793834.96461624,,,135,0.0,1176450000,6
Agc,1773858701869,25105000000,,,-1457893894764985363,0.0,200793834.96461624,,,135,53.421199798583984,1561096000,5
Agc,1773858701869,25105000000,,,-1457893894764985363,0.0,200793834.96461624,,,135,34.27734375,1575420000,5
Agc,1773858701869,25105000000,,,-1457893894764985363,0.0,200793834.96461624,,,135,0.0,1176450000,5
Agc,1773858702869,26105000000,,,-1457893894764984780,0.0,200794136.96461624,,,135,33.20142364501953,1575420000,1
Agc,1773858702869,26105000000,,,-1457893894764984780,0.0,200794136.96461624,,,135,0.0,1176450000,1
Agc,1773858702869,26105000000,,,-1457893894764984780,0.0,200794136.96461624,,,135,49.938201904296875,1602000000,3
Agc,1773858702869,26105000000,,,-1457893894764984780,0.0,200794136.96461624,,,135,33.20142364501953,1575420000,6
Agc,1773858702869,26105000000,,,-1457893894764984780,0.0,200794136.96461624,,,135,0.0,1176450000,6
Agc,1773858702869,26105000000,,,-1457893894764984780,0.0,200794136.96461624,,,135,53.421199798583984,1561096000,5
Agc,1773858702869,26105000000,,,-1457893894764984780,0.0,200794136.96461624,,,135,33.20142364501953,1575420000,5
Agc,1773858702869,26105000000,,,-1457893894764984780,0.0,200794136.96461624,,,135,0.0,1176450000,5
Agc,1773858703869,27105000000,,,-1457893894764984197,0.0,200794438.96461624,,,135,36.691375732421875,1575420000,1
Agc,1773858703869,27105000000,,,-1457893894764984197,0.0,200794438.96461624,,,135,0.0,1176450000,1
Agc,1773858703869,27105000000,,,-1457893894764984197,0.0,200794438.96461624,,,135,47.554473876953125,1602000000,3
Agc,1773858703869,27105000000,,,-1457893894764984197,0.0,200794438.96461624,,,135,36.691375732421875,1575420000,6
Agc,1773858703869,27105000000,,,-1457893894764984197,0.0,200794438.96461624,,,135,0.0,1176450000,6
Agc,1773858703869,27105000000,,,-1457893894764984197,0.0,200794438.96461624,,,135,53.421199798583984,1561096000,5
Agc,1773858703869,27105000000,,,-1457893894764984197,0.0,200794438.96461624,,,135,36.691375732421875,1575420000,5
Agc,1773858703869,27105000000,,,-1457893894764984197,0.0,200794438.96461624,,,135,0.0,1176450000,5
Agc,1773858704869,28105000000,,,-1457893894764983614,0.0,200794740.96461624,,,135,33.575069427490234,1575420000,1
Agc,1773858704869,28105000000,,,-1457893894764983614,0.0,200794740.96461624,,,135,0.0,1176450000,1
Agc,1773858704869,28105000000,,,-1457893894764983614,0.0,200794740.96461624,,,135,48.42378616333008,1602000000,3
Agc,1773858704869,28105000000,,,-1457893894764983614,0.0,200794740.96461624,,,135,33.575069427490234,1575420000,6
Agc,1773858704869,28105000000,,,-1457893894764983614,0.0,200794740.96461624,,,135,0.0,1176450000,6
Agc,1773858704869,28105000000,,,-1457893894764983614,0.0,200794740.96461624,,,135,53.421199798583984,1561096000,5
Agc,1773858704869,28105000000,,,-1457893894764983614,0.0,200794740.96461624,,,135,33.575069427490234,1575420000,5
Agc,1773858704869,28105000000,,,-1457893894764983614,0.0,200794740.96461624,,,135,0.0,1176450000,5
Agc,1773858705869,29105000000,,,-1457893894764983031,0.0,200795042.96461627,,,135,33.575069427490234,1575420000,1
Agc,1773858705869,29105000000,,,-1457893894764983031,0.0,200795042.96461627,,,135,0.0,1176450000,1
Agc,1773858705869,29105000000,,,-1457893894764983031,0.0,200795042.96461627,,,135,47.735435485839844,1602000000,3
Agc,1773858705869,29105000000,,,-1457893894764983031,0.0,200795042.96461627,,,135,33.575069427490234,1575420000,6
Agc,1773858705869,29105000000,,,-1457893894764983031,0.0,200795042.96461627,,,135,0.0,1176450000,6
Agc,1773858705869,29105000000,,,-1457893894764983031,0.0,200795042.96461627,,,135,53.421199798583984,1561096000,5
Agc,1773858705869,29105000000,,,-1457893894764983031,0.0,200795042.96461627,,,135,33.575069427490234,1575420000,5
Agc,1773858705869,29105000000,,,-1457893894764983031,0.0,200795042.96461627,,,135,0.0,1176450000,5
Agc,1773858706869,30105000000,,,-1457893894764982448,0.0,200795344.96461627,,,135,34.107025146484375,1575420000,1
Agc,1773858706869,30105000000,,,-1457893894764982448,0.0,200795344.96461627,,,135,0.0,1176450000,1
Agc,1773858706869,30105000000,,,-1457893894764982448,0.0,200795344.96461627,,,135,49.79810333251953,1602000000,3
Agc,1773858706869,30105000000,,,-1457893894764982448,0.0,200795344.96461627,,,135,34.107025146484375,1575420000,6
Agc,1773858706869,30105000000,,,-1457893894764982448,0.0,200795344.96461627,,,135,0.0,1176450000,6
Agc,1773858706869,30105000000,,,-1457893894764982448,0.0,200795344.96461627,,,135,53.421199798583984,1561096000,5
Agc,1773858706869,30105000000,,,-1457893894764982448,0.0,200795344.96461627,,,135,34.107025146484375,1575420000,5
Agc,1773858706869,30105000000,,,-1457893894764982448,0.0,200795344.96461627,,,135,0.0,1176450000,5
Agc,1773858707869,31105000000,,,-1457893894764981865,0.0,200795646.96461627,,,135,35.00495910644531,1575420000,1
Agc,1773858707869,31105000000,,,-1457893894764981865,0.0,200795646.96461627,,,135,0.0,1176450000,1
Agc,1773858707869,31105000000,,,-1457893894764981865,0.0,200795646.96461627,,,135,48.98435974121094,1602000000,3
Agc,1773858707869,31105000000,,,-1457893894764981865,0.0,200795646.96461627,,,135,35.00495910644531,1575420000,6
Agc,1773858707869,31105000000,,,-1457893894764981865,0.0,200795646.96461627,,,135,0.0,1176450000,6
Agc,1773858707869,31105000000,,,-1457893894764981865,0.0,200795646.96461627,,,135,53.421199798583984,1561096000,5
Agc,1773858707869,31105000000,,,-1457893894764981865,0.0,200795646.96461627,,,135,35.00495910644531,1575420000,5
Agc,1773858707869,31105000000,,,-1457893894764981865,0.0,200795646.96461627,,,135,0.0,1176450000,5
Agc,1773858708869,32105000000,,,-1457893894764981282,0.0,200795948.96461627,,,135,34.44438171386719,1575420000,1
Agc,1773858708869,32105000000,,,-1457893894764981282,0.0,200795948.96461627,,,135,0.0,1176450000,1
Agc,1773858708869,32105000000,,,-1457893894764981282,0.0,200795948.96461627,,,135,48.66847610473633,1602000000,3
Agc,1773858708869,32105000000,,,-1457893894764981282,0.0,200795948.96461627,,,135,34.44438171386719,1575420000,6
Agc,1773858708869,32105000000,,,-1457893894764981282,0.0,200795948.96461627,,,135,0.0,1176450000,6
Agc,1773858708869,32105000000,,,-1457893894764981282,0.0,200795948.96461627,,,135,53.421199798583984,1561096000,5
Agc,1773858708869,32105000000,,,-1457893894764981282,0.0,200795948.96461627,,,135,34.44438171386719,1575420000,5
Agc,1773858708869,32105000000,,,-1457893894764981282,0.0,200795948.96461627,,,135,0.0,1176450000,5
Agc,1773858709869,33105000000,,,-1457893894764980699,0.0,200796250.96461624,,,135,35.384315490722656,1575420000,1
Agc,1773858709869,33105000000,,,-1457893894764980699,0.0,200796250.96461624,,,135,0.0,1176450000,1
Agc,1773858709869,33105000000,,,-1457893894764980699,0.0,200796250.96461624,,,135,49.213958740234375,1602000000,3
Agc,1773858709869,33105000000,,,-1457893894764980699,0.0,200796250.96461624,,,135,35.384315490722656,1575420000,6
Agc,1773858709869,33105000000,,,-1457893894764980699,0.0,200796250.96461624,,,135,0.0,1176450000,6
Agc,1773858709869,33105000000,,,-1457893894764980699,0.0,200796250.96461624,,,135,53.421199798583984,1561096000,5
Agc,1773858709869,33105000000,,,-1457893894764980699,0.0,200796250.96461624,,,135,35.384315490722656,1575420000,5
Agc,1773858709869,33105000000,,,-1457893894764980699,0.0,200796250.96461624,,,135,0.0,1176450000,5
Agc,1773858710869,34105000000,,,-1457893894764980116,0.0,200796552.96461624,,,135,34.27734375,1575420000,1
Agc,1773858710869,34105000000,,,-1457893894764980116,0.0,200796552.96461624,,,135,0.0,1176450000,1
Agc,1773858710869,34105000000,,,-1457893894764980116,0.0,200796552.96461624,,,135,48.827857971191406,1602000000,3
Agc,1773858710869,34105000000,,,-1457893894764980116,0.0,200796552.96461624,,,135,34.27734375,1575420000,6
Agc,1773858710869,34105000000,,,-1457893894764980116,0.0,200796552.96461624,,,135,0.0,1176450000,6
Agc,1773858710869,34105000000,,,-1457893894764980116,0.0,200796552.96461624,,,135,53.421199798583984,1561096000,5
Agc,1773858710869,34105000000,,,-1457893894764980116,0.0,200796552.96461624,,,135,34.27734375,1575420000,5
Agc,1773858710869,34105000000,,,-1457893894764980116,0.0,200796552.96461624,,,135,0.0,1176450000,5
Agc,1773858711869,35105000000,,,-1457893894764979533,0.0,200796854.96461624,,,135,35.384315490722656,1575420000,1
Agc,1773858711869,35105000000,,,-1457893894764979533,0.0,200796854.96461624,,,135,0.0,1176450000,1
Agc,1773858711869,35105000000,,,-1457893894764979533,0.0,200796854.96461624,,,135,48.42378616333008,1602000000,3
Agc,1773858711869,35105000000,,,-1457893894764979533,0.0,200796854.96461624,,,135,35.384315490722656,1575420000,6
Agc,1773858711869,35105000000,,,-1457893894764979533,0.0,200796854.96461624,,,135,0.0,1176450000,6
Agc,1773858711869,35105000000,,,-1457893894764979533,0.0,200796854.96461624,,,135,53.421199798583984,1561096000,5
Agc,1773858711869,35105000000,,,-1457893894764979533,0.0,200796854.96461624,,,135,35.384315490722656,1575420000,5
Agc,1773858711869,35105000000,,,-1457893894764979533,0.0,200796854.96461624,,,135,0.0,1176450000,5
Agc,1773858712869,36105000000,,,-1457893894764978950,0.0,200797156.96461627,,,135,35.384315490722656,1575420000,1
Agc,1773858712869,36105000000,,,-1457893894764978950,0.0,200797156.96461627,,,135,0.0,1176450000,1
Agc,1773858712869,36105000000,,,-1457893894764978950,0.0,200797156.96461627,,,135,49.36371994018555,1602000000,3
Agc,1773858712869,36105000000,,,-1457893894764978950,0.0,200797156.96461627,,,135,35.384315490722656,1575420000,6
Agc,1773858712869,36105000000,,,-1457893894764978950,0.0,200797156.96461627,,,135,0.0,1176450000,6
Agc,1773858712869,36105000000,,,-1457893894764978950,0.0,200797156.96461627,,,135,53.421199798583984,1561096000,5
Agc,1773858712869,36105000000,,,-1457893894764978950,0.0,200797156.96461627,,,135,35.384315490722656,1575420000,5
Agc,1773858712869,36105000000,,,-1457893894764978950,0.0,200797156.96461627,,,135,0.0,1176450000,5
Agc,1773858713869,37105000000,,,-1457893894764978367,0.0,200797458.96461627,,,135,35.234554290771484,1575420000,1
Agc,1773858713869,37105000000,,,-1457893894764978367,0.0,200797458.96461627,,,135,0.0,1176450000,1
Agc,1773858713869,37105000000,,,-1457893894764978367,0.0,200797458.96461627,,,135,48.42378616333008,1602000000,3
Agc,1773858713869,37105000000,,,-1457893894764978367,0.0,200797458.96461627,,,135,35.234554290771484,1575420000,6
Agc,1773858713869,37105000000,,,-1457893894764978367,0.0,200797458.96461627,,,135,0.0,1176450000,6
Agc,1773858713869,37105000000,,,-1457893894764978367,0.0,200797458.96461627,,,135,53.421199798583984,1561096000,5
Agc,1773858713869,37105000000,,,-1457893894764978367,0.0,200797458.96461627,,,135,35.234554290771484,1575420000,5
Agc,1773858713869,37105000000,,,-1457893894764978367,0.0,200797458.96461627,,,135,0.0,1176450000,5
Agc,1773858714869,38105000000,,,-1457893894764977784,0.0,200797760.96461627,,,135,35.958797454833984,1575420000,1
Agc,1773858714869,38105000000,,,-1457893894764977784,0.0,200797760.96461627,,,135,0.0,1176450000,1
Agc,1773858714869,38105000000,,,-1457893894764977784,0.0,200797760.96461627,,,135,48.256744384765625,1602000000,3
Agc,1773858714869,38105000000,,,-1457893894764977784,0.0,200797760.96461627,,,135,35.958797454833984,1575420000,6
Agc,1773858714869,38105000000,,,-1457893894764977784,0.0,200797760.96461627,,,135,0.0,1176450000,6
Agc,1773858714869,38105000000,,,-1457893894764977784,0.0,200797760.96461627,,,135,53.421199798583984,1561096000,5
Agc,1773858714869,38105000000,,,-1457893894764977784,0.0,200797760.96461627,,,135,35.958797454833984,1575420000,5
Agc,1773858714869,38105000000,,,-1457893894764977784,0.0,200797760.96461627,,,135,0.0,1176450000,5
Agc,1773858715869,39105000000,,,-1457893894764977201,0.0,200798062.96461627,,,135,35.00495910644531,1575420000,1
Agc,1773858715869,39105000000,,,-1457893894764977201,0.0,200798062.96461627,,,135,0.0,1176450000,1
Agc,1773858715869,39105000000,,,-1457893894764977201,0.0,200798062.96461627,,,135,48.42378616333008,1602000000,3
Agc,1773858715869,39105000000,,,-1457893894764977201,0.0,200798062.96461627,,,135,35.00495910644531,1575420000,6
Agc,1773858715869,39105000000,,,-1457893894764977201,0.0,200798062.96461627,,,135,0.0,1176450000,6
Agc,1773858715869,39105000000,,,-1457893894764977201,0.0,200798062.96461627,,,135,53.421199798583984,1561096000,5
Agc,1773858715869,39105000000,,,-1457893894764977201,0.0,200798062.96461627,,,135,35.00495910644531,1575420000,5
Agc,1773858715869,39105000000,,,-1457893894764977201,0.0,200798062.96461627,,,135,0.0,1176450000,5
Agc,1773858716869,40105000000,,,-1457893894764976618,0.0,200798364.96461624,,,135,33.575069427490234,1575420000,1
Agc,1773858716869,40105000000,,,-1457893894764976618,0.0,200798364.96461624,,,135,0.0,1176450000,1
Agc,1773858716869,40105000000,,,-1457893894764976618,0.0,200798364.96461624,,,135,49.58362579345703,1602000000,3
Agc,1773858716869,40105000000,,,-1457893894764976618,0.0,200798364.96461624,,,135,33.575069427490234,1575420000,6
Agc,1773858716869,40105000000,,,-1457893894764976618,0.0,200798364.96461624,,,135,0.0,1176450000,6
Agc,1773858716869,40105000000,,,-1457893894764976618,0.0,200798364.96461624,,,135,53.421199798583984,1561096000,5
Agc,1773858716869,40105000000,,,-1457893894764976618,0.0,200798364.96461624,,,135,33.575069427490234,1575420000,5
Agc,1773858716869,40105000000,,,-1457893894764976618,0.0,200798364.96461624,,,135,0.0,1176450000,5
Agc,1773858717869,41105000000,,,-1457893894764976035,0.0,200798666.96461624,,,135,34.68907165527344,1575420000,1
Agc,1773858717869,41105000000,,,-1457893894764976035,0.0,200798666.96461624,,,135,0.0,1176450000,1
Agc,1773858717869,41105000000,,,-1457893894764976035,0.0,200798666.96461624,,,135,49.79810333251953,1602000000,3
Agc,1773858717869,41105000000,,,-1457893894764976035,0.0,200798666.96461624,,,135,34.68907165527344,1575420000,6
Agc,1773858717869,41105000000,,,-1457893894764976035,0.0,200798666.96461624,,,135,0.0,1176450000,6
Agc,1773858717869,41105000000,,,-1457893894764976035,0.0,200798666.96461624,,,135,53.421199798583984,1561096000,5
Agc,1773858717869,41105000000,,,-1457893894764976035,0.0,200798666.96461624,,,135,34.68907165527344,1575420000,5
Agc,1773858717869,41105000000,,,-1457893894764976035,0.0,200798666.96461624,,,135,0.0,1176450000,5
Agc,1773858718869,42105000000,,,-1457893894764975452,0.0,200798968.96461624,,,135,34.848453521728516,1575420000,1
Agc,1773858718869,42105000000,,,-1457893894764975452,0.0,200798968.96461624,,,135,0.0,1176450000,1
Agc,1773858718869,42105000000,,,-1457893894764975452,0.0,200798968.96461624,,,135,48.66847610473633,1602000000,3
Agc,1773858718869,42105000000,,,-1457893894764975452,0.0,200798968.96461624,,,135,34.848453521728516,1575420000,6
Agc,1773858718869,42105000000,,,-1457893894764975452,0.0,200798968.96461624,,,135,0.0,1176450000,6
Agc,1773858718869,42105000000,,,-1457893894764975452,0.0,200798968.96461624,,,135,53.421199798583984,1561096000,5
Agc,1773858718869,42105000000,,,-1457893894764975452,0.0,200798968.96461624,,,135,34.848453521728516,1575420000,5
Agc,1773858718869,42105000000,,,-1457893894764975452,0.0,200798968.96461624,,,135,0.0,1176450000,5
Agc,1773858719869,43105000000,,,-1457893894764974869,0.0,200799270.96461624,,,135,35.81869888305664,1575420000,1
Agc,1773858719869,43105000000,,,-1457893894764974869,0.0,200799270.96461624,,,135,0.0,1176450000,1
Agc,1773858719869,43105000000,,,-1457893894764974869,0.0,200799270.96461624,,,135,48.98435974121094,1602000000,3
Agc,1773858719869,43105000000,,,-1457893894764974869,0.0,200799270.96461624,,,135,35.81869888305664,1575420000,6
Agc,1773858719869,43105000000,,,-1457893894764974869,0.0,200799270.96461624,,,135,0.0,1176450000,6
Agc,1773858719869,43105000000,,,-1457893894764974869,0.0,200799270.96461624,,,135,50.75538635253906,1561096000,5
Agc,1773858719869,43105000000,,,-1457893894764974869,0.0,200799270.96461624,,,135,35.81869888305664,1575420000,5
Agc,1773858719869,43105000000,,,-1457893894764974869,0.0,200799270.96461624,,,135,0.0,1176450000,5
Agc,1773858720869,44105000000,,,-1457893894764974286,0.0,200799572.96461627,,,135,34.107025146484375,1575420000,1
Agc,1773858720869,44105000000,,,-1457893894764974286,0.0,200799572.96461627,,,135,0.0,1176450000,1
Agc,1773858720869,44105000000,,,-1457893894764974286,0.0,200799572.96461627,,,135,50.144203186035156,1602000000,3
Agc,1773858720869,44105000000,,,-1457893894764974286,0.0,200799572.96461627,,,135,34.107025146484375,1575420000,6
Agc,1773858720869,44105000000,,,-1457893894764974286,0.0,200799572.96461627,,,135,0.0,1176450000,6
Agc,1773858720869,44105000000,,,-1457893894764974286,0.0,200799572.96461627,,,135,47.88327407836914,1561096000,5
Agc,1773858720869,44105000000,,,-1457893894764974286,0.0,200799572.96461627,,,135,34.107025146484375,1575420000,5
Agc,1773858720869,44105000000,,,-1457893894764974286,0.0,200799572.96461627,,,135,0.0,1176450000,5
Agc,1773858721869,45105000000,,,-1457893894764973703,0.0,200799874.96461627,,,135,35.384315490722656,1575420000,1
Agc,1773858721869,45105000000,,,-1457893894764973703,0.0,200799874.96461627,,,135,0.0,1176450000,1
Agc,1773858721869,45105000000,,,-1457893894764973703,0.0,200799874.96461627,,,135,47.91270446777344,1602000000,3
Agc,1773858721869,45105000000,,,-1457893894764973703,0.0,200799874.96461627,,,135,35.384315490722656,1575420000,6
Agc,1773858721869,45105000000,,,-1457893894764973703,0.0,200799874.96461627,,,135,0.0,1176450000,6
Agc,1773858721869,45105000000,,,-1457893894764973703,0.0,200799874.96461627,,,135,49.289024353027344,1561096000,5
Agc,1773858721869,45105000000,,,-1457893894764973703,0.0,200799874.96461627,,,135,35.384315490722656,1575420000,5
Agc,1773858721869,45105000000,,,-1457893894764973703,0.0,200799874.96461627,,,135,0.0,1176450000,5
Agc,1773858722869,46105000000,,,-1457893894764973120,0.0,200800176.96461627,,,135,34.848453521728516,1575420000,1
Agc,1773858722869,46105000000,,,-1457893894764973120,0.0,200800176.96461627,,,135,0.0,1176450000,1
Agc,1773858722869,46105000000,,,-1457893894764973120,0.0,200800176.96461627,,,135,49.79810333251953,1602000000,3
Agc,1773858722869,46105000000,,,-1457893894764973120,0.0,200800176.96461627,,,135,34.848453521728516,1575420000,6
Agc,1773858722869,46105000000,,,-1457893894764973120,0.0,200800176.96461627,,,135,0.0,1176450000,6
Agc,1773858722869,46105000000,,,-1457893894764973120,0.0,200800176.96461627,,,135,50.58506774902344,1561096000,5
Agc,1773858722869,46105000000,,,-1457893894764973120,0.0,200800176.96461627,,,135,34.848453521728516,1575420000,5
Agc,1773858722869,46105000000,,,-1457893894764973120,0.0,200800176.96461627,,,135,0.0,1176450000,5
Agc,1773858723869,47105000000,,,-1457893894764972537,0.0,200800478.96461624,,,135,33.75603485107422,1575420000,1
Agc,1773858723869,47105000000,,,-1457893894764972537,0.0,200800478.96461624,,,135,0.0,1176450000,1
Agc,1773858723869,47105000000,,,-1457893894764972537,0.0,200800478.96461624,,,135,48.98435974121094,1602000000,3
Agc,1773858723869,47105000000,,,-1457893894764972537,0.0,200800478.96461624,,,135,33.75603485107422,1575420000,6
Agc,1773858723869,47105000000,,,-1457893894764972537,0.0,200800478.96461624,,,135,0.0,1176450000,6
Agc,1773858723869,47105000000,,,-1457893894764972537,0.0,200800478.96461624,,,135,55.10762023925781,1561096000,5
Agc,1773858723869,47105000000,,,-1457893894764972537,0.0,200800478.96461624,,,135,33.75603485107422,1575420000,5
Agc,1773858723869,47105000000,,,-1457893894764972537,0.0,200800478.96461624,,,135,0.0,1176450000,5
Agc,1773858724869,48105000000,,,-1457893894764971954,0.0,200800780.96461624,,,135,35.81869888305664,1575420000,1
Agc,1773858724869,48105000000,,,-1457893894764971954,0.0,200800780.96461624,,,135,0.0,1176450000,1
Agc,1773858724869,48105000000,,,-1457893894764971954,0.0,200800780.96461624,,,135,48.66847610473633,1602000000,3
Agc,1773858724869,48105000000,,,-1457893894764971954,0.0,200800780.96461624,,,135,35.81869888305664,1575420000,6
Agc,1773858724869,48105000000,,,-1457893894764971954,0.0,200800780.96461624,,,135,0.0,1176450000,6
Agc,1773858724869,48105000000,,,-1457893894764971954,0.0,200800780.96461624,,,135,55.10762023925781,1561096000,5
Agc,1773858724869,48105000000,,,-1457893894764971954,0.0,200800780.96461624,,,135,35.81869888305664,1575420000,5
Agc,1773858724869,48105000000,,,-1457893894764971954,0.0,200800780.96461624,,,135,0.0,1176450000,5
Agc,1773858725869,49105000000,,,-1457893894764971371,0.0,200801082.96461624,,,135,34.68907165527344,1575420000,1
Agc,1773858725869,49105000000,,,-1457893894764971371,0.0,200801082.96461624,,,135,0.0,1176450000,1
Agc,1773858725869,49105000000,,,-1457893894764971371,0.0,200801082.96461624,,,135,49.58362579345703,1602000000,3
Agc,1773858725869,49105000000,,,-1457893894764971371,0.0,200801082.96461624,,,135,34.68907165527344,1575420000,6
Agc,1773858725869,49105000000,,,-1457893894764971371,0.0,200801082.96461624,,,135,0.0,1176450000,6
Agc,1773858725869,49105000000,,,-1457893894764971371,0.0,200801082.96461624,,,135,49.289024353027344,1561096000,5
Agc,1773858725869,49105000000,,,-1457893894764971371,0.0,200801082.96461624,,,135,34.68907165527344,1575420000,5
Agc,1773858725869,49105000000,,,-1457893894764971371,0.0,200801082.96461624,,,135,0.0,1176450000,5
Agc,1773858726869,50105000000,,,-1457893894764970788,0.0,200801384.96461624,,,135,34.68907165527344,1575420000,1
Agc,1773858726869,50105000000,,,-1457893894764970788,0.0,200801384.96461624,,,135,0.0,1176450000,1
Agc,1773858726869,50105000000,,,-1457893894764970788,0.0,200801384.96461624,,,135,48.66847610473633,1602000000,3
Agc,1773858726869,50105000000,,,-1457893894764970788,0.0,200801384.96461624,,,135,34.68907165527344,1575420000,6
Agc,1773858726869,50105000000,,,-1457893894764970788,0.0,200801384.96461624,,,135,0.0,1176450000,6
Agc,1773858726869,50105000000,,,-1457893894764970788,0.0,200801384.96461624,,,135,48.668338775634766,1561096000,5
Agc,1773858726869,50105000000,,,-1457893894764970788,0.0,200801384.96461624,,,135,34.68907165527344,1575420000,5
Agc,1773858726869,50105000000,,,-1457893894764970788,0.0,200801384.96461624,,,135,0.0,1176450000,5
Agc,1773858727869,51105000000,,,-1457893894764970205,0.0,200801686.96461627,,,135,34.68907165527344,1575420000,1
Agc,1773858727869,51105000000,,,-1457893894764970205,0.0,200801686.96461627,,,135,0.0,1176450000,1
Agc,1773858727869,51105000000,,,-1457893894764970205,0.0,200801686.96461627,,,135,50.54209899902344,1602000000,3
Agc,1773858727869,51105000000,,,-1457893894764970205,0.0,200801686.96461627,,,135,34.68907165527344,1575420000,6
Agc,1773858727869,51105000000,,,-1457893894764970205,0.0,200801686.96461627,,,135,0.0,1176450000,6
Agc,1773858727869,51105000000,,,-1457893894764970205,0.0,200801686.96461627,,,135,49.289024353027344,1561096000,5
Agc,1773858727869,51105000000,,,-1457893894764970205,0.0,200801686.96461627,,,135,34.68907165527344,1575420000,5
Agc,1773858727869,51105000000,,,-1457893894764970205,0.0,200801686.96461627,,,135,0.0,1176450000,5
Agc,1773858728869,52105000000,,,-1457893894764969622,0.0,200801988.96461627,,,135,33.575069427490234,1575420000,1
Agc,1773858728869,52105000000,,,-1457893894764969622,0.0,200801988.96461627,,,135,0.0,1176450000,1
Agc,1773858728869,52105000000,,,-1457893894764969622,0.0,200801988.96461627,,,135,48.66847610473633,1602000000,3
Agc,1773858728869,52105000000,,,-1457893894764969622,0.0,200801988.96461627,,,135,33.575069427490234,1575420000,6
Agc,1773858728869,52105000000,,,-1457893894764969622,0.0,200801988.96461627,,,135,0.0,1176450000,6
Agc,1773858728869,52105000000,,,-1457893894764969622,0.0,200801988.96461627,,,135,54.36112976074219,1561096000,5
Agc,1773858728869,52105000000,,,-1457893894764969622,0.0,200801988.96461627,,,135,33.575069427490234,1575420000,5
Agc,1773858728869,52105000000,,,-1457893894764969622,0.0,200801988.96461627,,,135,0.0,1176450000,5
Agc,1773858729869,53105000000,,,-1457893894764969039,0.0,200802290.96461627,,,135,36.56269836425781,1575420000,1
Agc,1773858729869,53105000000,,,-1457893894764969039,0.0,200802290.96461627,,,135,0.0,1176450000,1
Agc,1773858729869,53105000000,,,-1457893894764969039,0.0,200802290.96461627,,,135,49.79810333251953,1602000000,3
Agc,1773858729869,53105000000,,,-1457893894764969039,0.0,200802290.96461627,,,135,36.56269836425781,1575420000,6
Agc,1773858729869,53105000000,,,-1457893894764969039,0.0,200802290.96461627,,,135,0.0,1176450000,6
Agc,1773858729869,53105000000,,,-1457893894764969039,0.0,200802290.96461627,,,135,54.36112976074219,1561096000,5
Agc,1773858729869,53105000000,,,-1457893894764969039,0.0,200802290.96461627,,,135,36.56269836425781,1575420000,5
Agc,1773858729869,53105000000,,,-1457893894764969039,0.0,200802290.96461627,,,135,0.0,1176450000,5
Agc,1773858730869,54105000000,,,-1457893894764968456,0.0,200802592.96461627,,,135,35.384315490722656,1575420000,1
Agc,1773858730869,54105000000,,,-1457893894764968456,0.0,200802592.96461627,,,135,0.0,1176450000,1
Agc,1773858730869,54105000000,,,-1457893894764968456,0.0,200802592.96461627,,,135,48.42378616333008,1602000000,3
Agc,1773858730869,54105000000,,,-1457893894764968456,0.0,200802592.96461627,,,135,35.384315490722656,1575420000,6
Agc,1773858730869,54105000000,,,-1457893894764968456,0.0,200802592.96461627,,,135,0.0,1176450000,6
Agc,1773858730869,54105000000,,,-1457893894764968456,0.0,200802592.96461627,,,135,54.36112976074219,1561096000,5
Agc,1773858730869,54105000000,,,-1457893894764968456,0.0,200802592.96461627,,,135,35.384315490722656,1575420000,5
Agc,1773858730869,54105000000,,,-1457893894764968456,0.0,200802592.96461627,,,135,0.0,1176450000,5
Agc,1773858731869,55105000000,,,-1457893894764967873,0.0,200802894.96461624,,,135,34.848453521728516,1575420000,1
Agc,1773858731869,55105000000,,,-1457893894764967873,0.0,200802894.96461624,,,135,0.0,1176450000,1
Agc,1773858731869,55105000000,,,-1457893894764967873,0.0,200802894.96461624,,,135,49.938201904296875,1602000000,3
Agc,1773858731869,55105000000,,,-1457893894764967873,0.0,200802894.96461624,,,135,34.848453521728516,1575420000,6
Agc,1773858731869,55105000000,,,-1457893894764967873,0.0,200802894.96461624,,,135,0.0,1176450000,6
Agc,1773858731869,55105000000,,,-1457893894764967873,0.0,200802894.96461624,,,135,54.36112976074219,1561096000,5
Agc,1773858731869,55105000000,,,-1457893894764967873,0.0,200802894.96461624,,,135,34.848453521728516,1575420000,5
Agc,1773858731869,55105000000,,,-1457893894764967873,0.0,200802894.96461624,,,135,0.0,1176450000,5
Agc,1773858732869,56105000000,,,-1457893894764967290,0.0,200803196.96461624,,,135,35.00495910644531,1575420000,1
Agc,1773858732869,56105000000,,,-1457893894764967290,0.0,200803196.96461624,,,135,0.0,1176450000,1
Agc,1773858732869,56105000000,,,-1457893894764967290,0.0,200803196.96461624,,,135,49.938201904296875,1602000000,3
Agc,1773858732869,56105000000,,,-1457893894764967290,0.0,200803196.96461624,,,135,35.00495910644531,1575420000,6
Agc,1773858732869,56105000000,,,-1457893894764967290,0.0,200803196.96461624,,,135,0.0,1176450000,6
Agc,1773858732869,56105000000,,,-1457893894764967290,0.0,200803196.96461624,,,135,54.36112976074219,1561096000,5
Agc,1773858732869,56105000000,,,-1457893894764967290,0.0,200803196.96461624,,,135,35.00495910644531,1575420000,5
Agc,1773858732869,56105000000,,,-1457893894764967290,0.0,200803196.96461624,,,135,0.0,1176450000,5
Agc,1773858733869,57105000000,,,-1457893894764966707,0.0,200803498.96461624,,,135,35.384315490722656,1575420000,1
Agc,1773858733869,57105000000,,,-1457893894764966707,0.0,200803498.96461624,,,135,0.0,1176450000,1
Agc,1773858733869,57105000000,,,-1457893894764966707,0.0,200803498.96461624,,,135,48.827857971191406,1602000000,3
Agc,1773858733869,57105000000,,,-1457893894764966707,0.0,200803498.96461624,,,135,35.384315490722656,1575420000,6
Agc,1773858733869,57105000000,,,-1457893894764966707,0.0,200803498.96461624,,,135,0.0,1176450000,6
Agc,1773858733869,57105000000,,,-1457893894764966707,0.0,200803498.96461624,,,135,54.36112976074219,1561096000,5
Agc,1773858733869,57105000000,,,-1457893894764966707,0.0,200803498.96461624,,,135,35.384315490722656,1575420000,5
Agc,1773858733869,57105000000,,,-1457893894764966707,0.0,200803498.96461624,,,135,0.0,1176450000,5
Agc,1773858734869,58105000000,,,-1457893894764966124,0.0,200803800.96461627,,,135,35.00495910644531,1575420000,1
Agc,1773858734869,58105000000,,,-1457893894764966124,0.0,200803800.96461627,,,135,0.0,1176450000,1
Agc,1773858734869,58105000000,,,-1457893894764966124,0.0,200803800.96461627,,,135,48.827857971191406,1602000000,3
Agc,1773858734869,58105000000,,,-1457893894764966124,0.0,200803800.96461627,,,135,35.00495910644531,1575420000,6
Agc,1773858734869,58105000000,,,-1457893894764966124,0.0,200803800.96461627,,,135,0.0,1176450000,6
Agc,1773858734869,58105000000,,,-1457893894764966124,0.0,200803800.96461627,,,135,54.36112976074219,1561096000,5
Agc,1773858734869,58105000000,,,-1457893894764966124,0.0,200803800.96461627,,,135,35.00495910644531,1575420000,5
Agc,1773858734869,58105000000,,,-1457893894764966124,0.0,200803800.96461627,,,135,0.0,1176450000,5
Agc,1773858735869,59105000000,,,-1457893894764965541,0.0,200804102.96461627,,,135,34.27734375,1575420000,1
Agc,1773858735869,59105000000,,,-1457893894764965541,0.0,200804102.96461627,,,135,0.0,1176450000,1
Agc,1773858735869,59105000000,,,-1457893894764965541,0.0,200804102.96461627,,,135,48.98435974121094,1602000000,3
Agc,1773858735869,59105000000,,,-1457893894764965541,0.0,200804102.96461627,,,135,34.27734375,1575420000,6
Agc,1773858735869,59105000000,,,-1457893894764965541,0.0,200804102.96461627,,,135,0.0,1176450000,6
Agc,1773858735869,59105000000,,,-1457893894764965541,0.0,200804102.96461627,,,135,54.36112976074219,1561096000,5
Agc,1773858735869,59105000000,,,-1457893894764965541,0.0,200804102.96461627,,,135,34.27734375,1575420000,5
Agc,1773858735869,59105000000,,,-1457893894764965541,0.0,200804102.96461627,,,135,0.0,1176450000,5
Agc,1773858736869,60105000000,,,-1457893894764964958,0.0,200804404.96461627,,,135,35.81869888305664,1575420000,1
Agc,1773858736869,60105000000,,,-1457893894764964958,0.0,200804404.96461627,,,135,0.0,1176450000,1
Agc,1773858736869,60105000000,,,-1457893894764964958,0.0,200804404.96461627,,,135,50.27886962890625,1602000000,3
Agc,1773858736869,60105000000,,,-1457893894764964958,0.0,200804404.96461627,,,135,35.81869888305664,1575420000,6
Agc,1773858736869,60105000000,,,-1457893894764964958,0.0,200804404.96461627,,,135,0.0,1176450000,6
Agc,1773858736869,60105000000,,,-1457893894764964958,0.0,200804404.96461627,,,135,54.36112976074219,1561096000,5
Agc,1773858736869,60105000000,,,-1457893894764964958,0.0,200804404.96461627,,,135,35.81869888305664,1575420000,5
Agc,1773858736869,60105000000,,,-1457893894764964958,0.0,200804404.96461627,,,135,0.0,1176450000,5
Agc,1773858737869,61105000000,,,-1457893894764964375,0.0,200804706.96461627,,,135,34.68907165527344,1575420000,1
Agc,1773858737869,61105000000,,,-1457893894764964375,0.0,200804706.96461627,,,135,0.0,1176450000,1
Agc,1773858737869,61105000000,,,-1457893894764964375,0.0,200804706.96461627,,,135,49.938201904296875,1602000000,3
Agc,1773858737869,61105000000,,,-1457893894764964375,0.0,200804706.96461627,,,135,34.68907165527344,1575420000,6
Agc,1773858737869,61105000000,,,-1457893894764964375,0.0,200804706.96461627,,,135,0.0,1176450000,6
Agc,1773858737869,61105000000,,,-1457893894764964375,0.0,200804706.96461627,,,135,54.36112976074219,1561096000,5
Agc,1773858737869,61105000000,,,-1457893894764964375,0.0,200804706.96461627,,,135,34.68907165527344,1575420000,5
Agc,1773858737869,61105000000,,,-1457893894764964375,0.0,200804706.96461627,,,135,0.0,1176450000,5
Agc,1773858738869,62105000000,,,-1457893894764963792,0.0,200805008.96461624,,,135,34.107025146484375,1575420000,1
Agc,1773858738869,62105000000,,,-1457893894764963792,0.0,200805008.96461624,,,135,0.0,1176450000,1
Agc,1773858738869,62105000000,,,-1457893894764963792,0.0,200805008.96461624,,,135,48.827857971191406,1602000000,3
Agc,1773858738869,62105000000,,,-1457893894764963792,0.0,200805008.96461624,,,135,34.107025146484375,1575420000,6
Agc,1773858738869,62105000000,,,-1457893894764963792,0.0,200805008.96461624,,,135,0.0,1176450000,6
Agc,1773858738869,62105000000,,,-1457893894764963792,0.0,200805008.96461624,,,135,54.36112976074219,1561096000,5
Agc,1773858738869,62105000000,,,-1457893894764963792,0.0,200805008.96461624,,,135,34.107025146484375,1575420000,5
Agc,1773858738869,62105000000,,,-1457893894764963792,0.0,200805008.96461624,,,135,0.0,1176450000,5
Agc,1773858739869,63105000000,,,-1457893894764963209,0.0,200805310.96461624,,,135,35.234554290771484,1575420000,1
Agc,1773858739869,63105000000,,,-1457893894764963209,0.0,200805310.96461624,,,135,0.0,1176450000,1
Agc,1773858739869,63105000000,,,-1457893894764963209,0.0,200805310.96461624,,,135,48.086429595947266,1602000000,3
Agc,1773858739869,63105000000,,,-1457893894764963209,0.0,200805310.96461624,,,135,35.234554290771484,1575420000,6
Agc,1773858739869,63105000000,,,-1457893894764963209,0.0,200805310.96461624,,,135,0.0,1176450000,6
Agc,1773858739869,63105000000,,,-1457893894764963209,0.0,200805310.96461624,,,135,50.58506774902344,1561096000,5
Agc,1773858739869,63105000000,,,-1457893894764963209,0.0,200805310.96461624,,,135,35.234554290771484,1575420000,5
Agc,1773858739869,63105000000,,,-1457893894764963209,0.0,200805310.96461624,,,135,0.0,1176450000,5
Agc,1773858740869,64105000000,,,-1457893894764962626,0.0,200805612.96461624,,,135,33.20142364501953,1575420000,1
Agc,1773858740869,64105000000,,,-1457893894764962626,0.0,200805612.96461624,,,135,0.0,1176450000,1
Agc,1773858740869,64105000000,,,-1457893894764962626,0.0,200805612.96461624,,,135,50.54209899902344,1602000000,3
Agc,1773858740869,64105000000,,,-1457893894764962626,0.0,200805612.96461624,,,135,33.20142364501953,1575420000,6
Agc,1773858740869,64105000000,,,-1457893894764962626,0.0,200805612.96461624,,,135,0.0,1176450000,6
Agc,1773858740869,64105000000,,,-1457893894764962626,0.0,200805612.96461624,,,135,50.0531120300293,1561096000,5
Agc,1773858740869,64105000000,,,-1457893894764962626,0.0,200805612.96461624,,,135,33.20142364501953,1575420000,5
Agc,1773858740869,64105000000,,,-1457893894764962626,0.0,200805612.96461624,,,135,0.0,1176450000,5
Agc,1773858741869,65105000000,,,-1457893894764962043,0.0,200805914.96461624,,,135,35.234554290771484,1575420000,1
Agc,1773858741869,65105000000,,,-1457893894764962043,0.0,200805914.96461624,,,135,0.0,1176450000,1
Agc,1773858741869,65105000000,,,-1457893894764962043,0.0,200805914.96461624,,,135,48.42378616333008,1602000000,3
Agc,1773858741869,65105000000,,,-1457893894764962043,0.0,200805914.96461624,,,135,35.234554290771484,1575420000,6
Agc,1773858741869,65105000000,,,-1457893894764962043,0.0,200805914.96461624,,,135,0.0,1176450000,6
Agc,1773858741869,65105000000,,,-1457893894764962043,0.0,200805914.96461624,,,135,49.289024353027344,1561096000,5
Agc,1773858741869,65105000000,,,-1457893894764962043,0.0,200805914.96461624,,,135,35.234554290771484,1575420000,5
Agc,1773858741869,65105000000,,,-1457893894764962043,0.0,200805914.96461624,,,135,0.0,1176450000,5
Agc,1773858742869,66105000000,,,-1457893894764961460,0.0,200806216.96461627,,,135,34.848453521728516,1575420000,1
Agc,1773858742869,66105000000,,,-1457893894764961460,0.0,200806216.96461627,,,135,0.0,1176450000,1
Agc,1773858742869,66105000000,,,-1457893894764961460,0.0,200806216.96461627,,,135,48.98435974121094,1602000000,3
Agc,1773858742869,66105000000,,,-1457893894764961460,0.0,200806216.96461627,,,135,34.848453521728516,1575420000,6
Agc,1773858742869,66105000000,,,-1457893894764961460,0.0,200806216.96461627,,,135,0.0,1176450000,6
Agc,1773858742869,66105000000,,,-1457893894764961460,0.0,200806216.96461627,,,135,49.4864387512207,1561096000,5
Agc,1773858742869,66105000000,,,-1457893894764961460,0.0,200806216.96461627,,,135,34.848453521728516,1575420000,5
Agc,1773858742869,66105000000,,,-1457893894764961460,0.0,200806216.96461627,,,135,0.0,1176450000,5
